[
{
  "number": "1",
  "storeName": "충무로또45국도점",
  "phoneNumber": "",
  "address": "충남 아산시 음봉면 동천리 174-46",
  "latitude": "36.836567",
  "longitude": "127.010925"
},
{
  "number": "2",
  "storeName": "근대화온천복권",
  "phoneNumber": "041-531-5554",
  "address": "충남 아산시 온양3동 532-3",
  "latitude": "36.78832",
  "longitude": "127.012764"
},
{
  "number": "3",
  "storeName": "대진복권방",
  "phoneNumber": "041-533-1236",
  "address": "충남 아산시 염치읍 서원리 27-8번지",
  "latitude": "36.83958",
  "longitude": "126.9667"
},
{
  "number": "4",
  "storeName": "아산직매장",
  "phoneNumber": "041-549-7567",
  "address": "충남 아산시 풍기동 230-2번지",
  "latitude": "36.77566",
  "longitude": "127.0159"
},
{
  "number": "5",
  "storeName": "드림통신(구)굿타임24아산석정점",
  "phoneNumber": "041-549-7011",
  "address": "충남 아산시 염치읍 석정리 28-9번지",
  "latitude": "36.80132",
  "longitude": "127.00763"
},
{
  "number": "6",
  "storeName": "국영슈퍼",
  "phoneNumber": "041-545-4252",
  "address": "충남 아산시 온천동 224-3",
  "latitude": "36.78178",
  "longitude": "127.00041"
},
{
  "number": "7",
  "storeName": "둔포로또판매점",
  "phoneNumber": "",
  "address": "충남 아산시 둔포면 둔포리 479-1 둔포로또판매점",
  "latitude": "36.93068",
  "longitude": "127.03849"
},
{
  "number": "8",
  "storeName": "대박행운복권방",
  "phoneNumber": "041-546-2222",
  "address": "충남 아산시 도고면 금산리 161-21 서해안 휴게소내 편의점",
  "latitude": "36.74627",
  "longitude": "126.86686"
},
{
  "number": "9",
  "storeName": "로또복권방",
  "phoneNumber": "041-533-0645",
  "address": "충남 아산시 배방읍 공수리 142-21 PGA스크린골프연습장내",
  "latitude": "36.77443",
  "longitude": "127.05638"
},
{
  "number": "10",
  "storeName": "달성로또복권판매소",
  "phoneNumber": "041-545-6192",
  "address": "충남 아산시 온천동 80-2번지",
  "latitude": "36.780777",
  "longitude": "127.007904"
},
{
  "number": "11",
  "storeName": "동덕로또방",
  "phoneNumber": "041-545-4680",
  "address": "충남 아산시 온천동 92-1",
  "latitude": "36.782597",
  "longitude": "127.00327"
},
{
  "number": "12",
  "storeName": "로또복권방",
  "phoneNumber": "041-544-5869",
  "address": "충남 아산시 탕정면 호산리 517-1",
  "latitude": "36.808697",
  "longitude": "127.07481"
},
{
  "number": "13",
  "storeName": "대박마트복권방",
  "phoneNumber": "041-549-0787",
  "address": "충남 아산시 음봉면 산동리 431-10 태화상가1층103호",
  "latitude": "36.826454",
  "longitude": "127.09925"
},
{
  "number": "14",
  "storeName": "오뚜기복권방",
  "phoneNumber": "041-546-2888",
  "address": "충남 아산시 득산동 386-5",
  "latitude": "36.784607",
  "longitude": "126.96117"
},
{
  "number": "15",
  "storeName": "온양종합약국점",
  "phoneNumber": "041-549-3454",
  "address": "충남 아산시 온천동 226-32번지",
  "latitude": "36.784332",
  "longitude": "127.00091"
},
{
  "number": "16",
  "storeName": "21시슈퍼",
  "phoneNumber": "041-546-4050",
  "address": "충남 아산시 온천동 81-16번지",
  "latitude": "36.780476",
  "longitude": "127.007324"
},
{
  "number": "17",
  "storeName": "이마트24아산인주휴게소점",
  "phoneNumber": "",
  "address": "충남 아산시 인주면 신성리 185-108번지",
  "latitude": "36.87562",
  "longitude": "126.894356"
},
{
  "number": "18",
  "storeName": "행운마트",
  "phoneNumber": "041-532-7997",
  "address": "충남 아산시 인주면 공세리 114-18",
  "latitude": "36.88197",
  "longitude": "126.91071"
},
{
  "number": "19",
  "storeName": "GS25(온천파크점)",
  "phoneNumber": "041-547-1601",
  "address": "충남 아산시 온천동 1310번지 1층",
  "latitude": "36.78843",
  "longitude": "126.99688"
},
{
  "number": "20",
  "storeName": "GS25(아산비발디점)",
  "phoneNumber": "041-531-9032",
  "address": "충남 아산시 배방읍 북수리 939 GS편의점",
  "latitude": "36.77058",
  "longitude": "127.06493"
},
{
  "number": "21",
  "storeName": "GS25(아산중앙점)",
  "phoneNumber": "041-548-8424",
  "address": "충남 아산시 온천동 491번지",
  "latitude": "36.77864",
  "longitude": "126.999146"
},
{
  "number": "22",
  "storeName": "봉황복권점",
  "phoneNumber": "",
  "address": "충남 아산시 둔포면 봉재리 400-1",
  "latitude": "36.875645",
  "longitude": "127.02916"
},
{
  "number": "23",
  "storeName": "이번 주인공은 당신!",
  "phoneNumber": "",
  "address": "충남 아산시 신창면 남성리 103번지",
  "latitude": "36.791885",
  "longitude": "126.95762"
},
{
  "number": "24",
  "storeName": "대박로또명당",
  "phoneNumber": "041-545-2890",
  "address": "충남 아산시 모종동 565-6",
  "latitude": "36.784233",
  "longitude": "127.01445"
},
{
  "number": "25",
  "storeName": "대박로또",
  "phoneNumber": "",
  "address": "충남 아산시 권곡동 550-5번지",
  "latitude": "36.78507",
  "longitude": "127.009926"
},
{
  "number": "26",
  "storeName": "행운로또",
  "phoneNumber": "",
  "address": "충남 아산시 둔포면 관대리 197",
  "latitude": "36.90578",
  "longitude": "126.98759"
},
{
  "number": "27",
  "storeName": "행운로또판매점",
  "phoneNumber": "041-548-1748",
  "address": "충남 아산시 배방읍 북수리 1396",
  "latitude": "36.773895",
  "longitude": "127.07122"
},
{
  "number": "28",
  "storeName": "로또복권나눔커피",
  "phoneNumber": "070-8966-0941",
  "address": "충남 아산시 배방읍 공수리 66-2",
  "latitude": "36.77535",
  "longitude": "127.060616"
},
{
  "number": "29",
  "storeName": "로또복권",
  "phoneNumber": "",
  "address": "충남 아산시 배방읍 세교리 965-5 101호",
  "latitude": "36.777138",
  "longitude": "127.08153"
},
{
  "number": "30",
  "storeName": "미니스톱아산남성점",
  "phoneNumber": "",
  "address": "충남 아산시 신창면 남성리 199",
  "latitude": "36.793022",
  "longitude": "126.9553"
},
{
  "number": "31",
  "storeName": "제이민온천복권",
  "phoneNumber": "041-548-2322",
  "address": "충남 아산시 모종동 553-18 웨이스탑 편의점",
  "latitude": "36.786415",
  "longitude": "127.01458"
},
{
  "number": "32",
  "storeName": "이마트24 아산음봉스타점",
  "phoneNumber": "",
  "address": "충남 아산시 인주면 밀두리 130-68 1층",
  "latitude": "36.865345",
  "longitude": "127.03069"
},
{
  "number": "33",
  "storeName": "복권명당",
  "phoneNumber": "",
  "address": "충남 아산시 음봉면 덕지리 391-2",
  "latitude": "36.83799",
  "longitude": "127.0738"
},
{
  "number": "34",
  "storeName": "로또편의점",
  "phoneNumber": "041-532-3420",
  "address": "충남 아산시 배방읍 장재리 1255 101호",
  "latitude": "36.7906",
  "longitude": "127.09059"
},
{
  "number": "35",
  "storeName": "테크노벨리복권",
  "phoneNumber": "041-545-1736",
  "address": "충남 아산시 둔포면 석곡리 1376 1층 102호",
  "latitude": "36.77458",
  "longitude": "127.00055"
},
{
  "number": "36",
  "storeName": "복터졌다 복권방",
  "phoneNumber": "041-546-4726",
  "address": "충남 아산시 온천동 87-14번지",
  "latitude": "36.78048",
  "longitude": "127.00528"
},
{
  "number": "37",
  "storeName": "대박나라복권방",
  "phoneNumber": "041-542-8973",
  "address": "충남 아산시 신창면 읍내리 292-2",
  "latitude": "36.777332",
  "longitude": "126.93442"
},
{
  "number": "38",
  "storeName": "로또명당인주점",
  "phoneNumber": "041-533-0449",
  "address": "충남 아산시 인주면 신성리 188-8",
  "latitude": "36.877827",
  "longitude": "126.89829"
},
{
  "number": "39",
  "storeName": "영순로또점",
  "phoneNumber": "",
  "address": "충남 아산시 배방읍 북수리 1046",
  "latitude": "36.77248",
  "longitude": "127.06568"
},
{
  "number": "40",
  "storeName": "탕정 나눔로또",
  "phoneNumber": "",
  "address": "충남 아산시 탕정면 동산리 515-2",
  "latitude": "36.81955",
  "longitude": "127.07303"
},
{
  "number": "41",
  "storeName": "베스트복권방",
  "phoneNumber": "",
  "address": "충남 아산시 모종동 572-8",
  "latitude": "36.78252",
  "longitude": "127.01543"
},
{
  "number": "42",
  "storeName": "둔포로 로또방",
  "phoneNumber": "",
  "address": "충남 아산시 둔포면 둔포리 282-26 세븐일레븐 편의점",
  "latitude": "36.924835",
  "longitude": "127.044075"
},
{
  "number": "43",
  "storeName": "(나눔)로또",
  "phoneNumber": "",
  "address": "충남 아산시 탕정면 갈산리 526-8 101호 GS25편의점내",
  "latitude": "36.801983",
  "longitude": "127.06739"
},
{
  "number": "44",
  "storeName": "위드미아산용화센터점",
  "phoneNumber": "",
  "address": "충남 아산시 용화동 1466번지 101호",
  "latitude": "36.770096",
  "longitude": "127.001305"
},
{
  "number": "45",
  "storeName": "일등복권",
  "phoneNumber": "",
  "address": "충남 아산시 둔포면 석곡리 1805 816동 106호",
  "latitude": "36.91872",
  "longitude": "127.056984"
},
{
  "number": "46",
  "storeName": "천운로또",
  "phoneNumber": "",
  "address": "충남 아산시 탕정면 용두리 588-2",
  "latitude": "36.79864",
  "longitude": "127.04795"
},
{
  "number": "47",
  "storeName": "로또판매점 신용화점",
  "phoneNumber": "041-544-9971",
  "address": "충남 아산시 용화동 1113 상가 102호 세븐일레븐",
  "latitude": "36.776638",
  "longitude": "127.00977"
},
{
  "number": "48",
  "storeName": "1등행운로또",
  "phoneNumber": "041-532-0788",
  "address": "충남 아산시 방축동 162-25",
  "latitude": "36.786015",
  "longitude": "126.98443"
},
{
  "number": "49",
  "storeName": "로또판매",
  "phoneNumber": "",
  "address": "충남 아산시 탕정면 호산리 501-1",
  "latitude": "36.808323",
  "longitude": "127.07705"
},
{
  "number": "50",
  "storeName": "피렌체로또",
  "phoneNumber": "",
  "address": "충남 아산시 탕정면 동산리 89-28",
  "latitude": "36.821877",
  "longitude": "127.086136"
},
{
  "number": "51",
  "storeName": "왕대박로또",
  "phoneNumber": "",
  "address": "충남 아산시 도고면 향산리 276-13 에이동 1층",
  "latitude": "36.783157",
  "longitude": "127.002785"
},
{
  "number": "52",
  "storeName": "선장로또",
  "phoneNumber": "",
  "address": "충남 아산시 선장면 대흥리 280-10 미니스톱",
  "latitude": "36.808403",
  "longitude": "126.868614"
},
{
  "number": "53",
  "storeName": "6.2.3복권방",
  "phoneNumber": "",
  "address": "충남 아산시 좌부동 249-2 GS25편의점내",
  "latitude": "36.760258",
  "longitude": "127.024376"
},
{
  "number": "54",
  "storeName": "세븐로또판매점",
  "phoneNumber": "",
  "address": "충남 아산시 음봉면 삼거리 288-2 동의보감식당 입구 옆 1층상가",
  "latitude": "36.848007",
  "longitude": "127.0116"
},
{
  "number": "55",
  "storeName": "럭키로또판매점",
  "phoneNumber": "",
  "address": "충남 아산시 온천동 171-3",
  "latitude": "36.7784",
  "longitude": "126.99765"
},
{
  "number": "56",
  "storeName": "세븐일레븐아산용화성지점",
  "phoneNumber": "",
  "address": "충남 아산시 용화동 635 세븐일레븐 편의점내",
  "latitude": "36.775562",
  "longitude": "126.99627"
},
{
  "number": "57",
  "storeName": "GS25아산양우",
  "phoneNumber": "",
  "address": "충남 아산시 신창면 행목리 220-2 양우아파트 입구 상가",
  "latitude": "36.783356",
  "longitude": "126.95799"
},
{
  "number": "58",
  "storeName": "배방로또1등명당복권방",
  "phoneNumber": "",
  "address": "충남 아산시 배방읍 공수리 286-27",
  "latitude": "36.7724",
  "longitude": "127.0629"
},
{
  "number": "59",
  "storeName": "(이마트편의점내)로또",
  "phoneNumber": "",
  "address": "충남 아산시 온양3동 628 상가동 103호(이마트24시편의점내)",
  "latitude": "36.782394",
  "longitude": "127.02018"
},
{
  "number": "60",
  "storeName": "복권명당 신정호수점",
  "phoneNumber": "",
  "address": "충남 아산시 온양5동 191 1층",
  "latitude": "36.75298",
  "longitude": "126.97615"
},
{
  "number": "61",
  "storeName": "두배로로또판매점",
  "phoneNumber": "",
  "address": "충남 아산시 음봉면 송촌리 130 CU편의점",
  "latitude": "36.84583",
  "longitude": "127.04497"
},
{
  "number": "62",
  "storeName": "천운명당로또복권",
  "phoneNumber": "",
  "address": "충남 아산시 온양3동 553-16",
  "latitude": "36.785446",
  "longitude": "127.00579"
},
{
  "number": "63",
  "storeName": "도고로또판매점",
  "phoneNumber": "",
  "address": "충남 아산시 도고면 금산리 90-1",
  "latitude": "36.74719",
  "longitude": "126.87358"
}
]