[
{
  "number": "1",
  "storeName": "토토복권방",
  "phoneNumber": "042-931-1887",
  "address": "대전 대덕구 목상동 866-2",
  "latitude": "36.443615",
  "longitude": "127.41102"
},
{
  "number": "2",
  "storeName": "노다지복권방",
  "phoneNumber": "042-625-6257",
  "address": "대전 대덕구 신대동 216-8번지",
  "latitude": "36.399235",
  "longitude": "127.42291"
},
{
  "number": "3",
  "storeName": "행복세상",
  "phoneNumber": "070-4001-2530",
  "address": "대전 대덕구 중리동 385-29번지",
  "latitude": "36.363632",
  "longitude": "127.42536"
},
{
  "number": "4",
  "storeName": "노다지복권방",
  "phoneNumber": "042-628-6767",
  "address": "대전 대덕구 중리동 119-7번지",
  "latitude": "36.362087",
  "longitude": "127.43391"
},
{
  "number": "5",
  "storeName": "대박나는곳행운복권방",
  "phoneNumber": "042-672-4588",
  "address": "대전 대덕구 대화동 37-12",
  "latitude": "36.367813",
  "longitude": "127.41493"
},
{
  "number": "6",
  "storeName": "노다지복권방",
  "phoneNumber": "042-637-4050",
  "address": "대전 대덕구 읍내동 325-6번지",
  "latitude": "36.37423",
  "longitude": "127.41997"
},
{
  "number": "7",
  "storeName": "행운플러스",
  "phoneNumber": "042-931-5920",
  "address": "대전 대덕구 덕암동 53-14번지",
  "latitude": "36.439404",
  "longitude": "127.42386"
},
{
  "number": "8",
  "storeName": "천복권방",
  "phoneNumber": "042-635-8200",
  "address": "대전 대덕구 오정동 64-25번지",
  "latitude": "36.35876",
  "longitude": "127.414474"
},
{
  "number": "9",
  "storeName": "코만도",
  "phoneNumber": "042-936-0026",
  "address": "대전 대덕구 석봉동 188-11번지",
  "latitude": "36.44759",
  "longitude": "127.4265"
},
{
  "number": "10",
  "storeName": "노다지복권방",
  "phoneNumber": "042-638-4588",
  "address": "대전 대덕구 법동 344-12번지 대영상가 1층",
  "latitude": "36.374367",
  "longitude": "127.427155"
},
{
  "number": "11",
  "storeName": "행운슈퍼",
  "phoneNumber": "042-625-4522",
  "address": "대전 대덕구 오정동 80-22번지",
  "latitude": "36.355934",
  "longitude": "127.40931"
},
{
  "number": "12",
  "storeName": "오리엔트복권",
  "phoneNumber": "042-621-6149",
  "address": "대전 대덕구 중리동 173-9번지",
  "latitude": "36.361263",
  "longitude": "127.429405"
},
{
  "number": "13",
  "storeName": "로또복권방",
  "phoneNumber": "070-4156-4255",
  "address": "대전 대덕구 중리동 143-8",
  "latitude": "36.364536",
  "longitude": "127.42993"
},
{
  "number": "14",
  "storeName": "별을쏘는베팅샵",
  "phoneNumber": "042-933-0220",
  "address": "대전 대덕구 평촌동 535-9번지",
  "latitude": "36.43686",
  "longitude": "127.42289"
},
{
  "number": "15",
  "storeName": "복권천국",
  "phoneNumber": "042-627-3677",
  "address": "대전 대덕구 중리동 165-17번지",
  "latitude": "36.360985",
  "longitude": "127.42674"
},
{
  "number": "16",
  "storeName": "신성문구",
  "phoneNumber": "042-932-0327",
  "address": "대전 대덕구 신탄진동 147-2번지",
  "latitude": "36.449184",
  "longitude": "127.4289"
},
{
  "number": "17",
  "storeName": "복권나라",
  "phoneNumber": "042-936-8300",
  "address": "대전 대덕구 신탄진동 152-15번지",
  "latitude": "36.44756",
  "longitude": "127.42992"
},
{
  "number": "18",
  "storeName": "GS25(신탄진점)",
  "phoneNumber": "042-932-3310",
  "address": "대전 대덕구 신탄진동 122-33번지",
  "latitude": "36.448177",
  "longitude": "127.42568"
},
{
  "number": "19",
  "storeName": "GS25(대전한밭점)",
  "phoneNumber": "042-627-0955",
  "address": "대전 대덕구 중리동 408-7",
  "latitude": "36.359562",
  "longitude": "127.423744"
},
{
  "number": "20",
  "storeName": "GS25(대덕공단점)",
  "phoneNumber": "042-931-0035",
  "address": "대전 대덕구 목상동 148-8번지",
  "latitude": "36.448498",
  "longitude": "127.41175"
},
{
  "number": "21",
  "storeName": "승인복권방",
  "phoneNumber": "042-621-5951",
  "address": "대전 대덕구 오정동 449-9",
  "latitude": "36.34887",
  "longitude": "127.41661"
},
{
  "number": "22",
  "storeName": "금강수여울목",
  "phoneNumber": "042-935-0326",
  "address": "대전 대덕구 신탄진동 143-23번지",
  "latitude": "36.449482",
  "longitude": "127.42936"
},
{
  "number": "23",
  "storeName": "금산인삼",
  "phoneNumber": "042-626-9990",
  "address": "대전 대덕구 비래동 140-10",
  "latitude": "36.35617",
  "longitude": "127.45053"
},
{
  "number": "24",
  "storeName": "커피로또",
  "phoneNumber": "",
  "address": "대전 대덕구 석봉동 318-3",
  "latitude": "36.444237",
  "longitude": "127.426"
},
{
  "number": "25",
  "storeName": "힐링로또",
  "phoneNumber": "",
  "address": "대전 대덕구 송촌동 290-18",
  "latitude": "36.35594",
  "longitude": "127.442345"
},
{
  "number": "26",
  "storeName": "로또타운점",
  "phoneNumber": "",
  "address": "대전 대덕구 비래동 131-10",
  "latitude": "36.358437",
  "longitude": "127.45072"
},
{
  "number": "27",
  "storeName": "GS25(대전송촌점)",
  "phoneNumber": "042-632-5503",
  "address": "대전 대덕구 송촌동 456-9번지",
  "latitude": "36.364933",
  "longitude": "127.43885"
},
{
  "number": "28",
  "storeName": "그린명당로또",
  "phoneNumber": "042-626-5765",
  "address": "대전 대덕구 중리동 493-2 그린24시편의점",
  "latitude": "36.36506",
  "longitude": "127.43623"
},
{
  "number": "29",
  "storeName": "꿈나라복권방",
  "phoneNumber": "042-627-6270",
  "address": "대전 대덕구 송촌동 476-3번지 5동119호",
  "latitude": "36.364235",
  "longitude": "127.44023"
},
{
  "number": "30",
  "storeName": "상호없음",
  "phoneNumber": "",
  "address": "대전 대덕구 신탄진동 133-8 1층 세븐일레븐",
  "latitude": "36.449287",
  "longitude": "127.43316"
}
]