[
{
  "number": "1",
  "storeName": "CU(알리앙스점)",
  "phoneNumber": "053-566-0390",
  "address": "대구 달서구 감삼동 146-31번지",
  "latitude": "35.85012",
  "longitude": "128.53806"
},
{
  "number": "2",
  "storeName": "CU(신당조광점)",
  "phoneNumber": "053-588-3344",
  "address": "대구 달서구 신당동 1695-14번지",
  "latitude": "35.85956",
  "longitude": "128.49931"
},
{
  "number": "3",
  "storeName": "CU(참미소점)",
  "phoneNumber": "053-573-9559",
  "address": "대구 달서구 감삼동 170-7번지",
  "latitude": "35.847294",
  "longitude": "128.53757"
},
{
  "number": "4",
  "storeName": "CU(반고개점)",
  "phoneNumber": "053-621-3174",
  "address": "대구 달서구 두류동 864-7 대구 달서구 두류동 864-7 CU반고개점",
  "latitude": "35.86194",
  "longitude": "128.57259"
},
{
  "number": "5",
  "storeName": "CU(남대구ＩＣ점)",
  "phoneNumber": "053-521-0103",
  "address": "대구 달서구 본리동 659-2번지",
  "latitude": "35.83767",
  "longitude": "128.53407"
},
{
  "number": "6",
  "storeName": "CU(본리점)",
  "phoneNumber": "053-562-2468",
  "address": "대구 달서구 본리동 379-2",
  "latitude": "35.840645",
  "longitude": "128.5374"
},
{
  "number": "7",
  "storeName": "GS25(진천청구점)",
  "phoneNumber": "053-631-7643",
  "address": "대구 달서구 진천동 490번지 진천청구타운105-101",
  "latitude": "35.811802",
  "longitude": "128.52454"
},
{
  "number": "8",
  "storeName": "씨스페이스(상인점)",
  "phoneNumber": "053-641-4000",
  "address": "대구 달서구 상인동 1552-4번지",
  "latitude": "35.812912",
  "longitude": "128.54613"
},
{
  "number": "9",
  "storeName": "GS25(성서공단점)",
  "phoneNumber": "053-551-0264",
  "address": "대구 달서구 갈산동 264-7 대구 달서구 갈산동 264-7",
  "latitude": "35.84071",
  "longitude": "128.50018"
},
{
  "number": "10",
  "storeName": "GS25(성서이곡점)",
  "phoneNumber": "053-588-1316",
  "address": "대구 달서구 이곡동 1231-5",
  "latitude": "35.85711",
  "longitude": "128.50996"
},
{
  "number": "11",
  "storeName": "플러스로또",
  "phoneNumber": "053-632-3414",
  "address": "대구 달서구 상인동 1420-2번지",
  "latitude": "35.813293",
  "longitude": "128.53871"
},
{
  "number": "12",
  "storeName": "로또패밀리",
  "phoneNumber": "053-591-2328",
  "address": "대구 달서구 신당동 1743번지 이마트24내",
  "latitude": "35.85906",
  "longitude": "128.49565"
},
{
  "number": "13",
  "storeName": "쿨마트영남네오빌점",
  "phoneNumber": "070-7656-7943",
  "address": "대구 달서구 장기동 551번지 영남네오빌비스타상가201동101호",
  "latitude": "35.842255",
  "longitude": "128.5331"
},
{
  "number": "14",
  "storeName": "코사마트그린점",
  "phoneNumber": "053-625-8004",
  "address": "대구 달서구 송현동 1922-22번지",
  "latitude": "35.82727",
  "longitude": "128.54651"
},
{
  "number": "15",
  "storeName": "로또복권(대천점)",
  "phoneNumber": "053-636-8465",
  "address": "대구 달서구 대천동 497-2번지 월배데시앙상가 101호",
  "latitude": "35.817787",
  "longitude": "128.5207"
},
{
  "number": "16",
  "storeName": "대박복권",
  "phoneNumber": "053-582-3909",
  "address": "대구 달서구 이곡동 1000-83번지 세븐일레븐편의점 내",
  "latitude": "35.849503",
  "longitude": "128.50899"
},
{
  "number": "17",
  "storeName": "성서제일복권",
  "phoneNumber": "053-591-1645",
  "address": "대구 달서구 장기동 150-1번지 1층",
  "latitude": "35.849274",
  "longitude": "128.51602"
},
{
  "number": "18",
  "storeName": "로또세븐죽전점",
  "phoneNumber": "053-563-1590",
  "address": "대구 달서구 죽전동 269-8번지세븐일레븐편의점 내",
  "latitude": "35.85013",
  "longitude": "128.53491"
},
{
  "number": "19",
  "storeName": "로또복권죽전점",
  "phoneNumber": "053-561-4536",
  "address": "대구 달서구 죽전동 379-16번지",
  "latitude": "35.8533",
  "longitude": "128.53693"
},
{
  "number": "20",
  "storeName": "복권명당(영남점)",
  "phoneNumber": "053-636-2450",
  "address": "대구 달서구 진천동 242-10번지",
  "latitude": "35.81481",
  "longitude": "128.52773"
},
{
  "number": "21",
  "storeName": "왕대박로또",
  "phoneNumber": "053-581-9361",
  "address": "대구 달서구 용산동 499-1 1층 CU편의점내",
  "latitude": "35.858555",
  "longitude": "128.52142"
},
{
  "number": "22",
  "storeName": "일등복권편의점",
  "phoneNumber": "053-522-6808",
  "address": "대구 달서구 본리동 2-16번지 1층",
  "latitude": "35.842213",
  "longitude": "128.53621"
},
{
  "number": "23",
  "storeName": "하트로또",
  "phoneNumber": "",
  "address": "대구 달서구 이곡1동 1356-12 이마트24내",
  "latitude": "35.85918",
  "longitude": "128.51425"
},
{
  "number": "24",
  "storeName": "행운마트",
  "phoneNumber": "053-567-0555",
  "address": "대구 달서구 감삼동 100-5번지",
  "latitude": "35.851414",
  "longitude": "128.5418"
},
{
  "number": "25",
  "storeName": "복을주는집",
  "phoneNumber": "053-567-6308",
  "address": "대구 달서구 감삼동 106-3번지",
  "latitude": "35.853718",
  "longitude": "128.54803"
},
{
  "number": "26",
  "storeName": "이마트편의점(달서송현)",
  "phoneNumber": "053-621-9424",
  "address": "대구 달서구 송현동 1949-36",
  "latitude": "35.821995",
  "longitude": "128.54861"
},
{
  "number": "27",
  "storeName": "복권천국(성서점)",
  "phoneNumber": "053-583-4122",
  "address": "대구 달서구 이곡동 1000-266번지",
  "latitude": "35.85108",
  "longitude": "128.50682"
},
{
  "number": "28",
  "storeName": "emart24대구월배역점",
  "phoneNumber": "053-634-5365",
  "address": "대구 달서구 진천동 117-19번지",
  "latitude": "35.81611",
  "longitude": "128.53085"
},
{
  "number": "29",
  "storeName": "LA24시편의점",
  "phoneNumber": "053-581-8256",
  "address": "대구 달서구 호산동 293-2번지",
  "latitude": "35.8534",
  "longitude": "128.4771"
},
{
  "number": "30",
  "storeName": "로또복권(성당래미안점)",
  "phoneNumber": "053-526-9111",
  "address": "대구 달서구 본리동 76-4 1층 GS25",
  "latitude": "35.840885",
  "longitude": "128.5444"
},
{
  "number": "31",
  "storeName": "로또명당",
  "phoneNumber": "053-0000-0000",
  "address": "대구 달서구 월성동 275-2 105-1호,건도파라다이스",
  "latitude": "35.825554",
  "longitude": "128.5271"
},
{
  "number": "32",
  "storeName": "복권명당(서부점)",
  "phoneNumber": "053-628-6450",
  "address": "대구 달서구 송현동 195-2번지",
  "latitude": "35.833626",
  "longitude": "128.55481"
},
{
  "number": "33",
  "storeName": "복권코리아",
  "phoneNumber": "053-553-2086",
  "address": "대구 달서구 본동 1031번지",
  "latitude": "35.83415",
  "longitude": "128.53694"
},
{
  "number": "34",
  "storeName": "복권백화점(대백.한라앞)",
  "phoneNumber": "053-587-3465",
  "address": "대구 달서구 이곡동 538-3번지",
  "latitude": "35.85221",
  "longitude": "128.50128"
},
{
  "number": "35",
  "storeName": "복권명당",
  "phoneNumber": "053-651-8648",
  "address": "대구 달서구 본동 821-2번지 1층7호",
  "latitude": "35.837105",
  "longitude": "128.54276"
},
{
  "number": "36",
  "storeName": "코사마트금강점",
  "phoneNumber": "053-565-8367",
  "address": "대구 달서구 용산동 950-5번지 1층 코사마트",
  "latitude": "35.855736",
  "longitude": "128.53084"
},
{
  "number": "37",
  "storeName": "대한슈퍼",
  "phoneNumber": "053-651-7607",
  "address": "대구 달서구 송현동 109-6",
  "latitude": "35.84354",
  "longitude": "128.55304"
},
{
  "number": "38",
  "storeName": "세븐로또(성당점)",
  "phoneNumber": "053-621-6266",
  "address": "대구 달서구 성당동 392-55",
  "latitude": "35.838634",
  "longitude": "128.55266"
},
{
  "number": "39",
  "storeName": "로또명당",
  "phoneNumber": "053-636-2222",
  "address": "대구 달서구 상인동 1574-4번지 GS칼텍스 주유소 1층",
  "latitude": "35.809246",
  "longitude": "128.54822"
},
{
  "number": "40",
  "storeName": "태수상사",
  "phoneNumber": "053-637-1330",
  "address": "대구 달서구 상인동 129-6 대구 달서구 상인동129-6 이마트24달서월배로점",
  "latitude": "35.81964",
  "longitude": "128.5393"
},
{
  "number": "41",
  "storeName": "로또송현",
  "phoneNumber": "053-652-0888",
  "address": "대구 달서구 송현동 1930-35번지 썬빌리지편의점 내",
  "latitude": "35.829826",
  "longitude": "128.55037"
},
{
  "number": "42",
  "storeName": "Buy로또(죽전점)",
  "phoneNumber": "053-522-3124",
  "address": "대구 달서구 죽전동 373-15번지 세븐일레븐 내",
  "latitude": "35.856667",
  "longitude": "128.53705"
},
{
  "number": "43",
  "storeName": "복권방",
  "phoneNumber": "053-583-0695",
  "address": "대구 달서구 용산동 421-2번지",
  "latitude": "35.855007",
  "longitude": "128.52126"
},
{
  "number": "44",
  "storeName": "성공마트",
  "phoneNumber": "053-636-7284",
  "address": "대구 달서구 대곡동 9",
  "latitude": "35.808018",
  "longitude": "128.50967"
},
{
  "number": "45",
  "storeName": "이마트24(성서호림)",
  "phoneNumber": "000-000-0000",
  "address": "대구 달서구 호림동 10 이마트24성서호림점",
  "latitude": "35.831783",
  "longitude": "128.52107"
},
{
  "number": "46",
  "storeName": "코리아로또(계대점)",
  "phoneNumber": "",
  "address": "대구 달서구 신당동 1320-11번지 1층 코리아마트내",
  "latitude": "35.850964",
  "longitude": "128.49103"
},
{
  "number": "47",
  "storeName": "토큰박스월성2동파출소앞",
  "phoneNumber": "053-631-7535",
  "address": "대구 달서구 월성동 86-2 대구 달서구 월성동 86-2",
  "latitude": "35.830803",
  "longitude": "128.52808"
},
{
  "number": "48",
  "storeName": "토큰박스(성당포스코더샵)",
  "phoneNumber": "053-653-5176",
  "address": "대구 달서구 성당동 834 도로가 가판",
  "latitude": "35.84224",
  "longitude": "128.54778"
},
{
  "number": "49",
  "storeName": "월성동청구코아토큰박스",
  "phoneNumber": "053-639-4556",
  "address": "대구 달서구 두류동 101-1 CU달구벌두류점",
  "latitude": "35.827682",
  "longitude": "128.53363"
},
{
  "number": "50",
  "storeName": "승차권판매소(두류시장)",
  "phoneNumber": "053-652-1597",
  "address": "대구 달서구 성당동 840 102동 앞 도로가 가판",
  "latitude": "35.844364",
  "longitude": "128.54533"
},
{
  "number": "51",
  "storeName": "토큰박스7호광장점",
  "phoneNumber": "053-626-2825",
  "address": "대구 달서구 두류동 493-5번지",
  "latitude": "35.85589",
  "longitude": "128.55315"
},
{
  "number": "52",
  "storeName": "토큰박스(월촌역)",
  "phoneNumber": "053-622-3327",
  "address": "대구 달서구 송현동 798-243번지",
  "latitude": "35.824722",
  "longitude": "128.54678"
},
{
  "number": "53",
  "storeName": "효성로또",
  "phoneNumber": "053-638-0393",
  "address": "대구 달서구 진천동 535-12 1층101호",
  "latitude": "35.81459",
  "longitude": "128.52585"
},
{
  "number": "54",
  "storeName": "대영복권방",
  "phoneNumber": "053-264-5534",
  "address": "대구 달서구 진천동 652-4 대구 달서구 진천동652-4",
  "latitude": "35.811287",
  "longitude": "128.51723"
},
{
  "number": "55",
  "storeName": "세븐로또(진천점)",
  "phoneNumber": "053-639-2355",
  "address": "대구 달서구 진천동 622-2번지 1층 세븐일레븐 내",
  "latitude": "35.81344",
  "longitude": "128.5218"
},
{
  "number": "56",
  "storeName": "C\u0026S대곡점",
  "phoneNumber": "053-643-0168",
  "address": "대구 달서구 도원동 1436-9번지 1층",
  "latitude": "35.806946",
  "longitude": "128.53758"
},
{
  "number": "57",
  "storeName": "디딤돌",
  "phoneNumber": "053-641-3811",
  "address": "대구 달서구 상인동 1468-10번지",
  "latitude": "35.81103",
  "longitude": "128.53781"
},
{
  "number": "58",
  "storeName": "로또GS(달서공단)",
  "phoneNumber": "053-582-8630",
  "address": "대구 달서구 월암동 1104번지 GS25편의점 내",
  "latitude": "35.825344",
  "longitude": "128.51324"
},
{
  "number": "59",
  "storeName": "계대마트",
  "phoneNumber": "053-584-3468",
  "address": "대구 달서구 신당동 1804-6번지 1층",
  "latitude": "35.855328",
  "longitude": "128.49512"
},
{
  "number": "60",
  "storeName": "복권휴게실",
  "phoneNumber": "053-637-3733",
  "address": "대구 달서구 월성동 819번지 원더풀스파랜드상가1층 115호,116호일부",
  "latitude": "35.8244",
  "longitude": "128.52472"
},
{
  "number": "61",
  "storeName": "로또복권",
  "phoneNumber": "053-622-6263",
  "address": "대구 달서구 송현동 1943 CNS편의점내",
  "latitude": "35.858006",
  "longitude": "128.55873"
},
{
  "number": "62",
  "storeName": "GS로또(남대구IC점)",
  "phoneNumber": "080-555-2525",
  "address": "대구 달서구 월성동 890번지 대구물류터미널 상가동 108-110호 1층 GS25편의점",
  "latitude": "35.835373",
  "longitude": "128.52074"
},
{
  "number": "63",
  "storeName": "GS25(감삼점)",
  "phoneNumber": "053-566-9315",
  "address": "대구 달서구 감삼동 46-14번지",
  "latitude": "35.852543",
  "longitude": "128.54112"
},
{
  "number": "64",
  "storeName": "왕대박복권게임방",
  "phoneNumber": "053-584-0645",
  "address": "대구 달서구 신당동 682-45,47번지",
  "latitude": "35.86306",
  "longitude": "128.4911"
}
]