[
{
  "number": "1",
  "storeName": "로또나라",
  "phoneNumber": "062-514-8114",
  "address": "광주 북구 용봉동 1378-1 세븐일레븐 용봉점내",
  "latitude": "35.179066",
  "longitude": "126.89506"
},
{
  "number": "2",
  "storeName": "금성티아이에스(TIS)",
  "phoneNumber": "062-522-5760",
  "address": "광주 북구 우산동 518-92 1층 금성TIS",
  "latitude": "35.167236",
  "longitude": "126.91719"
},
{
  "number": "3",
  "storeName": "3정승로또복권방",
  "phoneNumber": "062-267-7387",
  "address": "광주 북구 두암동 969-6 주공4단지 1층 우리마트",
  "latitude": "35.163967",
  "longitude": "126.93574"
},
{
  "number": "4",
  "storeName": "타운복권방",
  "phoneNumber": "062-265-1963",
  "address": "광주 북구 두암동 289-5번지",
  "latitude": "35.163727",
  "longitude": "126.93415"
},
{
  "number": "5",
  "storeName": "파워마트 복권나라",
  "phoneNumber": "062-524-3321",
  "address": "광주 북구 운암동 252번지 1층 13호 운암주공3단지 후문상가 파워마트 내",
  "latitude": "35.182495",
  "longitude": "126.87513"
},
{
  "number": "6",
  "storeName": "금집복권",
  "phoneNumber": "",
  "address": "광주 북구 신용동 752",
  "latitude": "35.2088",
  "longitude": "126.86453"
},
{
  "number": "7",
  "storeName": "대박(토토)",
  "phoneNumber": "062-262-1896",
  "address": "광주 북구 각화동 180-5번지",
  "latitude": "35.17832",
  "longitude": "126.93503"
},
{
  "number": "8",
  "storeName": "풍향동복권나라",
  "phoneNumber": "062-527-7717",
  "address": "광주 북구 풍향동 581-19",
  "latitude": "35.162693",
  "longitude": "126.92831"
},
{
  "number": "9",
  "storeName": "황금슈퍼",
  "phoneNumber": "062-267-3544",
  "address": "광주 북구 두암동 881-7",
  "latitude": "35.172245",
  "longitude": "126.92482"
},
{
  "number": "10",
  "storeName": "올더웨이5호점",
  "phoneNumber": "062-269-6463",
  "address": "광주 북구 중흥동 278-25번지",
  "latitude": "35.173473",
  "longitude": "126.91474"
},
{
  "number": "11",
  "storeName": "오픈마트",
  "phoneNumber": "062-525-0662",
  "address": "광주 북구 신안동 483-33",
  "latitude": "35.170887",
  "longitude": "126.89683"
},
{
  "number": "12",
  "storeName": "역전휴게마트",
  "phoneNumber": "062-511-5767",
  "address": "광주 북구 중흥동 700-11번지",
  "latitude": "35.16383",
  "longitude": "126.9097"
},
{
  "number": "13",
  "storeName": "대박찬스",
  "phoneNumber": "062-261-0957",
  "address": "광주 북구 오치동 776-7번지",
  "latitude": "35.187042",
  "longitude": "126.90189"
},
{
  "number": "14",
  "storeName": "복권나라",
  "phoneNumber": "062-266-7206",
  "address": "광주 북구 두암동 840-9",
  "latitude": "35.1747",
  "longitude": "126.92708"
},
{
  "number": "15",
  "storeName": "일곡로또",
  "phoneNumber": "062-574-0757",
  "address": "광주 북구 일곡동 850-5번지 호반아파트상가 105호 호반청과",
  "latitude": "35.20812",
  "longitude": "126.897026"
},
{
  "number": "16",
  "storeName": "에이스복권방",
  "phoneNumber": "062-574-6355",
  "address": "광주 북구 건국동 305-3 1층 101호",
  "latitude": "35.212032",
  "longitude": "126.87319"
},
{
  "number": "17",
  "storeName": "바우슈퍼",
  "phoneNumber": "062-264-0310",
  "address": "광주 북구 오치동 950-1",
  "latitude": "35.187782",
  "longitude": "126.90391"
},
{
  "number": "18",
  "storeName": "용두천하",
  "phoneNumber": "062-572-7717",
  "address": "광주 북구 양산동 254-114",
  "latitude": "35.208332",
  "longitude": "126.87351"
},
{
  "number": "19",
  "storeName": "나성복권",
  "phoneNumber": "062-524-4558",
  "address": "광주 북구 용봉동 1035번지 중흥상가 106-1 세븐일레븐 광주비엔날레점",
  "latitude": "35.181316",
  "longitude": "126.88924"
},
{
  "number": "20",
  "storeName": "복권나라(중흥점)",
  "phoneNumber": "062-430-6596",
  "address": "광주 북구 중흥동 369-31번지",
  "latitude": "35.169685",
  "longitude": "126.9112"
},
{
  "number": "21",
  "storeName": "일공공일안경",
  "phoneNumber": "062-521-0203",
  "address": "광주 북구 풍향동 494-16",
  "latitude": "35.16816",
  "longitude": "126.92031"
},
{
  "number": "22",
  "storeName": "열린문고",
  "phoneNumber": "062-575-8599",
  "address": "광주 북구 양산동 906번지",
  "latitude": "35.20996",
  "longitude": "126.880714"
},
{
  "number": "23",
  "storeName": "돼지의꿈",
  "phoneNumber": "062-524-7199",
  "address": "광주 북구 유동 10-38",
  "latitude": "35.158173",
  "longitude": "126.90632"
},
{
  "number": "24",
  "storeName": "중흥마트",
  "phoneNumber": "062-263-1142",
  "address": "광주 북구 문흥동 1011-1번지 중흥2차 아파트상가 1층",
  "latitude": "35.184002",
  "longitude": "126.92321"
},
{
  "number": "25",
  "storeName": "황금복권",
  "phoneNumber": "062-263-5264",
  "address": "광주 북구 문흥동 954-18번지",
  "latitude": "35.186687",
  "longitude": "126.919975"
},
{
  "number": "26",
  "storeName": "햇살서점",
  "phoneNumber": "",
  "address": "광주 북구 용봉동 1210-2",
  "latitude": "35.181446",
  "longitude": "126.90419"
},
{
  "number": "27",
  "storeName": "라인복권방",
  "phoneNumber": "062-268-0063",
  "address": "광주 북구 문흥1동 972-4 라인 동산아파트 상가105호",
  "latitude": "35.1889",
  "longitude": "126.92493"
},
{
  "number": "28",
  "storeName": "동양마트일곡점",
  "phoneNumber": "062-573-8849",
  "address": "광주 북구 일곡동 848-1번지 현대아파트 2차상가 102-2호",
  "latitude": "35.20457",
  "longitude": "126.89529"
},
{
  "number": "29",
  "storeName": "투데이마트(우산점)",
  "phoneNumber": "062-513-1505",
  "address": "광주 북구 동림동 645 CU동림삼익점",
  "latitude": "35.177814",
  "longitude": "126.8622"
},
{
  "number": "30",
  "storeName": "홀인원",
  "phoneNumber": "062-265-1811",
  "address": "광주 북구 두암동 935-8번지",
  "latitude": "35.169716",
  "longitude": "126.93753"
},
{
  "number": "31",
  "storeName": "해피+24시편의점",
  "phoneNumber": "062-574-1061",
  "address": "광주 북구 양산동 296번지",
  "latitude": "35.20459",
  "longitude": "126.87387"
},
{
  "number": "32",
  "storeName": "천국열쇠",
  "phoneNumber": "062-523-2282",
  "address": "광주 북구 운암동 1040-10번지",
  "latitude": "35.182476",
  "longitude": "126.87207"
},
{
  "number": "33",
  "storeName": "길벗",
  "phoneNumber": "062-251-2518",
  "address": "광주 북구 오치동 1039-11번지",
  "latitude": "35.186",
  "longitude": "126.913345"
},
{
  "number": "34",
  "storeName": "시네월드일곡점",
  "phoneNumber": "062-573-3124",
  "address": "광주 북구 일곡동 830-2",
  "latitude": "35.20499",
  "longitude": "126.898254"
},
{
  "number": "35",
  "storeName": "알리바이 첨단2지구점",
  "phoneNumber": "062-572-1282",
  "address": "광주 북구 신용동 693 제이타워 101호",
  "latitude": "35.17869",
  "longitude": "126.89411"
},
{
  "number": "36",
  "storeName": "씨네월드매곡점",
  "phoneNumber": "062-573-7142",
  "address": "광주 북구 매곡동 214-56번지",
  "latitude": "35.191288",
  "longitude": "126.89328"
},
{
  "number": "37",
  "storeName": "북소리",
  "phoneNumber": "062-267-6515",
  "address": "광주 북구 두암동 305-12 기산랜드 맞은편",
  "latitude": "35.166397",
  "longitude": "126.93264"
},
{
  "number": "38",
  "storeName": "금단로또판매점",
  "phoneNumber": "",
  "address": "광주 북구 용봉동 1251-16번지 위드미 전남대상대점",
  "latitude": "35.177654",
  "longitude": "126.90092"
},
{
  "number": "39",
  "storeName": "CU(광주오치점)",
  "phoneNumber": "062-267-9476",
  "address": "광주 북구 오치동 977-1번지",
  "latitude": "35.185627",
  "longitude": "126.90576"
},
{
  "number": "40",
  "storeName": "장인로또",
  "phoneNumber": "062-572-6486",
  "address": "광주 북구 양산동 274-47",
  "latitude": "35.20602",
  "longitude": "126.87322"
},
{
  "number": "41",
  "storeName": "복권마트",
  "phoneNumber": "",
  "address": "광주 북구 운암동 67번지 벽산블루밍메가시티상가 101동 116호",
  "latitude": "35.1779",
  "longitude": "126.87681"
},
{
  "number": "42",
  "storeName": "행운편의점",
  "phoneNumber": "062-571-1177",
  "address": "광주 북구 문흥동 938-3번지",
  "latitude": "35.17929",
  "longitude": "126.91617"
},
{
  "number": "43",
  "storeName": "연화네마트",
  "phoneNumber": "062-529-3463",
  "address": "광주 북구 두암동 894-23번지",
  "latitude": "35.16897",
  "longitude": "126.93057"
},
{
  "number": "44",
  "storeName": "SM정보통신",
  "phoneNumber": "062-513-3490",
  "address": "광주 북구 동림동 1160-1번지",
  "latitude": "35.187897",
  "longitude": "126.86818"
},
{
  "number": "45",
  "storeName": "노다지복권방",
  "phoneNumber": "062-264-4490",
  "address": "광주 북구 각화동 503-27번지",
  "latitude": "35.181465",
  "longitude": "126.929115"
},
{
  "number": "46",
  "storeName": "좋은꿈",
  "phoneNumber": "062-514-7776",
  "address": "광주 북구 운암동 397-1번지",
  "latitude": "35.17258",
  "longitude": "126.888145"
},
{
  "number": "47",
  "storeName": "알파로또판매점",
  "phoneNumber": "062-571-2752",
  "address": "광주 북구 양산동 660-14 알파문구점 내",
  "latitude": "35.19756",
  "longitude": "126.8727"
},
{
  "number": "48",
  "storeName": "행운 복권방",
  "phoneNumber": "",
  "address": "광주 북구 오치동 855-9 로얄타운상가 105호, 황금공인중개사 옆",
  "latitude": "35.193733",
  "longitude": "126.90256"
},
{
  "number": "49",
  "storeName": "대박복권방",
  "phoneNumber": "",
  "address": "광주 북구 동림동 1330 하늘채 118동 1층 5호, 상가건물",
  "latitude": "35.179718",
  "longitude": "126.85914"
},
{
  "number": "50",
  "storeName": "무등로또점",
  "phoneNumber": "",
  "address": "광주 북구 두암동 568-8 CU광주무등점내",
  "latitude": "35.17672",
  "longitude": "126.92727"
},
{
  "number": "51",
  "storeName": "CU(광주매곡점)",
  "phoneNumber": "062-573-4489",
  "address": "광주 북구 매곡동 42-5번지",
  "latitude": "35.18894",
  "longitude": "126.89418"
},
{
  "number": "52",
  "storeName": "황금로또",
  "phoneNumber": "062-571-0540",
  "address": "광주 북구 용두동 282-6",
  "latitude": "35.213646",
  "longitude": "126.87561"
}
]