[
{
  "number": "1",
  "storeName": "제일쇼핑",
  "phoneNumber": "063-835-5553",
  "address": "전북 익산시 영등동 768-1 제일상가109-104호",
  "latitude": "35.956722",
  "longitude": "126.97196"
},
{
  "number": "2",
  "storeName": "일등복권방",
  "phoneNumber": "063-838-3390",
  "address": "전북 익산시 부송동 781-3",
  "latitude": "35.95761",
  "longitude": "126.9879"
},
{
  "number": "3",
  "storeName": "희망복권",
  "phoneNumber": "063-855-2249",
  "address": "전북 익산시 마동 166-58번지",
  "latitude": "35.945976",
  "longitude": "126.96576"
},
{
  "number": "4",
  "storeName": "행복복권나라",
  "phoneNumber": "063-857-6670",
  "address": "전북 익산시 남중동 266-6번지",
  "latitude": "35.946712",
  "longitude": "126.95663"
},
{
  "number": "5",
  "storeName": "운수대통복권방",
  "phoneNumber": "063-833-0533",
  "address": "전북 익산시 부송동 710-23",
  "latitude": "35.9597",
  "longitude": "126.98844"
},
{
  "number": "6",
  "storeName": "천하명당복권방",
  "phoneNumber": "063-858-3274",
  "address": "전북 익산시 모현동1가 186-71번지",
  "latitude": "35.94787",
  "longitude": "126.94504"
},
{
  "number": "7",
  "storeName": "복돼지복권방",
  "phoneNumber": "063-832-9603",
  "address": "전북 익산시 모현동1가 865 배산시티프라자 1층 107호",
  "latitude": "35.99164",
  "longitude": "127.05302"
},
{
  "number": "8",
  "storeName": "대흥슈퍼",
  "phoneNumber": "063-855-0372",
  "address": "전북 익산시 창인동1가 203-3번지",
  "latitude": "35.941677",
  "longitude": "126.95284"
},
{
  "number": "9",
  "storeName": "다모아마트",
  "phoneNumber": "063-854-2720",
  "address": "전북 익산시 금강동 364-1번지 대신쉐르빌상가103호",
  "latitude": "35.937004",
  "longitude": "126.97802"
},
{
  "number": "10",
  "storeName": "사랑슈퍼",
  "phoneNumber": "063-856-3537",
  "address": "전북 익산시 남중동 36-47번지",
  "latitude": "35.95013",
  "longitude": "126.95757"
},
{
  "number": "11",
  "storeName": "한성슈퍼",
  "phoneNumber": "063-854-2722",
  "address": "전북 익산시 평화동 247-6번지",
  "latitude": "35.930794",
  "longitude": "126.94386"
},
{
  "number": "12",
  "storeName": "팡팡복권방",
  "phoneNumber": "063-852-4118",
  "address": "전북 익산시 갈산동 168번지",
  "latitude": "35.9379",
  "longitude": "126.95267"
},
{
  "number": "13",
  "storeName": "황금복권방",
  "phoneNumber": "063-837-3651",
  "address": "전북 익산시 영등동 803-4 1층 큰사랑마트 내",
  "latitude": "35.962395",
  "longitude": "126.98472"
},
{
  "number": "14",
  "storeName": "플러스복권방",
  "phoneNumber": "063-835-0990",
  "address": "전북 익산시 영등동 822번지",
  "latitude": "35.960922",
  "longitude": "126.978516"
},
{
  "number": "15",
  "storeName": "모현로또방",
  "phoneNumber": "063-853-0047",
  "address": "전북 익산시 모현동1가 297-42번지",
  "latitude": "35.94684",
  "longitude": "126.9436"
},
{
  "number": "16",
  "storeName": "혜성프라자",
  "phoneNumber": "063-862-1900",
  "address": "전북 익산시 함열읍 와리 547-1번지",
  "latitude": "36.07894",
  "longitude": "126.95854"
},
{
  "number": "17",
  "storeName": "스타토토로또슈퍼",
  "phoneNumber": "063-852-0440",
  "address": "전북 익산시 마동 370-5번지",
  "latitude": "35.93495",
  "longitude": "126.966866"
},
{
  "number": "18",
  "storeName": "돈방석",
  "phoneNumber": "063-915-0810",
  "address": "전북 익산시 송학동 238-23번지",
  "latitude": "35.94249",
  "longitude": "126.93861"
},
{
  "number": "19",
  "storeName": "소요편의점",
  "phoneNumber": "063-857-8008",
  "address": "전북 익산시 동산동 613-1번지",
  "latitude": "35.928303",
  "longitude": "126.960236"
},
{
  "number": "20",
  "storeName": "로또복권방",
  "phoneNumber": "063-833-8766",
  "address": "전북 익산시 부송동 1050-1 1층",
  "latitude": "35.95464",
  "longitude": "126.99209"
},
{
  "number": "21",
  "storeName": "카카오복권방",
  "phoneNumber": "063-833-2123",
  "address": "전북 익산시 금마면 동고도리 697-4번지",
  "latitude": "35.952595",
  "longitude": "126.979225"
},
{
  "number": "22",
  "storeName": "월드복권방",
  "phoneNumber": "063-852-0017",
  "address": "전북 익산시 주현동 228-22번지",
  "latitude": "35.932438",
  "longitude": "126.95847"
},
{
  "number": "23",
  "storeName": "로또송학",
  "phoneNumber": "063-854-3642",
  "address": "전북 익산시 함열읍 와리 1539번지 휴먼시아 상가104호",
  "latitude": "36.07647",
  "longitude": "126.96367"
},
{
  "number": "24",
  "storeName": "대박로또",
  "phoneNumber": "063-854-8550",
  "address": "전북 익산시 어양동 606-1",
  "latitude": "35.945717",
  "longitude": "126.95747"
},
{
  "number": "25",
  "storeName": "행운복권방",
  "phoneNumber": "063-856-2528",
  "address": "전북 익산시 남중동 534-60 1층",
  "latitude": "35.934444",
  "longitude": "126.96434"
},
{
  "number": "26",
  "storeName": "소라복권방",
  "phoneNumber": "063-854-4201",
  "address": "전북 익산시 신동 817-34번지",
  "latitude": "35.957623",
  "longitude": "126.96068"
},
{
  "number": "27",
  "storeName": "천사복권방",
  "phoneNumber": "063-858-5464",
  "address": "전북 익산시 인화동1가 69-15번지",
  "latitude": "35.933144",
  "longitude": "126.950554"
},
{
  "number": "28",
  "storeName": "시영마트",
  "phoneNumber": "063-831-1355",
  "address": "전북 익산시 부송동 1040번지",
  "latitude": "35.95676",
  "longitude": "126.991554"
},
{
  "number": "29",
  "storeName": "진로베스토아",
  "phoneNumber": "063-857-1897",
  "address": "전북 익산시 영등동 210-5번지",
  "latitude": "35.950256",
  "longitude": "126.973305"
},
{
  "number": "30",
  "storeName": "동산마트",
  "phoneNumber": "063-834-8249",
  "address": "전북 익산시 영등동 689-9번지",
  "latitude": "35.95398",
  "longitude": "126.97599"
},
{
  "number": "31",
  "storeName": "CU(익산동산점)",
  "phoneNumber": "063-855-1683",
  "address": "전북 익산시 동산동 607-4번지",
  "latitude": "35.928394",
  "longitude": "126.958916"
},
{
  "number": "32",
  "storeName": "CU(익산황등점)",
  "phoneNumber": "063-856-4199",
  "address": "전북 익산시 황등면 황등리 1038-1번지",
  "latitude": "35.99924",
  "longitude": "126.94465"
},
{
  "number": "33",
  "storeName": "GS25(익산마동점)",
  "phoneNumber": "063-842-2282",
  "address": "전북 익산시 마동 344-8번지",
  "latitude": "35.934193",
  "longitude": "126.96238"
},
{
  "number": "34",
  "storeName": "CU(부송미소점)",
  "phoneNumber": "063-831-6167",
  "address": "전북 익산시 부송동 235-7번지",
  "latitude": "35.95814",
  "longitude": "126.99704"
},
{
  "number": "35",
  "storeName": "드림복권",
  "phoneNumber": "063-834-8808",
  "address": "전북 익산시 어양동 643-6번지",
  "latitude": "35.956974",
  "longitude": "126.979935"
},
{
  "number": "36",
  "storeName": "행운복권방 보생당건강원",
  "phoneNumber": "063-831-6040",
  "address": "전북 익산시 부송동 216-17번지",
  "latitude": "35.96033",
  "longitude": "126.9973"
},
{
  "number": "37",
  "storeName": "또또복권방",
  "phoneNumber": "063-835-4472",
  "address": "전북 익산시 영등동 827-3번지",
  "latitude": "35.959766",
  "longitude": "126.9717"
},
{
  "number": "38",
  "storeName": "현대장미슈퍼",
  "phoneNumber": "063-834-2197",
  "address": "전북 익산시 어양동 493-12번지 현대아파트1층108호",
  "latitude": "35.95537",
  "longitude": "126.98035"
},
{
  "number": "39",
  "storeName": "우성약국",
  "phoneNumber": "063-855-3233",
  "address": "전북 익산시 중앙동3가 26-4번지",
  "latitude": "35.93891",
  "longitude": "126.95033"
},
{
  "number": "40",
  "storeName": "CU(마동대로점)",
  "phoneNumber": "000-0000-0000",
  "address": "전북 익산시 마동 363-7번지",
  "latitude": "35.936848",
  "longitude": "126.968346"
},
{
  "number": "41",
  "storeName": "동감복권",
  "phoneNumber": "",
  "address": "전북 익산시 영등1동 178-19",
  "latitude": "35.95396",
  "longitude": "126.973526"
}
]