[
{
  "number": "1",
  "storeName": "복권나라",
  "phoneNumber": "031-541-1423",
  "address": "경기 포천시 소흘읍 이가팔리 309-1번지",
  "latitude": "37.826706",
  "longitude": "127.152664"
},
{
  "number": "2",
  "storeName": "진성복권방",
  "phoneNumber": "031-541-0987",
  "address": "경기 포천시 가산면 마산리 184-12번지",
  "latitude": "37.847527",
  "longitude": "127.19116"
},
{
  "number": "3",
  "storeName": "로또판매점",
  "phoneNumber": "031-533-2665",
  "address": "경기 포천시 신북면 가채리 23-2",
  "latitude": "37.92013",
  "longitude": "127.22105"
},
{
  "number": "4",
  "storeName": "로또",
  "phoneNumber": "031-532-5645",
  "address": "경기 포천시 영중면 양문리 770-2번지",
  "latitude": "38.00168",
  "longitude": "127.24292"
},
{
  "number": "5",
  "storeName": "대박찬스복권전문점",
  "phoneNumber": "031-543-9038",
  "address": "경기 포천시 소흘읍 송우리 452-9번지",
  "latitude": "37.825756",
  "longitude": "127.14406"
},
{
  "number": "6",
  "storeName": "호랭이 복권방",
  "phoneNumber": "031-533-8243",
  "address": "경기 포천시 신읍동 71-1",
  "latitude": "37.892387",
  "longitude": "127.199646"
},
{
  "number": "7",
  "storeName": "훼미리마트",
  "phoneNumber": "031-535-5944",
  "address": "경기 포천시 신읍동 202-25번지",
  "latitude": "37.899326",
  "longitude": "127.20547"
},
{
  "number": "8",
  "storeName": "천하명당",
  "phoneNumber": "031-542-8480",
  "address": "경기 포천시 소흘읍 송우리 208-3번지",
  "latitude": "37.82845",
  "longitude": "127.14483"
},
{
  "number": "9",
  "storeName": "내촌복권",
  "phoneNumber": "031-532-2363",
  "address": "경기 포천시 내촌면 내리 389-20번지",
  "latitude": "37.785267",
  "longitude": "127.22711"
},
{
  "number": "10",
  "storeName": "운천대박복권방",
  "phoneNumber": "031-534-6450",
  "address": "경기 포천시 영북면 운천리 511-8번지",
  "latitude": "38.08951",
  "longitude": "127.27452"
},
{
  "number": "11",
  "storeName": "베스트원포천심곡점",
  "phoneNumber": "031-531-0022",
  "address": "경기 포천시 신북면 심곡리 304-2",
  "latitude": "37.942",
  "longitude": "127.18774"
},
{
  "number": "12",
  "storeName": "cu매화점",
  "phoneNumber": "031-531-6959",
  "address": "경기 포천시 내촌면 음현리 602-5",
  "latitude": "37.767895",
  "longitude": "127.22711"
},
{
  "number": "13",
  "storeName": "행운복권방",
  "phoneNumber": "031-544-2517",
  "address": "경기 포천시 소흘읍 송우리 128-2",
  "latitude": "37.828827",
  "longitude": "127.14745"
},
{
  "number": "14",
  "storeName": "연안상회",
  "phoneNumber": "031-533-3483",
  "address": "경기 포천시 일동면 기산리 90-37번지",
  "latitude": "37.95668",
  "longitude": "127.316956"
},
{
  "number": "15",
  "storeName": "로또복권방",
  "phoneNumber": "031-536-0775",
  "address": "경기 포천시 신읍동 43-46번지",
  "latitude": "37.89741",
  "longitude": "127.20218"
},
{
  "number": "16",
  "storeName": "나눔로또",
  "phoneNumber": "031-541-3389",
  "address": "경기 포천시 소흘읍 송우리 110-16",
  "latitude": "127.15",
  "longitude": "37.82833"
},
{
  "number": "17",
  "storeName": "간이슈퍼",
  "phoneNumber": "",
  "address": "경기 포천시 신읍동 175-15",
  "latitude": "37.898983",
  "longitude": "127.20272"
},
{
  "number": "18",
  "storeName": "cu포천인생역전점",
  "phoneNumber": "",
  "address": "경기 포천시 영중면 금주리 916-7",
  "latitude": "127.24985",
  "longitude": "37.970837"
},
{
  "number": "19",
  "storeName": "gs25포천송우로점",
  "phoneNumber": "031-542-2400",
  "address": "경기 포천시 소흘읍 송우리 577-18",
  "latitude": "37.834953",
  "longitude": "127.13281"
},
{
  "number": "20",
  "storeName": "로또판매점",
  "phoneNumber": "",
  "address": "경기 포천시 동교동 419-40",
  "latitude": "37.841072",
  "longitude": "127.13625"
},
{
  "number": "21",
  "storeName": "KS마트",
  "phoneNumber": "031-543-4154",
  "address": "경기 포천시 가산면 방축리 403-4",
  "latitude": "37.836613",
  "longitude": "127.162605"
},
{
  "number": "22",
  "storeName": "gs25(포천원모루점)",
  "phoneNumber": "",
  "address": "경기 포천시 신읍동 92-5",
  "latitude": "37.893272",
  "longitude": "127.19618"
},
{
  "number": "23",
  "storeName": "로또방",
  "phoneNumber": "",
  "address": "경기 포천시 신읍동 47-9",
  "latitude": "37.89728",
  "longitude": "127.20042"
},
{
  "number": "24",
  "storeName": "로또",
  "phoneNumber": "",
  "address": "경기 포천시 소흘읍 이가팔리 971-2",
  "latitude": "37.81473",
  "longitude": "127.160355"
},
{
  "number": "25",
  "storeName": "매일로또",
  "phoneNumber": "031-535-3792",
  "address": "경기 포천시 신읍동 185-1",
  "latitude": "37.900787",
  "longitude": "127.20379"
},
{
  "number": "26",
  "storeName": "송우 복권판매점",
  "phoneNumber": "",
  "address": "경기 포천시 소흘읍 송우리 503-7",
  "latitude": "37.82413",
  "longitude": "127.14255"
},
{
  "number": "27",
  "storeName": "선단로또복권방",
  "phoneNumber": "",
  "address": "경기 포천시 선단동 460-27",
  "latitude": "37.85301",
  "longitude": "127.16194"
}
]