[
{
  "number": "1",
  "storeName": "땡큐25(철산점)",
  "phoneNumber": "02-2625-6770",
  "address": "경기 광명시 철산동 264번지 로데오빌딩103호",
  "latitude": "37.475525",
  "longitude": "126.86756"
},
{
  "number": "2",
  "storeName": "로또복권",
  "phoneNumber": "",
  "address": "경기 광명시 하안동 260-2번지 8단지종합상가공유지",
  "latitude": "37.458866",
  "longitude": "126.88216"
},
{
  "number": "3",
  "storeName": "명동슈퍼",
  "phoneNumber": "02-2615-3382",
  "address": "경기 광명시 철산동 426번지",
  "latitude": "37.474003",
  "longitude": "126.869675"
},
{
  "number": "4",
  "storeName": "가판점",
  "phoneNumber": "02-807-8507",
  "address": "경기 광명시 하안동 51번지",
  "latitude": "37.46154",
  "longitude": "126.88024"
},
{
  "number": "5",
  "storeName": "로또세계주류",
  "phoneNumber": "02-2066-3561",
  "address": "경기 광명시 철산동 464-7",
  "latitude": "37.47835",
  "longitude": "126.85362"
},
{
  "number": "6",
  "storeName": "복권천하",
  "phoneNumber": "02-2684-1193",
  "address": "경기 광명시 광명동 374-10번지",
  "latitude": "37.472164",
  "longitude": "126.85118"
},
{
  "number": "7",
  "storeName": "로토피아",
  "phoneNumber": "02-899-0789",
  "address": "경기 광명시 소하동 932-4번지 상가1층102호",
  "latitude": "37.435574",
  "longitude": "126.87925"
},
{
  "number": "8",
  "storeName": "대박DREAM",
  "phoneNumber": "02-2687-7876",
  "address": "경기 광명시 광명동 139-15",
  "latitude": "37.481285",
  "longitude": "126.856384"
},
{
  "number": "9",
  "storeName": "로또명당",
  "phoneNumber": "02-2619-0645",
  "address": "경기 광명시 광명동 739-11번지 상가2호",
  "latitude": "37.468372",
  "longitude": "126.85102"
},
{
  "number": "10",
  "storeName": "일등복권방",
  "phoneNumber": "02-2066-5883",
  "address": "경기 광명시 철산동 480번지 1층3호",
  "latitude": "37.4746",
  "longitude": "126.866486"
},
{
  "number": "11",
  "storeName": "행복플러스",
  "phoneNumber": "02-2688-6450",
  "address": "경기 광명시 소하동 1365",
  "latitude": "37.48874",
  "longitude": "126.86404"
},
{
  "number": "12",
  "storeName": "잉크와복권",
  "phoneNumber": "02-2682-6385",
  "address": "경기 광명시 철산동 157-2번지",
  "latitude": "37.482674",
  "longitude": "126.86562"
},
{
  "number": "13",
  "storeName": "복권명당",
  "phoneNumber": "",
  "address": "경기 광명시 광명동 334-29",
  "latitude": "37.473007",
  "longitude": "126.85323"
},
{
  "number": "14",
  "storeName": "복권천국",
  "phoneNumber": "02-897-9174",
  "address": "경기 광명시 소하동 1241번지",
  "latitude": "37.43633",
  "longitude": "126.88038"
},
{
  "number": "15",
  "storeName": "SoundWave",
  "phoneNumber": "02-2684-8373",
  "address": "경기 광명시 광명동 150-7번지",
  "latitude": "37.478867",
  "longitude": "126.85692"
},
{
  "number": "16",
  "storeName": "에이스슈퍼",
  "phoneNumber": "02-2686-2287",
  "address": "경기 광명시 광명동 126-26번지",
  "latitude": "37.478985",
  "longitude": "126.85898"
},
{
  "number": "17",
  "storeName": "코리아마트",
  "phoneNumber": "02-897-0306",
  "address": "경기 광명시 하안동 598-11번지",
  "latitude": "37.460995",
  "longitude": "126.87408"
},
{
  "number": "18",
  "storeName": "바이올(철산점)",
  "phoneNumber": "02-2681-7476",
  "address": "경기 광명시 철산동 394",
  "latitude": "37.46927",
  "longitude": "126.85501"
},
{
  "number": "19",
  "storeName": "경인유통",
  "phoneNumber": "02-2619-1725",
  "address": "경기 광명시 일직동 506-1 일직로 72, A동 116호(일직동, 광명국제무역센터)",
  "latitude": "37.485893",
  "longitude": "126.86022"
},
{
  "number": "20",
  "storeName": "LG슈퍼",
  "phoneNumber": "070-4259-4583",
  "address": "경기 광명시 철산동 163번지",
  "latitude": "37.481014",
  "longitude": "126.86336"
},
{
  "number": "21",
  "storeName": "복권마을",
  "phoneNumber": "02-2684-9187",
  "address": "경기 광명시 광명동 348-20번지 1층",
  "latitude": "37.47326",
  "longitude": "126.849594"
},
{
  "number": "22",
  "storeName": "노다지복권방",
  "phoneNumber": "02-896-0912",
  "address": "경기 광명시 하안동 34-10번지 원촌빌딩1층",
  "latitude": "37.46219",
  "longitude": "126.87846"
},
{
  "number": "23",
  "storeName": "GS25(하안연서점)",
  "phoneNumber": "02-806-7696",
  "address": "경기 광명시 하안동 30-1",
  "latitude": "37.465523",
  "longitude": "126.87747"
},
{
  "number": "24",
  "storeName": "GS25(광명녹원점)",
  "phoneNumber": "02-897-9545",
  "address": "경기 광명시 하안동 302번지 녹원프라자106호",
  "latitude": "37.459404",
  "longitude": "126.87489"
},
{
  "number": "25",
  "storeName": "싱글벙글할인마트",
  "phoneNumber": "02-2616-8176",
  "address": "경기 광명시 광명동 276-44번지 금반석씨티빌상가102",
  "latitude": "37.476116",
  "longitude": "126.85002"
},
{
  "number": "26",
  "storeName": "바로전산",
  "phoneNumber": "02-2685-4525",
  "address": "경기 광명시 광명동 158-1015번지 101호",
  "latitude": "37.480118",
  "longitude": "126.85254"
},
{
  "number": "27",
  "storeName": "번영복권방",
  "phoneNumber": "02-2614-3937",
  "address": "경기 광명시 광명동 57-11",
  "latitude": "37.4838",
  "longitude": "126.85666"
},
{
  "number": "28",
  "storeName": "사랑로또",
  "phoneNumber": "070-4124-0711",
  "address": "경기 광명시 일직동 510-8",
  "latitude": "37.420708",
  "longitude": "126.88246"
},
{
  "number": "29",
  "storeName": "광명창원로또점",
  "phoneNumber": "",
  "address": "경기 광명시 하안동 305-4 1층 CU광명창원점",
  "latitude": "37.435337",
  "longitude": "126.88034"
},
{
  "number": "30",
  "storeName": "까까복권",
  "phoneNumber": "",
  "address": "경기 광명시 일직동 500 102-1호",
  "latitude": "37.424206",
  "longitude": "126.884445"
},
{
  "number": "31",
  "storeName": "돈방석",
  "phoneNumber": "02-6489-6258",
  "address": "경기 광명시 광명동 158-468",
  "latitude": "37.475327",
  "longitude": "126.856476"
},
{
  "number": "32",
  "storeName": "위드미로또",
  "phoneNumber": "",
  "address": "경기 광명시 하안동 33-1",
  "latitude": "37.46315",
  "longitude": "126.87944"
}
]