[
{
  "number": "1",
  "storeName": "천하명당",
  "phoneNumber": "055-644-8577",
  "address": "경남 통영시 항남동 97-3번지",
  "latitude": "34.842712",
  "longitude": "128.42323"
},
{
  "number": "2",
  "storeName": "코리아슈퍼",
  "phoneNumber": "055-644-6362",
  "address": "경남 통영시 무전동 985-1 상가1층 103호",
  "latitude": "34.858883",
  "longitude": "128.43108"
},
{
  "number": "3",
  "storeName": "대박행진",
  "phoneNumber": "055-642-3570",
  "address": "경남 통영시 무전동 1034-7번지",
  "latitude": "34.858063",
  "longitude": "128.42786"
},
{
  "number": "4",
  "storeName": "참조은복권방",
  "phoneNumber": "055-644-0260",
  "address": "경남 통영시 도천동 124-42번지",
  "latitude": "34.83851",
  "longitude": "128.4121"
},
{
  "number": "5",
  "storeName": "로또정량점",
  "phoneNumber": "055-643-0147",
  "address": "경남 통영시 정량동 1158-57 7호",
  "latitude": "34.845272",
  "longitude": "128.43025"
},
{
  "number": "6",
  "storeName": "월드복권방",
  "phoneNumber": "055-649-4994",
  "address": "경남 통영시 북신동 697-1번지 월드마트 내",
  "latitude": "34.856697",
  "longitude": "128.42746"
},
{
  "number": "7",
  "storeName": "CU(통영항남점)",
  "phoneNumber": "055-641-2690",
  "address": "경남 통영시 항남동 197-25",
  "latitude": "34.84237",
  "longitude": "128.42259"
},
{
  "number": "8",
  "storeName": "CU(통영북신에이스점)",
  "phoneNumber": "055-646-8030",
  "address": "경남 통영시 무전동 1030-7번지",
  "latitude": "34.85958",
  "longitude": "128.42686"
},
{
  "number": "9",
  "storeName": "행운마트",
  "phoneNumber": "",
  "address": "경남 통영시 광도면 죽림리 1567-6",
  "latitude": "34.885357",
  "longitude": "128.41615"
},
{
  "number": "10",
  "storeName": "나눔로또봉평점",
  "phoneNumber": "",
  "address": "경남 통영시 봉평동 158-8번지",
  "latitude": "34.831707",
  "longitude": "128.41342"
},
{
  "number": "11",
  "storeName": "씨유마트",
  "phoneNumber": "055-641-1166",
  "address": "경남 통영시 용남면 장평리 337 cu편의점 내",
  "latitude": "34.885826",
  "longitude": "128.46722"
},
{
  "number": "12",
  "storeName": "이마트24 통영죽림점",
  "phoneNumber": "",
  "address": "경남 통영시 광도면 죽림리 1570-52 101호",
  "latitude": "34.8856",
  "longitude": "128.4175"
},
{
  "number": "13",
  "storeName": "죽림프라자",
  "phoneNumber": "055-643-5655",
  "address": "경남 통영시 광도면 죽림리 1585-61 1층 105호 CU편의점",
  "latitude": "34.874626",
  "longitude": "128.41812"
},
{
  "number": "14",
  "storeName": "미수동 로또",
  "phoneNumber": "",
  "address": "경남 통영시 미수동 589-1 1층 제나104호",
  "latitude": "34.82476",
  "longitude": "128.39983"
},
{
  "number": "15",
  "storeName": "로또 북신사거리점",
  "phoneNumber": "",
  "address": "경남 통영시 북신동 38-3 110호",
  "latitude": "34.852745",
  "longitude": "128.42902"
},
{
  "number": "16",
  "storeName": "대도복권",
  "phoneNumber": "",
  "address": "경남 통영시 정량동 273-2 1층",
  "latitude": "34.8493",
  "longitude": "128.43123"
},
{
  "number": "17",
  "storeName": "행운복권판매소",
  "phoneNumber": "",
  "address": "경남 통영시 중앙동 265-8",
  "latitude": "34.84239",
  "longitude": "128.4211"
},
{
  "number": "18",
  "storeName": "인생배팅",
  "phoneNumber": "",
  "address": "경남 통영시 광도면 죽림리 1571-25",
  "latitude": "34.886097",
  "longitude": "128.4198"
}
]