[
{
  "number": "1",
  "storeName": "운수대통복권방",
  "phoneNumber": "041-554-1259",
  "address": "충남 천안시 동남구 사직동 263-3 1층7호",
  "latitude": "36.800465",
  "longitude": "127.14928"
},
{
  "number": "2",
  "storeName": "청룡마트",
  "phoneNumber": "070-8825-9937",
  "address": "충남 천안시 동남구 청수동 219-4번지 현대아파트상가B-102호",
  "latitude": "36.797386",
  "longitude": "127.154175"
},
{
  "number": "3",
  "storeName": "병천로또판매점",
  "phoneNumber": "041-555-0906",
  "address": "충남 천안시 동남구 병천면 병천리 163-1 1층 세탁소",
  "latitude": "36.762424",
  "longitude": "127.298"
},
{
  "number": "4",
  "storeName": "로또복권",
  "phoneNumber": "041-572-7060",
  "address": "충남 천안시 동남구 봉명동 48-50",
  "latitude": "36.807102",
  "longitude": "127.14029"
},
{
  "number": "5",
  "storeName": "신방복권",
  "phoneNumber": "041-552-7496",
  "address": "충남 천안시 동남구 신방동 785-83 101호",
  "latitude": "36.788696",
  "longitude": "127.121544"
},
{
  "number": "6",
  "storeName": "천안복권방",
  "phoneNumber": "041-554-1231",
  "address": "충남 천안시 동남구 원성동 518-4",
  "latitude": "36.79971",
  "longitude": "127.15941"
},
{
  "number": "7",
  "storeName": "대산슈퍼",
  "phoneNumber": "041-557-3624",
  "address": "충남 천안시 동남구 북면 연춘리 120-5",
  "latitude": "36.769924",
  "longitude": "127.25022"
},
{
  "number": "8",
  "storeName": "유마트",
  "phoneNumber": "041-556-4882",
  "address": "충남 천안시 동남구 신부동 56-30번지",
  "latitude": "36.815216",
  "longitude": "127.16413"
},
{
  "number": "9",
  "storeName": "로또명당",
  "phoneNumber": "041-522-8877",
  "address": "충남 천안시 동남구 목천읍 삼성리 145-7번지 5호",
  "latitude": "36.75666",
  "longitude": "127.17101"
},
{
  "number": "10",
  "storeName": "천안역로또토토복권방",
  "phoneNumber": "041-555-9280",
  "address": "충남 천안시 동남구 대흥동 123-1번지 아시아마트내",
  "latitude": "36.809116",
  "longitude": "127.14774"
},
{
  "number": "11",
  "storeName": "잉크와복권방",
  "phoneNumber": "041-592-1677",
  "address": "충남 천안시 동남구 다가동 352-7번지",
  "latitude": "36.80211",
  "longitude": "127.13947"
},
{
  "number": "12",
  "storeName": "대박복권방",
  "phoneNumber": "041-578-0083",
  "address": "충남 천안시 동남구 신방동 13-5",
  "latitude": "36.794533",
  "longitude": "127.13102"
},
{
  "number": "13",
  "storeName": "행복만남천안터미널점",
  "phoneNumber": "041-558-0645",
  "address": "충남 천안시 동남구 신부동 363-2 emart24 편의점 내",
  "latitude": "36.820713",
  "longitude": "127.156586"
},
{
  "number": "14",
  "storeName": "예스마트",
  "phoneNumber": "041-552-1138",
  "address": "충남 천안시 동남구 원성동 652-11 예스마트내 복권방",
  "latitude": "36.798973",
  "longitude": "127.162415"
},
{
  "number": "15",
  "storeName": "대박마트",
  "phoneNumber": "041-578-0645",
  "address": "충남 천안시 동남구 봉명동 494번지 봉명청솔아파트상가103호",
  "latitude": "36.810837",
  "longitude": "127.13254"
},
{
  "number": "16",
  "storeName": "GS25(천안문화점)",
  "phoneNumber": "041-578-4682",
  "address": "충남 천안시 동남구 대흥동 10-5번지",
  "latitude": "36.81061",
  "longitude": "127.150116"
},
{
  "number": "17",
  "storeName": "GS25(목천동우점)",
  "phoneNumber": "041-564-2900",
  "address": "충남 천안시 동남구 목천읍 신계리 422",
  "latitude": "36.771935",
  "longitude": "127.19406"
},
{
  "number": "18",
  "storeName": "GS25(천안봉명점)",
  "phoneNumber": "041-577-9664",
  "address": "충남 천안시 동남구 봉명동 40-9번지",
  "latitude": "36.804047",
  "longitude": "127.13911"
},
{
  "number": "19",
  "storeName": "GS25(천안성지점)",
  "phoneNumber": "041-579-7328",
  "address": "충남 천안시 동남구 신방동 881",
  "latitude": "36.793365",
  "longitude": "127.129715"
},
{
  "number": "20",
  "storeName": "GS25(천안신방점)",
  "phoneNumber": "041-577-2520",
  "address": "충남 천안시 동남구 신방동 905번지 현대아파트상가102호",
  "latitude": "36.78923",
  "longitude": "127.13032"
},
{
  "number": "21",
  "storeName": "GS25(천안초원점)",
  "phoneNumber": "041-578-4201",
  "address": "충남 천안시 동남구 신방동 920번지 초원그린타운아파트상가1동124호",
  "latitude": "36.78741",
  "longitude": "127.12643"
},
{
  "number": "22",
  "storeName": "GS25(천안시민점)",
  "phoneNumber": "041-556-5780",
  "address": "충남 천안시 동남구 신부동 469-1번지",
  "latitude": "36.81836",
  "longitude": "127.159325"
},
{
  "number": "23",
  "storeName": "GS25(천안창조점)",
  "phoneNumber": "041-555-2702",
  "address": "충남 천안시 동남구 신부동 494-1번지 삼부르네상스오피스텔 103호",
  "latitude": "36.81957",
  "longitude": "127.1601"
},
{
  "number": "24",
  "storeName": "GS25(뉴천안동보점)",
  "phoneNumber": "041-555-7829",
  "address": "충남 천안시 동남구 안서동 305-11",
  "latitude": "36.831154",
  "longitude": "127.17752"
},
{
  "number": "25",
  "storeName": "새누리로또복권방",
  "phoneNumber": "",
  "address": "충남 천안시 동남구 영성동 133-2 1호",
  "latitude": "36.803406",
  "longitude": "127.15296"
},
{
  "number": "26",
  "storeName": "천안명당",
  "phoneNumber": "070-7539-9269",
  "address": "충남 천안시 동남구 신부동 320-39",
  "latitude": "36.82221",
  "longitude": "127.15278"
},
{
  "number": "27",
  "storeName": "황실복권방",
  "phoneNumber": "",
  "address": "충남 천안시 동남구 목천읍 신계리 390-19",
  "latitude": "36.769157",
  "longitude": "127.20061"
},
{
  "number": "28",
  "storeName": "로또신방통정점",
  "phoneNumber": "041-576-4422",
  "address": "충남 천안시 동남구 신방동 1447 1층 101호 CU편의점",
  "latitude": "36.772903",
  "longitude": "127.12927"
},
{
  "number": "29",
  "storeName": "천안풍세로또점",
  "phoneNumber": "041-554-8889",
  "address": "충남 천안시 동남구 풍세면 보성리 580-18 원주소_풍세산단로18-12 미니스톱",
  "latitude": "36.728775",
  "longitude": "127.104744"
},
{
  "number": "30",
  "storeName": "천하명당천안점",
  "phoneNumber": "",
  "address": "충남 천안시 동남구 구성동 301-4 향목그라비스상가 107호",
  "latitude": "36.79187",
  "longitude": "127.16229"
},
{
  "number": "31",
  "storeName": "왕대박천하명당",
  "phoneNumber": "041-579-4683",
  "address": "충남 천안시 동남구 신방동 924번지 세븐일레븐천안초원점",
  "latitude": "36.788105",
  "longitude": "127.12843"
},
{
  "number": "32",
  "storeName": "노다지복권방",
  "phoneNumber": "",
  "address": "충남 천안시 동남구 원성동 479-27번지 2호",
  "latitude": "36.808594",
  "longitude": "127.16194"
},
{
  "number": "33",
  "storeName": "로또클럽",
  "phoneNumber": "",
  "address": "충남 천안시 동남구 청당동 852 101호",
  "latitude": "36.782753",
  "longitude": "127.16153"
},
{
  "number": "34",
  "storeName": "로또천안성남점",
  "phoneNumber": "041-566-5325",
  "address": "충남 천안시 동남구 성남면 신사리 332-1번지",
  "latitude": "36.742176",
  "longitude": "127.23651"
},
{
  "number": "35",
  "storeName": "행운복권방",
  "phoneNumber": "",
  "address": "충남 천안시 동남구 구성동 475-11",
  "latitude": "36.79847",
  "longitude": "127.16043"
},
{
  "number": "36",
  "storeName": "통정로또명당마트",
  "phoneNumber": "",
  "address": "충남 천안시 동남구 신방동 1577 한성필하우스118동 앞 상가",
  "latitude": "36.77666",
  "longitude": "127.1347"
},
{
  "number": "37",
  "storeName": "청당복권",
  "phoneNumber": "",
  "address": "충남 천안시 동남구 청당동 454",
  "latitude": "36.783527",
  "longitude": "127.14583"
},
{
  "number": "38",
  "storeName": "콘테인복권판매점",
  "phoneNumber": "",
  "address": "충남 천안시 동남구 496 건물 뒤편 콘테인커피숍 내",
  "latitude": "36.783154",
  "longitude": "127.153725"
},
{
  "number": "39",
  "storeName": "일등용두휴게소",
  "phoneNumber": "",
  "address": "충남 천안시 동남구 병천면 용두리 493 용두휴게소 이마트24 내",
  "latitude": "36.74841",
  "longitude": "127.30996"
}
]