[
{
  "number": "1",
  "storeName": "GS25(괘법중앙점)",
  "phoneNumber": "051-326-2260",
  "address": "부산 사상구 괘법동 546-5",
  "latitude": "35.163265",
  "longitude": "128.98495"
},
{
  "number": "2",
  "storeName": "GS25(괘법덕포점)",
  "phoneNumber": "051-317-7027",
  "address": "부산 사상구 괘법동 270-6",
  "latitude": "35.16541",
  "longitude": "128.98407"
},
{
  "number": "3",
  "storeName": "로또복권",
  "phoneNumber": "",
  "address": "부산 사상구 75 110호",
  "latitude": "35.18259",
  "longitude": "129.00064"
},
{
  "number": "4",
  "storeName": "성금로또",
  "phoneNumber": "051-305-6318",
  "address": "부산 사상구 덕포동 777-1번지",
  "latitude": "35.175163",
  "longitude": "128.98871"
},
{
  "number": "5",
  "storeName": "복권방",
  "phoneNumber": "",
  "address": "부산 사상구 주례동 316 2동 111호",
  "latitude": "35.152687",
  "longitude": "129.00497"
},
{
  "number": "6",
  "storeName": "꿈꾸는 복권",
  "phoneNumber": "051-612-6806",
  "address": "부산 사상구 엄궁동 645-3번지 CU엄궁농산물시장점 내",
  "latitude": "35.13081",
  "longitude": "128.96796"
},
{
  "number": "7",
  "storeName": "감전복권방",
  "phoneNumber": "051-322-9260",
  "address": "부산 사상구 감전동 129-23",
  "latitude": "35.15519",
  "longitude": "128.9792"
},
{
  "number": "8",
  "storeName": "돈벼락맞는곳",
  "phoneNumber": "051-310-0854",
  "address": "부산 사상구 감전동 502-1번지 마트월드 A-160호",
  "latitude": "35.141594",
  "longitude": "128.97075"
},
{
  "number": "9",
  "storeName": "슈퍼복권나라",
  "phoneNumber": "051-322-1506",
  "address": "부산 사상구 주례동 1160-8번지",
  "latitude": "35.14988",
  "longitude": "128.99982"
},
{
  "number": "10",
  "storeName": "황금복권방",
  "phoneNumber": "051-316-1711",
  "address": "부산 사상구 괘법동 557-6",
  "latitude": "35.15935",
  "longitude": "128.98438"
},
{
  "number": "11",
  "storeName": "복권천국(덕포점)",
  "phoneNumber": "051-304-7135",
  "address": "부산 사상구 삼락동 412-11번지",
  "latitude": "35.17245",
  "longitude": "128.98122"
},
{
  "number": "12",
  "storeName": "행복복권 나드리마트",
  "phoneNumber": "051-301-5153",
  "address": "부산 사상구 모라동 773-2번지",
  "latitude": "35.18726",
  "longitude": "128.98732"
},
{
  "number": "13",
  "storeName": "대학도슈퍼",
  "phoneNumber": "051-324-2300",
  "address": "부산 사상구 주례동 60-87번지",
  "latitude": "35.150978",
  "longitude": "129.01257"
},
{
  "number": "14",
  "storeName": "복터졌네 대박로또",
  "phoneNumber": "",
  "address": "부산 사상구 괘법동 521-1 미니스톱 괘법센텀점 내",
  "latitude": "35.165215",
  "longitude": "128.9798"
},
{
  "number": "15",
  "storeName": "열린복권방",
  "phoneNumber": "051-312-0128",
  "address": "부산 사상구 괘법동 546-16번지 프라자슈퍼",
  "latitude": "35.162598",
  "longitude": "128.9852"
},
{
  "number": "16",
  "storeName": "로또명당",
  "phoneNumber": "",
  "address": "부산 사상구 주례동 54-80",
  "latitude": "35.147705",
  "longitude": "128.98083"
},
{
  "number": "17",
  "storeName": "25시슈퍼",
  "phoneNumber": "051-316-8879",
  "address": "부산 사상구 모라동 1339-18번지",
  "latitude": "35.191963",
  "longitude": "128.99261"
},
{
  "number": "18",
  "storeName": "부자복권방",
  "phoneNumber": "051-316-6942",
  "address": "부산 사상구 모라동 273-11번지",
  "latitude": "35.192234",
  "longitude": "128.99004"
},
{
  "number": "19",
  "storeName": "행운복권방",
  "phoneNumber": "051-303-7439",
  "address": "부산 사상구 모라동 647-1번지",
  "latitude": "35.19153",
  "longitude": "128.98901"
},
{
  "number": "20",
  "storeName": "복권방",
  "phoneNumber": "051-315-6323",
  "address": "부산 사상구 엄궁동 414번지",
  "latitude": "35.128082",
  "longitude": "128.97003"
},
{
  "number": "21",
  "storeName": "미화당슈퍼한신태화점",
  "phoneNumber": "051-313-9344",
  "address": "부산 사상구 괘법동 516-1번지 한신괘법1차아파트상가",
  "latitude": "35.167786",
  "longitude": "128.98055"
},
{
  "number": "22",
  "storeName": "대박복권방",
  "phoneNumber": "",
  "address": "부산 사상구 학장동 585-27",
  "latitude": "35.138542",
  "longitude": "128.9791"
},
{
  "number": "23",
  "storeName": "스파편의점",
  "phoneNumber": "051-327-1642",
  "address": "부산 사상구 주례동 506번지 창조상가106호",
  "latitude": "35.15001",
  "longitude": "129.0041"
},
{
  "number": "24",
  "storeName": "괘법동우편취급국",
  "phoneNumber": "051-316-0585",
  "address": "부산 사상구 괘법동 565-1",
  "latitude": "35.16248",
  "longitude": "128.9785"
},
{
  "number": "25",
  "storeName": "행운플러스",
  "phoneNumber": "051-316-2541",
  "address": "부산 사상구 감전동 105-5번지 1층복권방",
  "latitude": "35.157173",
  "longitude": "128.98601"
},
{
  "number": "26",
  "storeName": "수복슈퍼",
  "phoneNumber": "051-311-9390",
  "address": "부산 사상구 괘법동 526-12 1층",
  "latitude": "35.1644",
  "longitude": "128.9813"
},
{
  "number": "27",
  "storeName": "엄지척닷컴개인미니편의점",
  "phoneNumber": "051-312-2951",
  "address": "부산 사상구 학장동 612-1",
  "latitude": "35.14141",
  "longitude": "128.98381"
},
{
  "number": "28",
  "storeName": "천하명당복권방(행운을주는사람들)",
  "phoneNumber": "051-326-9492",
  "address": "부산 사상구 괘법동 563-16번지",
  "latitude": "35.16114",
  "longitude": "128.9805"
},
{
  "number": "29",
  "storeName": "동명로또",
  "phoneNumber": "051-314-7943",
  "address": "부산 사상구 감전동 380-1",
  "latitude": "35.153835",
  "longitude": "128.98994"
},
{
  "number": "30",
  "storeName": "조은생각",
  "phoneNumber": "",
  "address": "부산 사상구 괘법동 263-7",
  "latitude": "35.167255",
  "longitude": "128.98448"
},
{
  "number": "31",
  "storeName": "스위트초이스(엄궁점)",
  "phoneNumber": "070-8243-0471",
  "address": "부산 사상구 엄궁동 464-1번지",
  "latitude": "35.128376",
  "longitude": "128.97214"
},
{
  "number": "32",
  "storeName": "에브리데이모덕점",
  "phoneNumber": "051-303-0979",
  "address": "부산 사상구 모라동 708-10번지 G마트",
  "latitude": "35.18479",
  "longitude": "128.9865"
},
{
  "number": "33",
  "storeName": "엑스트라(우주점)",
  "phoneNumber": "051-304-6111",
  "address": "부산 사상구 모라동 552 가상가106호",
  "latitude": "35.18483",
  "longitude": "128.99786"
},
{
  "number": "34",
  "storeName": "행운로또",
  "phoneNumber": "051-311-8046",
  "address": "부산 사상구 모라동 508-2 1층세븐일레븐",
  "latitude": "35.185913",
  "longitude": "128.99077"
},
{
  "number": "35",
  "storeName": "황금로또",
  "phoneNumber": "051-314-7745",
  "address": "부산 사상구 학장동 173-16 상가동 108호",
  "latitude": "35.1387",
  "longitude": "128.99342"
},
{
  "number": "36",
  "storeName": "신성사",
  "phoneNumber": "",
  "address": "부산 사상구 감전동 121-41",
  "latitude": "35.157104",
  "longitude": "128.98372"
},
{
  "number": "37",
  "storeName": "대박로또",
  "phoneNumber": "051-302-9283",
  "address": "부산 사상구 덕포동 394-10",
  "latitude": "35.17464",
  "longitude": "128.98392"
},
{
  "number": "38",
  "storeName": "로또의 신",
  "phoneNumber": "",
  "address": "부산 사상구 주례동 43-28",
  "latitude": "35.154057",
  "longitude": "129.016"
},
{
  "number": "39",
  "storeName": "모라행운로또",
  "phoneNumber": "",
  "address": "부산 사상구 모라동 1357 상가 2동 102호",
  "latitude": "35.188625",
  "longitude": "128.99123"
}
]