[
{
  "number": "1",
  "storeName": "복권명가",
  "phoneNumber": "",
  "address": "강원 동해시 송정동 841-6번지 102호",
  "latitude": "37.497356",
  "longitude": "129.12495"
},
{
  "number": "2",
  "storeName": "용꿈돼지꿈복권전문점",
  "phoneNumber": "033-531-5535",
  "address": "강원 동해시 천곡동 855번지 이주민상가1층15호",
  "latitude": "37.52168",
  "longitude": "129.115"
},
{
  "number": "3",
  "storeName": "복권천하 미스터잉크동해점",
  "phoneNumber": "033-533-8182",
  "address": "강원 동해시 발한동 597-18번지 16통1반",
  "latitude": "37.539326",
  "longitude": "129.102"
},
{
  "number": "4",
  "storeName": "GS25 동해삼화점",
  "phoneNumber": "033-534-8933",
  "address": "강원 동해시 이로동 100-2",
  "latitude": "37.487083",
  "longitude": "129.06816"
},
{
  "number": "5",
  "storeName": "동해복권전문점",
  "phoneNumber": "033-531-8241",
  "address": "강원 동해시 발한동 17-22번지",
  "latitude": "37.549706",
  "longitude": "129.1086"
},
{
  "number": "6",
  "storeName": "CU(동해발한점)",
  "phoneNumber": "033-535-6954",
  "address": "강원 동해시 발한동 39-14번지",
  "latitude": "37.54818",
  "longitude": "129.10858"
},
{
  "number": "7",
  "storeName": "부경 로또방",
  "phoneNumber": "",
  "address": "강원 동해시 효가동 153-1 CU동해효가사거리점",
  "latitude": "37.49291",
  "longitude": "129.1097"
},
{
  "number": "8",
  "storeName": "동해대박복권편의점",
  "phoneNumber": "",
  "address": "강원 동해시 평릉동 401-42번지",
  "latitude": "37.52885",
  "longitude": "129.1038"
},
{
  "number": "9",
  "storeName": "왕대박복권전문점",
  "phoneNumber": "033-531-5767",
  "address": "강원 동해시 천곡동 855번지 이주민상가1층18호",
  "latitude": "37.52168",
  "longitude": "129.115"
},
{
  "number": "10",
  "storeName": "이마트24망상해변점",
  "phoneNumber": "033-534-3458",
  "address": "강원 동해시 망상동 393-36 제상가동 1층 118호, 위플러스편의점 내",
  "latitude": "37.592827",
  "longitude": "129.09047"
},
{
  "number": "11",
  "storeName": "경남슈퍼철물",
  "phoneNumber": "",
  "address": "강원 동해시 묵호진동 15-47 경남슈퍼",
  "latitude": "37.552387",
  "longitude": "129.11548"
}
]