[
{
  "number": "1",
  "storeName": "복권방",
  "phoneNumber": "055-224-4234",
  "address": "경남 창원시 마산합포구 신포동2가 28-8번지 중앙상가 1호",
  "latitude": "35.20107",
  "longitude": "128.57433"
},
{
  "number": "2",
  "storeName": "대박찬스",
  "phoneNumber": "055-224-5282",
  "address": "경남 창원시 마산합포구 자산동 299-6번지",
  "latitude": "35.202885",
  "longitude": "128.56618"
},
{
  "number": "3",
  "storeName": "새롬",
  "phoneNumber": "055-223-5435",
  "address": "경남 창원시 마산합포구 동성동 316 새롬미리내상가113호",
  "latitude": "35.203033",
  "longitude": "128.57986"
},
{
  "number": "4",
  "storeName": "북마산복권전문점",
  "phoneNumber": "055-244-3626",
  "address": "경남 창원시 마산합포구 상남동 39-4번지",
  "latitude": "35.2158",
  "longitude": "128.57086"
},
{
  "number": "5",
  "storeName": "경남슈퍼",
  "phoneNumber": "055-247-3188",
  "address": "경남 창원시 마산합포구 산호동 25-4번지",
  "latitude": "35.220688",
  "longitude": "128.58311"
},
{
  "number": "6",
  "storeName": "일흥 (로또 토토 상품권할인마트)",
  "phoneNumber": "055-245-0009",
  "address": "경남 창원시 마산합포구 신포동1가 64-2번지",
  "latitude": "35.199795",
  "longitude": "128.57385"
},
{
  "number": "7",
  "storeName": "채널큐",
  "phoneNumber": "055-222-6695",
  "address": "경남 창원시 마산합포구 산호동 31-52번지",
  "latitude": "35.21752",
  "longitude": "128.58145"
},
{
  "number": "8",
  "storeName": "씨유 월영마을점",
  "phoneNumber": "055-221-3433",
  "address": "경남 창원시 마산합포구 해운동 18-29번지",
  "latitude": "35.17691",
  "longitude": "128.55867"
},
{
  "number": "9",
  "storeName": "로또마트",
  "phoneNumber": "055-223-2588",
  "address": "경남 창원시 마산합포구 중성동 83 1층 GS편의점",
  "latitude": "35.2071",
  "longitude": "128.57631"
},
{
  "number": "10",
  "storeName": "로또복권판매점",
  "phoneNumber": "055-221-2589",
  "address": "경남 창원시 마산합포구 산호동 232-20번지",
  "latitude": "35.215183",
  "longitude": "128.58672"
},
{
  "number": "11",
  "storeName": "로또명당",
  "phoneNumber": "055-224-1506",
  "address": "경남 창원시 마산합포구 창포동3가 7-2번지",
  "latitude": "35.181408",
  "longitude": "128.55971"
},
{
  "number": "12",
  "storeName": "마산부림마트",
  "phoneNumber": "055-223-9948",
  "address": "경남 창원시 마산합포구 부림동 83-272번지 4필지",
  "latitude": "35.205776",
  "longitude": "128.57265"
},
{
  "number": "13",
  "storeName": "우주로또판매",
  "phoneNumber": "055-222-3111",
  "address": "경남 창원시 마산합포구 산호동 323-3번지 가야빌딩1층",
  "latitude": "35.210518",
  "longitude": "128.58519"
},
{
  "number": "14",
  "storeName": "완월로또",
  "phoneNumber": "055-245-0671",
  "address": "경남 창원시 마산합포구 완월동 217-3 세븐일레븐 내",
  "latitude": "35.197346",
  "longitude": "128.56187"
},
{
  "number": "15",
  "storeName": "CU(진동사거리점)",
  "phoneNumber": "055-271-2110",
  "address": "경남 창원시 마산합포구 진동면 고현리 318번지 금강팰릭스타워",
  "latitude": "35.112835",
  "longitude": "128.48712"
},
{
  "number": "16",
  "storeName": "CU(마산해운점)",
  "phoneNumber": "055-241-7051",
  "address": "경남 창원시 마산합포구 해운동 42-10번지",
  "latitude": "35.179634",
  "longitude": "128.56319"
},
{
  "number": "17",
  "storeName": "CU(마산경남대점)",
  "phoneNumber": "055-221-0377",
  "address": "경남 창원시 마산합포구 월영동 430-31 1층 CU편의점",
  "latitude": "35.18042",
  "longitude": "128.5571"
},
{
  "number": "18",
  "storeName": "GS25(마산상남점)",
  "phoneNumber": "055-244-1481",
  "address": "경남 창원시 마산합포구 상남동 230-25번지",
  "latitude": "35.209618",
  "longitude": "128.57639"
},
{
  "number": "19",
  "storeName": "GS25(마산창동점)",
  "phoneNumber": "055-242-1343",
  "address": "경남 창원시 마산합포구 중성동 20-73번지",
  "latitude": "35.208233",
  "longitude": "128.57437"
},
{
  "number": "20",
  "storeName": "복권방",
  "phoneNumber": "055-224-2047",
  "address": "경남 창원시 마산합포구 중성동 18-6번지",
  "latitude": "35.209618",
  "longitude": "128.57446"
},
{
  "number": "21",
  "storeName": "용띠아지메 복권",
  "phoneNumber": "055-000-0000",
  "address": "경남 창원시 마산합포구 구산면 내포리 254-1 1층",
  "latitude": "35.0988",
  "longitude": "128.58424"
},
{
  "number": "22",
  "storeName": "댓거리365",
  "phoneNumber": "055-221-9496",
  "address": "경남 창원시 마산합포구 현동 374 108호 1층 가고파빌딩",
  "latitude": "35.150593",
  "longitude": "128.554"
},
{
  "number": "23",
  "storeName": "이마트24 홍문점",
  "phoneNumber": "055-242-3857",
  "address": "경남 창원시 마산합포구 홍문동 10-1번지",
  "latitude": "35.18403",
  "longitude": "128.55925"
},
{
  "number": "24",
  "storeName": "CU마산창포한백점",
  "phoneNumber": "",
  "address": "경남 창원시 마산합포구 창포동1가 20 101-102호",
  "latitude": "35.184418",
  "longitude": "128.56273"
},
{
  "number": "25",
  "storeName": "육교상회",
  "phoneNumber": "055-241-7866",
  "address": "경남 창원시 마산합포구 산호동 10-21번지",
  "latitude": "35.22011",
  "longitude": "128.58685"
},
{
  "number": "26",
  "storeName": "프리마트25로또",
  "phoneNumber": "055-224-1929",
  "address": "경남 창원시 마산합포구 중앙동3가 1-13 1층 CU편의점내",
  "latitude": "35.20063",
  "longitude": "128.56769"
},
{
  "number": "27",
  "storeName": "GS25(마산산호점)",
  "phoneNumber": "055-248-2334",
  "address": "경남 창원시 마산합포구 산호동 13-55",
  "latitude": "35.218838",
  "longitude": "128.58691"
},
{
  "number": "28",
  "storeName": "행복충전소",
  "phoneNumber": "05-500-0000",
  "address": "경남 창원시 마산합포구 오동동 23-18 1층",
  "latitude": "35.207092",
  "longitude": "128.58012"
}
]