[
{
  "number": "1",
  "storeName": "로또복권",
  "phoneNumber": "054-433-5989",
  "address": "경북 김천시 신음동 462-24",
  "latitude": "36.134743",
  "longitude": "128.11848"
},
{
  "number": "2",
  "storeName": "신광할인마트",
  "phoneNumber": "054-436-2989",
  "address": "경북 김천시 지좌동 440-37번지",
  "latitude": "36.11893",
  "longitude": "128.14311"
},
{
  "number": "3",
  "storeName": "로또복권부곡점",
  "phoneNumber": "054-435-7555",
  "address": "경북 김천시 부곡동 795-2",
  "latitude": "36.123707",
  "longitude": "128.09035"
},
{
  "number": "4",
  "storeName": "1등로또복권방",
  "phoneNumber": "054-432-7300",
  "address": "경북 김천시 성내동 208-7번지",
  "latitude": "36.120888",
  "longitude": "128.1194"
},
{
  "number": "5",
  "storeName": "로또복권행복마트점",
  "phoneNumber": "054-430-9657",
  "address": "경북 김천시 신음동 1313 휴먼시아상가 105호",
  "latitude": "36.137363",
  "longitude": "128.11568"
},
{
  "number": "6",
  "storeName": "로또복권로손김천역점",
  "phoneNumber": "054-432-7075",
  "address": "경북 김천시 다수동 156-2번지",
  "latitude": "36.126232",
  "longitude": "128.07793"
},
{
  "number": "7",
  "storeName": "지에스25아포로또",
  "phoneNumber": "054-432-5008",
  "address": "경북 김천시 아포읍 국사리 996번지 GS25편의점 내",
  "latitude": "36.159103",
  "longitude": "128.26303"
},
{
  "number": "8",
  "storeName": "복권명당",
  "phoneNumber": "054-437-5134",
  "address": "경북 김천시 용두동 131-1번지",
  "latitude": "36.119873",
  "longitude": "128.12769"
},
{
  "number": "9",
  "storeName": "파워할인마트",
  "phoneNumber": "054-433-8484",
  "address": "경북 김천시 모암동 141-6 1층 파워할인마트내",
  "latitude": "36.11973",
  "longitude": "128.12686"
},
{
  "number": "10",
  "storeName": "한남체인부곡쇼핑",
  "phoneNumber": "054-434-2698",
  "address": "경북 김천시 부곡동 428-4",
  "latitude": "36.12363",
  "longitude": "128.10315"
},
{
  "number": "11",
  "storeName": "양지서점",
  "phoneNumber": "054-432-3094",
  "address": "경북 김천시 평화동 300-31번지",
  "latitude": "36.122677",
  "longitude": "128.11455"
},
{
  "number": "12",
  "storeName": "행운복권방",
  "phoneNumber": "054-439-2466",
  "address": "경북 김천시 교동 812-4번지",
  "latitude": "36.136284",
  "longitude": "128.09367"
},
{
  "number": "13",
  "storeName": "동양정보통신",
  "phoneNumber": "054-432-1271",
  "address": "경북 김천시 평화동 245-83번지",
  "latitude": "36.1252",
  "longitude": "128.11108"
},
{
  "number": "14",
  "storeName": "로또혁신점",
  "phoneNumber": "054-437-3865",
  "address": "경북 김천시 율곡동 777 cu로제니아",
  "latitude": "36.13984",
  "longitude": "128.11359"
},
{
  "number": "15",
  "storeName": "다원마트",
  "phoneNumber": "054-436-1143",
  "address": "경북 김천시 지좌동 440-159번지",
  "latitude": "36.119232",
  "longitude": "128.14355"
},
{
  "number": "16",
  "storeName": "로 다이어트브런치 카페",
  "phoneNumber": "",
  "address": "경북 김천시 율곡동 362",
  "latitude": "36.124058",
  "longitude": "128.33965"
}
]