[
{
  "number": "1",
  "storeName": "매표소",
  "phoneNumber": "",
  "address": "충남 천안시 서북구 직산읍 양당리 234-1 1동",
  "latitude": "36.882298",
  "longitude": "127.1126"
},
{
  "number": "2",
  "storeName": "스크린멀티복권방",
  "phoneNumber": "041-556-6106",
  "address": "충남 천안시 서북구 성거읍 송남리 13번지 1층 4,5호",
  "latitude": "36.87268",
  "longitude": "127.20081"
},
{
  "number": "3",
  "storeName": "천사마트",
  "phoneNumber": "041-554-5979",
  "address": "충남 천안시 서북구 두정동 1994번지 상가1층6호",
  "latitude": "36.83417",
  "longitude": "127.12997"
},
{
  "number": "4",
  "storeName": "충청복권전문점",
  "phoneNumber": "041-584-3740",
  "address": "충남 천안시 서북구 성환읍 성환리 375-9번지",
  "latitude": "36.91691",
  "longitude": "127.13287"
},
{
  "number": "5",
  "storeName": "왔다복권",
  "phoneNumber": "041-571-0377",
  "address": "충남 천안시 서북구 성정동 646-12번지",
  "latitude": "36.82308",
  "longitude": "127.13768"
},
{
  "number": "6",
  "storeName": "플러스24쌍용본점",
  "phoneNumber": "041-578-1066",
  "address": "충남 천안시 서북구 쌍용동 1525번지",
  "latitude": "36.797195",
  "longitude": "127.11813"
},
{
  "number": "7",
  "storeName": "행복나눔",
  "phoneNumber": "041-567-0927",
  "address": "충남 천안시 서북구 성거읍 요방리 193-2 CU편의점내",
  "latitude": "36.849365",
  "longitude": "127.18255"
},
{
  "number": "8",
  "storeName": "수레크레이션이벤트기획",
  "phoneNumber": "041-554-3118",
  "address": "충남 천안시 서북구 성정동 1230번지 증축1층4호",
  "latitude": "36.827877",
  "longitude": "127.13352"
},
{
  "number": "9",
  "storeName": "로또복권두정점",
  "phoneNumber": "041-565-8880",
  "address": "충남 천안시 서북구 두정동 153-1번지 대원빌딩104호",
  "latitude": "36.833504",
  "longitude": "127.14504"
},
{
  "number": "10",
  "storeName": "로또복권방",
  "phoneNumber": "041-579-3377",
  "address": "충남 천안시 서북구 성정동 722-1번지 상가3호",
  "latitude": "36.814224",
  "longitude": "127.1349"
},
{
  "number": "11",
  "storeName": "에스마트",
  "phoneNumber": "041-571-0181",
  "address": "충남 천안시 서북구 쌍용동 1920번지 주공10단지분산상가1층",
  "latitude": "36.80548",
  "longitude": "127.11921"
},
{
  "number": "12",
  "storeName": "대박명당",
  "phoneNumber": "041-583-8050",
  "address": "충남 천안시 서북구 직산읍 삼은리 412 1층 2호",
  "latitude": "36.877453",
  "longitude": "127.15266"
},
{
  "number": "13",
  "storeName": "우리별텔레콤(SK백석점)",
  "phoneNumber": "070-8810-5444",
  "address": "충남 천안시 서북구 백석동 859번지 상가101호",
  "latitude": "36.82307",
  "longitude": "127.12434"
},
{
  "number": "14",
  "storeName": "로또복권망향",
  "phoneNumber": "041-558-0855",
  "address": "충남 천안시 서북구 신당동 271-1번지",
  "latitude": "36.932766",
  "longitude": "127.13394"
},
{
  "number": "15",
  "storeName": "로또입장점",
  "phoneNumber": "041-584-7741",
  "address": "충남 천안시 서북구 입장면 하장리 45-22 세븐일레븐입장점내",
  "latitude": "36.914608",
  "longitude": "127.222115"
},
{
  "number": "16",
  "storeName": "GS25(천안장미점)",
  "phoneNumber": "041-577-3890",
  "address": "충남 천안시 서북구 쌍용동 1194번지",
  "latitude": "36.80111",
  "longitude": "127.12968"
},
{
  "number": "17",
  "storeName": "GS25(천안용암점)",
  "phoneNumber": "000-0000-0000",
  "address": "충남 천안시 서북구 쌍용동 1968",
  "latitude": "36.802307",
  "longitude": "127.12115"
},
{
  "number": "18",
  "storeName": "GS25(두정메트로점)",
  "phoneNumber": "041-565-2343",
  "address": "충남 천안시 서북구 성정동 1451",
  "latitude": "36.826538",
  "longitude": "127.14151"
},
{
  "number": "19",
  "storeName": "차암일등로또",
  "phoneNumber": "",
  "address": "충남 천안시 서북구 차암동 461번지",
  "latitude": "36.84855",
  "longitude": "127.1105"
},
{
  "number": "20",
  "storeName": "일등로또",
  "phoneNumber": "",
  "address": "충남 천안시 서북구 입장면 상장리 15-7번지",
  "latitude": "36.909584",
  "longitude": "127.22059"
},
{
  "number": "21",
  "storeName": "로또대박",
  "phoneNumber": "",
  "address": "충남 천안시 서북구 성성동 482-11번지",
  "latitude": "36.84754",
  "longitude": "127.11801"
},
{
  "number": "22",
  "storeName": "노다지",
  "phoneNumber": "",
  "address": "충남 천안시 서북구 성환읍 매주리 88-10",
  "latitude": "36.894596",
  "longitude": "127.136406"
},
{
  "number": "23",
  "storeName": "금호타이어충청대리점",
  "phoneNumber": "",
  "address": "충남 천안시 서북구 성환읍 성환리 575-3번지",
  "latitude": "36.932766",
  "longitude": "127.13394"
},
{
  "number": "24",
  "storeName": "봉주로복권방",
  "phoneNumber": "",
  "address": "충남 천안시 서북구 성거읍 오색당리 8-6번지",
  "latitude": "36.87798",
  "longitude": "127.15898"
},
{
  "number": "25",
  "storeName": "나눔로또방",
  "phoneNumber": "",
  "address": "충남 천안시 서북구 성성동 511 미니스톱내",
  "latitude": "36.839386",
  "longitude": "127.115875"
},
{
  "number": "26",
  "storeName": "정민책대여점",
  "phoneNumber": "041-571-9728",
  "address": "충남 천안시 서북구 성정동 658-2번지",
  "latitude": "36.82188",
  "longitude": "127.14251"
},
{
  "number": "27",
  "storeName": "천하명당",
  "phoneNumber": "041-571-2402",
  "address": "충남 천안시 서북구 성정동 985번지 103호",
  "latitude": "36.818817",
  "longitude": "127.13201"
},
{
  "number": "28",
  "storeName": "로또복권2공단점",
  "phoneNumber": "041-621-5622",
  "address": "충남 천안시 서북구 차암동 12-3번지 공단매점내",
  "latitude": "36.8548",
  "longitude": "127.12024"
},
{
  "number": "29",
  "storeName": "위앤조이",
  "phoneNumber": "041-561-9682",
  "address": "충남 천안시 서북구 신당동 634-7번지",
  "latitude": "36.864864",
  "longitude": "127.14962"
},
{
  "number": "30",
  "storeName": "성정로또판매점",
  "phoneNumber": "",
  "address": "충남 천안시 서북구 성정동 624-1 페인트가게 옆 점포",
  "latitude": "36.825603",
  "longitude": "127.138504"
},
{
  "number": "31",
  "storeName": "토마토",
  "phoneNumber": "041-573-3471",
  "address": "충남 천안시 서북구 성정동 314-14",
  "latitude": "36.817516",
  "longitude": "127.14291"
},
{
  "number": "32",
  "storeName": "킹마트",
  "phoneNumber": "041-576-7207",
  "address": "충남 천안시 서북구 성거읍 저리 144-10",
  "latitude": "36.825493",
  "longitude": "127.13886"
},
{
  "number": "33",
  "storeName": "로또판매점",
  "phoneNumber": "041-552-3988",
  "address": "충남 천안시 서북구 성정동 1347 씨유편의점",
  "latitude": "36.828365",
  "longitude": "127.14165"
},
{
  "number": "34",
  "storeName": "신불당로또",
  "phoneNumber": "",
  "address": "충남 천안시 서북구 불당동 1613 501동 지1층 비128호",
  "latitude": "36.810673",
  "longitude": "127.10423"
},
{
  "number": "35",
  "storeName": "그린로또",
  "phoneNumber": "",
  "address": "충남 천안시 서북구 두정동 800 그린토토샵",
  "latitude": "36.83027",
  "longitude": "127.132164"
},
{
  "number": "36",
  "storeName": "대박로또",
  "phoneNumber": "",
  "address": "충남 천안시 서북구 성환읍 매주리 231-6",
  "latitude": "36.90219",
  "longitude": "127.131"
},
{
  "number": "37",
  "storeName": "미니스톱 로또복권",
  "phoneNumber": "",
  "address": "충남 천안시 서북구 성환읍 율금리 790-35",
  "latitude": "36.892563",
  "longitude": "127.09621"
},
{
  "number": "38",
  "storeName": "GS25(쌍용한빛점)",
  "phoneNumber": "041-577-4408",
  "address": "충남 천안시 서북구 쌍용동 1680번지",
  "latitude": "36.790436",
  "longitude": "127.117065"
},
{
  "number": "39",
  "storeName": "입장명당복권방",
  "phoneNumber": "",
  "address": "충남 천안시 서북구 입장면 하장리 350",
  "latitude": "36.909718",
  "longitude": "127.22812"
},
{
  "number": "40",
  "storeName": "경마장복권방",
  "phoneNumber": "",
  "address": "충남 천안시 서북구 두정동 1396 101호",
  "latitude": "36.830425",
  "longitude": "127.14177"
},
{
  "number": "41",
  "storeName": "행운로또",
  "phoneNumber": "",
  "address": "충남 천안시 서북구 두정동 606 부경아파트 상가동 내",
  "latitude": "36.82696",
  "longitude": "127.127396"
},
{
  "number": "42",
  "storeName": "씨유천안성정세종점",
  "phoneNumber": "041-577-4970",
  "address": "충남 천안시 서북구 성정동 628-1",
  "latitude": "36.824474",
  "longitude": "127.140785"
},
{
  "number": "43",
  "storeName": "행운복권방",
  "phoneNumber": "",
  "address": "충남 천안시 서북구 쌍용동 1298 1층 121호",
  "latitude": "36.800213",
  "longitude": "127.12583"
},
{
  "number": "44",
  "storeName": "피앤씨(PNC)기획",
  "phoneNumber": "",
  "address": "충남 천안시 서북구 백석동 718 두성베르겐빌딩 102호",
  "latitude": "36.811913",
  "longitude": "127.10958"
}
]