[
{
  "number": "1",
  "storeName": "로또복권 하대점",
  "phoneNumber": "055-758-7106",
  "address": "경남 진주시 하대동 126-17번지",
  "latitude": "35.18702",
  "longitude": "128.12247"
},
{
  "number": "2",
  "storeName": "노다지편의점",
  "phoneNumber": "055-759-4446",
  "address": "경남 진주시 초전동 1711-3 103호(초전동, 상가)",
  "latitude": "35.211197",
  "longitude": "128.11171"
},
{
  "number": "3",
  "storeName": "이마트24진주강남점(다솜방)",
  "phoneNumber": "055-757-4202",
  "address": "경남 진주시 강남동 242 1층",
  "latitude": "35.179195",
  "longitude": "128.09068"
},
{
  "number": "4",
  "storeName": "노다지복권방",
  "phoneNumber": "070-7779-6528",
  "address": "경남 진주시 신안동 582-5번지",
  "latitude": "35.178047",
  "longitude": "128.06413"
},
{
  "number": "5",
  "storeName": "명당",
  "phoneNumber": "055-762-1533",
  "address": "경남 진주시 진성면 상촌리 142-2번지 CU편의점내",
  "latitude": "35.187298",
  "longitude": "128.22476"
},
{
  "number": "6",
  "storeName": "로또복권방",
  "phoneNumber": "055-748-2027",
  "address": "경남 진주시 수정동 39-14",
  "latitude": "35.197536",
  "longitude": "128.08437"
},
{
  "number": "7",
  "storeName": "산청스토아",
  "phoneNumber": "055-746-9247",
  "address": "경남 진주시 상봉동 1060-44번지",
  "latitude": "35.19748",
  "longitude": "128.07268"
},
{
  "number": "8",
  "storeName": "동방로또판매장",
  "phoneNumber": "055-762-9743",
  "address": "경남 진주시 칠암동 320-9번지",
  "latitude": "35.184418",
  "longitude": "128.08865"
},
{
  "number": "9",
  "storeName": "행운의집",
  "phoneNumber": "055-759-2680",
  "address": "경남 진주시 하대동 323-11번지 드림문고 내",
  "latitude": "35.19186",
  "longitude": "128.12225"
},
{
  "number": "10",
  "storeName": "정우빌딩",
  "phoneNumber": "055-745-7690",
  "address": "경남 진주시 평거동 770-12번지 세븐일레븐 내",
  "latitude": "35.173534",
  "longitude": "128.06485"
},
{
  "number": "11",
  "storeName": "대도레코드사",
  "phoneNumber": "055-745-5522",
  "address": "경남 진주시 신안동 448-4번지",
  "latitude": "35.182484",
  "longitude": "128.06752"
},
{
  "number": "12",
  "storeName": "로또장",
  "phoneNumber": "055-748-1845",
  "address": "경남 진주시 상봉동 806-38번지",
  "latitude": "35.19799",
  "longitude": "128.0693"
},
{
  "number": "13",
  "storeName": "썬마트 복권방",
  "phoneNumber": "055-745-0885",
  "address": "경남 진주시 신안동 11-74 1층",
  "latitude": "35.187695",
  "longitude": "128.07002"
},
{
  "number": "14",
  "storeName": "늘봄편의점",
  "phoneNumber": "055-753-6682",
  "address": "경남 진주시 상평동 221-15번지",
  "latitude": "35.17619",
  "longitude": "128.10747"
},
{
  "number": "15",
  "storeName": "노마진말티고개점",
  "phoneNumber": "055-754-7672",
  "address": "경남 진주시 하대동 281 1층",
  "latitude": "35.19612",
  "longitude": "128.11539"
},
{
  "number": "16",
  "storeName": "나라복권",
  "phoneNumber": "055-762-8242",
  "address": "경남 진주시 호탄동 961-31번지 CU편의점 내",
  "latitude": "35.163597",
  "longitude": "128.11125"
},
{
  "number": "17",
  "storeName": "한아름로또마트",
  "phoneNumber": "",
  "address": "경남 진주시 상대동 302-119 1층",
  "latitude": "35.178783",
  "longitude": "128.11241"
},
{
  "number": "18",
  "storeName": "삼삼마트",
  "phoneNumber": "055-742-5632",
  "address": "경남 진주시 봉곡동 27-3번지",
  "latitude": "35.195145",
  "longitude": "128.07567"
},
{
  "number": "19",
  "storeName": "비디오 채널4",
  "phoneNumber": "055-759-3152",
  "address": "경남 진주시 상대동 310-12번지",
  "latitude": "35.179596",
  "longitude": "128.11528"
},
{
  "number": "20",
  "storeName": "새롬정보통신",
  "phoneNumber": "055-920-4648",
  "address": "경남 진주시 충무공동 279-4 SH타워 1층",
  "latitude": "35.17682",
  "longitude": "128.14856"
},
{
  "number": "21",
  "storeName": "금돼지",
  "phoneNumber": "055-761-7610",
  "address": "경남 진주시 충무공동 322-7 더원프라자 1층",
  "latitude": "35.171036",
  "longitude": "128.1474"
},
{
  "number": "22",
  "storeName": "GS25(진주상평드림점)",
  "phoneNumber": "055-761-9214",
  "address": "경남 진주시 상평동 196-80 1층 GS편의점 내",
  "latitude": "35.175686",
  "longitude": "128.1152"
},
{
  "number": "23",
  "storeName": "GS25(진주터미널점)",
  "phoneNumber": "055-747-6686",
  "address": "경남 진주시 장대동 95-9 GS편의점 내",
  "latitude": "35.19174",
  "longitude": "128.08904"
},
{
  "number": "24",
  "storeName": "GS25(진주산업대점)",
  "phoneNumber": "055-763-0525",
  "address": "경남 진주시 칠암동 492-1번지",
  "latitude": "35.178795",
  "longitude": "128.09511"
},
{
  "number": "25",
  "storeName": "진양호",
  "phoneNumber": "",
  "address": "경남 진주시 평거동 660-28 1층",
  "latitude": "35.163013",
  "longitude": "128.03961"
},
{
  "number": "26",
  "storeName": "세븐마트",
  "phoneNumber": "055-756-4313",
  "address": "경남 진주시 가좌동 817-13번지",
  "latitude": "35.160416",
  "longitude": "128.1057"
},
{
  "number": "27",
  "storeName": "명당편의점",
  "phoneNumber": "055-741-0549",
  "address": "경남 진주시 이현동 13-54 1층",
  "latitude": "35.192074",
  "longitude": "128.06313"
},
{
  "number": "28",
  "storeName": "나눔로또",
  "phoneNumber": "055-761-9174",
  "address": "경남 진주시 문산읍 삼곡리 1284-10번지",
  "latitude": "35.16692",
  "longitude": "128.16321"
},
{
  "number": "29",
  "storeName": "천하명당복권방",
  "phoneNumber": "055-747-3852",
  "address": "경남 진주시 장대동 130-8번지",
  "latitude": "35.193733",
  "longitude": "128.087"
},
{
  "number": "30",
  "storeName": "행복마트복권",
  "phoneNumber": "055-758-7769",
  "address": "경남 진주시 충무공동 217-2 상가 102호",
  "latitude": "35.181965",
  "longitude": "128.15184"
},
{
  "number": "31",
  "storeName": "올림 복권",
  "phoneNumber": "055-761-5946",
  "address": "경남 진주시 정촌면 예하리 1269-4 1층 식당내",
  "latitude": "35.13344",
  "longitude": "128.0988"
},
{
  "number": "32",
  "storeName": "훼미리복권방",
  "phoneNumber": "055-748-3464",
  "address": "경남 진주시 대안동 20-1번지",
  "latitude": "35.193295",
  "longitude": "128.08328"
},
{
  "number": "33",
  "storeName": "현대로또",
  "phoneNumber": "055-763-1603",
  "address": "경남 진주시 상평동 197-47번지 CU편의점 내",
  "latitude": "35.177715",
  "longitude": "128.11734"
},
{
  "number": "34",
  "storeName": "억조복권",
  "phoneNumber": "055-920-1929",
  "address": "경남 진주시 봉곡동 15-5 1층",
  "latitude": "35.19484",
  "longitude": "128.07713"
},
{
  "number": "35",
  "storeName": "흥부네로또복권",
  "phoneNumber": "055-761-7511",
  "address": "경남 진주시 상대동 193-12번지 1층101호 CU편의점내",
  "latitude": "35.18691",
  "longitude": "128.11674"
},
{
  "number": "36",
  "storeName": "다음정보텔레콤",
  "phoneNumber": "055-747-9877",
  "address": "경남 진주시 평거동 200-1 1층 2호",
  "latitude": "35.173115",
  "longitude": "128.06181"
},
{
  "number": "37",
  "storeName": "드림복권",
  "phoneNumber": "055-762-3357",
  "address": "경남 진주시 초전동 803-3번지 CU편의점 내",
  "latitude": "35.201435",
  "longitude": "128.11472"
},
{
  "number": "38",
  "storeName": "인정상회",
  "phoneNumber": "055-758-6694",
  "address": "경남 진주시 칠암동 511-16 1층",
  "latitude": "35.181507",
  "longitude": "128.09006"
},
{
  "number": "39",
  "storeName": "로또",
  "phoneNumber": "055-746-6847",
  "address": "경남 진주시 평거동 773-18 1층",
  "latitude": "35.172928",
  "longitude": "128.06572"
},
{
  "number": "40",
  "storeName": "CU(진주동문점)",
  "phoneNumber": "055-757-3650",
  "address": "경남 진주시 강남동 127 1층 CU편의점 내",
  "latitude": "35.185192",
  "longitude": "128.08572"
},
{
  "number": "41",
  "storeName": "J마트",
  "phoneNumber": "055-758-2261",
  "address": "경남 진주시 상대동 245-35번지",
  "latitude": "35.182396",
  "longitude": "128.11334"
},
{
  "number": "42",
  "storeName": "대성대박",
  "phoneNumber": "070-8988-2009",
  "address": "경남 진주시 평거동 732-3번지 나눔로또 내",
  "latitude": "35.16803",
  "longitude": "128.0528"
},
{
  "number": "43",
  "storeName": "화수분복권",
  "phoneNumber": "055-761-3373",
  "address": "경남 진주시 정촌면 예하리 1302-8 cu편의점 내",
  "latitude": "35.12827",
  "longitude": "128.10521"
},
{
  "number": "44",
  "storeName": "건강약속",
  "phoneNumber": "055-747-7401",
  "address": "경남 진주시 본성동 2-2번지",
  "latitude": "35.192177",
  "longitude": "128.08197"
},
{
  "number": "45",
  "storeName": "금산로또",
  "phoneNumber": "055-761-5738",
  "address": "경남 진주시 금산면 중천리 331-7 1층",
  "latitude": "35.213932",
  "longitude": "128.14032"
}
]