[
{
  "number": "1",
  "storeName": "일공공일복권방",
  "phoneNumber": "032-583-1001",
  "address": "인천 서구 석남동 479-11번지",
  "latitude": "37.510662",
  "longitude": "126.67234"
},
{
  "number": "2",
  "storeName": "유승마트",
  "phoneNumber": "032-568-0886",
  "address": "인천 서구 연희동 682-17번지",
  "latitude": "37.55053",
  "longitude": "126.67408"
},
{
  "number": "3",
  "storeName": "복권나라(가좌사)",
  "phoneNumber": "032-578-1515",
  "address": "인천 서구 가좌동 129-55번지",
  "latitude": "37.49363",
  "longitude": "126.68061"
},
{
  "number": "4",
  "storeName": "복권나라",
  "phoneNumber": "032-575-5550",
  "address": "인천 서구 석남동 586-2번지",
  "latitude": "37.50304",
  "longitude": "126.67061"
},
{
  "number": "5",
  "storeName": "신흥엑스포쇼핑",
  "phoneNumber": "032-583-8531",
  "address": "인천 서구 가좌동 192-86",
  "latitude": "37.497036",
  "longitude": "126.677086"
},
{
  "number": "6",
  "storeName": "나랑유통",
  "phoneNumber": "032-581-5799",
  "address": "인천 서구 가정동 510-17 대경무역2빌딩 102호",
  "latitude": "37.586346",
  "longitude": "126.70368"
},
{
  "number": "7",
  "storeName": "L마트",
  "phoneNumber": "032-577-3679",
  "address": "인천 서구 검암동 524-3 아카데미프라자107호",
  "latitude": "37.56542",
  "longitude": "126.67834"
},
{
  "number": "8",
  "storeName": "현희상점",
  "phoneNumber": "032-575-9829",
  "address": "인천 서구 석남동 538-22",
  "latitude": "37.50579",
  "longitude": "126.672035"
},
{
  "number": "9",
  "storeName": "운수대통복권방",
  "phoneNumber": "",
  "address": "인천 서구 석남동 512-6번지",
  "latitude": "37.509487",
  "longitude": "126.67225"
},
{
  "number": "10",
  "storeName": "대박슈퍼",
  "phoneNumber": "032-573-2135",
  "address": "인천 서구 가좌동 147-2번지",
  "latitude": "37.495678",
  "longitude": "126.67125"
},
{
  "number": "11",
  "storeName": "주공부동산써브",
  "phoneNumber": "032-578-4488",
  "address": "인천 서구 가좌동 72-18번지 외1필지",
  "latitude": "37.49076",
  "longitude": "126.68475"
},
{
  "number": "12",
  "storeName": "불로로또",
  "phoneNumber": "032-566-5016",
  "address": "인천 서구 불로동 179번지 동부아파트상가 107호",
  "latitude": "37.61983",
  "longitude": "126.690994"
},
{
  "number": "13",
  "storeName": "포시즌마전점",
  "phoneNumber": "032-564-0662",
  "address": "인천 서구 마전동 1011-1 검단2지구37블록1롯트",
  "latitude": "37.594536",
  "longitude": "126.67349"
},
{
  "number": "14",
  "storeName": "종로복권",
  "phoneNumber": "032-564-2006",
  "address": "인천 서구 마전동 931-5번지",
  "latitude": "37.60371",
  "longitude": "126.66152"
},
{
  "number": "15",
  "storeName": "이수산업",
  "phoneNumber": "032-569-7789",
  "address": "인천 서구 연희동 762-4 호반베르디움상가1동106호 세븐일레븐내",
  "latitude": "37.53713",
  "longitude": "126.651825"
},
{
  "number": "16",
  "storeName": "노다지로또",
  "phoneNumber": "032-566-5398",
  "address": "인천 서구 왕길동 638-4 검단제이원빌딩108호",
  "latitude": "37.602222",
  "longitude": "126.656525"
},
{
  "number": "17",
  "storeName": "로또복권",
  "phoneNumber": "032-571-3209",
  "address": "인천 서구 신현동 141-8번지",
  "latitude": "37.51537",
  "longitude": "126.668495"
},
{
  "number": "18",
  "storeName": "로또복권방",
  "phoneNumber": "032-584-2230",
  "address": "인천 서구 신현동 283번지 1층102호",
  "latitude": "37.5173",
  "longitude": "126.67241"
},
{
  "number": "19",
  "storeName": "모닝로또",
  "phoneNumber": "032-565-6553",
  "address": "인천 서구 검암동 599-7번지 모닝아트내코너",
  "latitude": "37.56547",
  "longitude": "126.67443"
},
{
  "number": "20",
  "storeName": "로또복권",
  "phoneNumber": "070-7737-5128",
  "address": "인천 서구 연희동 799-7 1층 105호",
  "latitude": "37.533318",
  "longitude": "126.65199"
},
{
  "number": "21",
  "storeName": "대박복권방",
  "phoneNumber": "032-563-0219",
  "address": "인천 서구 심곡동 239-1번지",
  "latitude": "37.547096",
  "longitude": "126.67661"
},
{
  "number": "22",
  "storeName": "로또(복권방)",
  "phoneNumber": "032-571-4060",
  "address": "인천 서구 석남동 450-28번지",
  "latitude": "37.513233",
  "longitude": "126.67086"
},
{
  "number": "23",
  "storeName": "대박나라복권방",
  "phoneNumber": "032-572-0136",
  "address": "인천 서구 가좌동 144-34번지",
  "latitude": "37.495388",
  "longitude": "126.67178"
},
{
  "number": "24",
  "storeName": "복권나라",
  "phoneNumber": "032-566-8411",
  "address": "인천 서구 마전동 1029-5 검단2지구59블럭검단1차피오레아파트상가B동제비107호",
  "latitude": "37.604595",
  "longitude": "126.66772"
},
{
  "number": "25",
  "storeName": "희망복권",
  "phoneNumber": "",
  "address": "인천 서구 가좌동 118번지 삼성홈플러스가좌점1층",
  "latitude": "37.497566",
  "longitude": "126.67069"
},
{
  "number": "26",
  "storeName": "25시 스토리",
  "phoneNumber": "",
  "address": "인천 서구 가정동 525-1번지 거북프라자 104호",
  "latitude": "37.513645",
  "longitude": "126.67296"
},
{
  "number": "27",
  "storeName": "CU(서구가정점)",
  "phoneNumber": "032-569-7460",
  "address": "인천 서구 경서동 733-14",
  "latitude": "37.513443",
  "longitude": "126.67501"
},
{
  "number": "28",
  "storeName": "로또카페",
  "phoneNumber": "032-511-8700",
  "address": "인천 서구 공촌동 302번지",
  "latitude": "37.55224",
  "longitude": "126.68367"
},
{
  "number": "29",
  "storeName": "로또복권방",
  "phoneNumber": "",
  "address": "인천 서구 가좌동 45-1",
  "latitude": "37.49229",
  "longitude": "126.6866"
},
{
  "number": "30",
  "storeName": "검단 신명로또",
  "phoneNumber": "032-565-7808",
  "address": "인천 서구 왕길동 634-1번지 신명스카이뷰 상가 106호",
  "latitude": "37.601807",
  "longitude": "126.65314"
},
{
  "number": "31",
  "storeName": "탑플러스",
  "phoneNumber": "032-565-2523",
  "address": "인천 서구 당하동 1079-3번지 103호",
  "latitude": "37.592213",
  "longitude": "126.67129"
},
{
  "number": "32",
  "storeName": "청라에스케이뷰로또판매점",
  "phoneNumber": "032-566-3970",
  "address": "인천 서구 청라동 105-86 103-2호",
  "latitude": "37.55067",
  "longitude": "126.562904"
},
{
  "number": "33",
  "storeName": "마이마트",
  "phoneNumber": "032-561-3433",
  "address": "인천 서구 심곡동 302번지 한국상가제1층101호",
  "latitude": "37.543106",
  "longitude": "126.67826"
},
{
  "number": "34",
  "storeName": "삼정텔레콤",
  "phoneNumber": "032-564-2019",
  "address": "인천 서구 마전동 911-6번지",
  "latitude": "37.60263",
  "longitude": "126.658325"
},
{
  "number": "35",
  "storeName": "하나복권",
  "phoneNumber": "032-564-6450",
  "address": "인천 서구 가정1동 607-6",
  "latitude": "37.529446",
  "longitude": "126.6657"
},
{
  "number": "36",
  "storeName": "행운생활건강",
  "phoneNumber": "",
  "address": "인천 서구 가좌동 346-2",
  "latitude": "37.48614",
  "longitude": "126.686424"
},
{
  "number": "37",
  "storeName": "보금자리",
  "phoneNumber": "032-297-1472",
  "address": "인천 서구 백석동 211 5호",
  "latitude": "37.56629",
  "longitude": "126.68276"
},
{
  "number": "38",
  "storeName": "황금복권",
  "phoneNumber": "",
  "address": "인천 서구 석남동 588-7 한성마트",
  "latitude": "37.50114",
  "longitude": "126.6697"
},
{
  "number": "39",
  "storeName": "동호로또",
  "phoneNumber": "032-566-7555",
  "address": "인천 서구 마전동 348-4 103호 세븐일레븐 검단마전점",
  "latitude": "37.6091",
  "longitude": "126.668655"
},
{
  "number": "40",
  "storeName": "일등로또",
  "phoneNumber": "",
  "address": "인천 서구 경서동 958-1 제비동 제1층 107호 CU청라캐슬점",
  "latitude": "37.531273",
  "longitude": "126.6487"
},
{
  "number": "41",
  "storeName": "로또판매업",
  "phoneNumber": "",
  "address": "인천 서구 신현동 307-6",
  "latitude": "37.54594",
  "longitude": "126.67526"
},
{
  "number": "42",
  "storeName": "케어셀라",
  "phoneNumber": "",
  "address": "인천 서구 가좌동 189-20 1층2호",
  "latitude": "37.4963",
  "longitude": "126.67879"
},
{
  "number": "43",
  "storeName": "당하제일로또",
  "phoneNumber": "",
  "address": "인천 서구 당하동 1092-10 104호",
  "latitude": "37.59329",
  "longitude": "126.67643"
},
{
  "number": "44",
  "storeName": "로또판매",
  "phoneNumber": "032-208-4575",
  "address": "인천 서구 석남동 508-3 1층 부동산",
  "latitude": "37.50962",
  "longitude": "126.67421"
},
{
  "number": "45",
  "storeName": "서구연희로또",
  "phoneNumber": "032-563-7508",
  "address": "인천 서구 연희동 710-5번지 CU편의점내",
  "latitude": "37.549232",
  "longitude": "126.67732"
},
{
  "number": "46",
  "storeName": "희망복권판매점",
  "phoneNumber": "",
  "address": "인천 서구 오류동 1640-1 104호일부",
  "latitude": "37.594215",
  "longitude": "126.61232"
},
{
  "number": "47",
  "storeName": "베스트올원당",
  "phoneNumber": "",
  "address": "인천 서구 원당동 824-2 102호",
  "latitude": "37.49295",
  "longitude": "126.67844"
},
{
  "number": "48",
  "storeName": "하영",
  "phoneNumber": "032-568-2747",
  "address": "인천 서구 연희동 165-10 아파트 상가 102호",
  "latitude": "37.53054",
  "longitude": "126.65602"
},
{
  "number": "49",
  "storeName": "지에스25 가좌대로 점",
  "phoneNumber": "",
  "address": "인천 서구 불로대곡동 774-7",
  "latitude": "37.50819",
  "longitude": "126.67415"
},
{
  "number": "50",
  "storeName": "지에스25(GS25)원당조이빌",
  "phoneNumber": "032-565-3952",
  "address": "인천 서구 당하동 1033-3 101-1호",
  "latitude": "37.586346",
  "longitude": "126.70368"
},
{
  "number": "51",
  "storeName": "드림마트",
  "phoneNumber": "",
  "address": "인천 서구 마전동 979-3",
  "latitude": "37.60224",
  "longitude": "126.65865"
},
{
  "number": "52",
  "storeName": "제일복권",
  "phoneNumber": "",
  "address": "인천 서구 신현동 140-92",
  "latitude": "37.513775",
  "longitude": "126.66497"
},
{
  "number": "53",
  "storeName": "주인공",
  "phoneNumber": "",
  "address": "인천 서구 오류왕길동 674-2",
  "latitude": "37.59942",
  "longitude": "126.66255"
}
]