[
{
  "number": "1",
  "storeName": "스타복권",
  "phoneNumber": "",
  "address": "경기 양주시 산북동 333-13",
  "latitude": "37.80519",
  "longitude": "127.04518"
},
{
  "number": "2",
  "storeName": "흥부대박",
  "phoneNumber": "031-858-4916",
  "address": "경기 양주시 덕정동 172-4 101호",
  "latitude": "37.84143",
  "longitude": "127.066864"
},
{
  "number": "3",
  "storeName": "금성24시편의점",
  "phoneNumber": "031-858-0859",
  "address": "경기 양주시 덕정동 350-86",
  "latitude": "37.84407",
  "longitude": "127.062355"
},
{
  "number": "4",
  "storeName": "복권방",
  "phoneNumber": "031-836-5011",
  "address": "경기 양주시 광적면 가납리 742-11번지",
  "latitude": "37.82382",
  "longitude": "126.98497"
},
{
  "number": "5",
  "storeName": "백석상회",
  "phoneNumber": "031-874-6450",
  "address": "경기 양주시 백석읍 복지리 130-1번지",
  "latitude": "37.786953",
  "longitude": "126.99298"
},
{
  "number": "6",
  "storeName": "덕정리역전복권방",
  "phoneNumber": "031-866-3117",
  "address": "경기 양주시 덕정동 356-4번지",
  "latitude": "37.844807",
  "longitude": "127.06419"
},
{
  "number": "7",
  "storeName": "대박복권방",
  "phoneNumber": "031-855-8560",
  "address": "경기 양주시 광적면 가납리 728-8",
  "latitude": "37.822556",
  "longitude": "126.986534"
},
{
  "number": "8",
  "storeName": "일등복권",
  "phoneNumber": "",
  "address": "경기 양주시 삼숭동 672-5번지",
  "latitude": "37.804474",
  "longitude": "127.08519"
},
{
  "number": "9",
  "storeName": "한샘행운복권방",
  "phoneNumber": "031-836-3572",
  "address": "경기 양주시 광적면 가납리 732-7번지",
  "latitude": "37.82311",
  "longitude": "126.98549"
},
{
  "number": "10",
  "storeName": "행복상회",
  "phoneNumber": "",
  "address": "경기 양주시 삼숭동 271-1번지 108호",
  "latitude": "37.79773",
  "longitude": "127.1017"
},
{
  "number": "11",
  "storeName": "희망로또",
  "phoneNumber": "031-858-0405",
  "address": "경기 양주시 고암동 585-3",
  "latitude": "37.832386",
  "longitude": "127.07405"
},
{
  "number": "12",
  "storeName": "세븐일레븐 양주고암점",
  "phoneNumber": "",
  "address": "경기 양주시 고암동 126-7",
  "latitude": "37.83164",
  "longitude": "127.06723"
},
{
  "number": "13",
  "storeName": "송추장흥로또",
  "phoneNumber": "031-877-1900",
  "address": "경기 양주시 장흥면 교현리 114-7",
  "latitude": "37.714695",
  "longitude": "126.96892"
},
{
  "number": "14",
  "storeName": "복권사랑",
  "phoneNumber": "031-861-8775",
  "address": "경기 양주시 덕계동 462-2번지",
  "latitude": "37.819435",
  "longitude": "127.047134"
},
{
  "number": "15",
  "storeName": "보물섬",
  "phoneNumber": "031-866-3721",
  "address": "경기 양주시 광사동 232-3 105호",
  "latitude": "37.794968",
  "longitude": "127.07495"
},
{
  "number": "16",
  "storeName": "전통로또복권방",
  "phoneNumber": "",
  "address": "경기 양주시 회정동 127-3",
  "latitude": "37.838436",
  "longitude": "127.05511"
},
{
  "number": "17",
  "storeName": "행운편의점 럭키세븐(Lucky7)",
  "phoneNumber": "031-841-4949",
  "address": "경기 양주시 백석읍 방성리 80-15",
  "latitude": "37.805897",
  "longitude": "126.9997"
},
{
  "number": "18",
  "storeName": "금도끼 은도끼",
  "phoneNumber": "",
  "address": "경기 양주시 광사동 374번지",
  "latitude": "37.788242",
  "longitude": "127.0704"
},
{
  "number": "19",
  "storeName": "중고폰브라더스(로또토토)",
  "phoneNumber": "",
  "address": "경기 양주시 광사동 673-9",
  "latitude": "37.791546",
  "longitude": "127.079834"
},
{
  "number": "20",
  "storeName": "복덩이로또",
  "phoneNumber": "",
  "address": "경기 양주시 남면 신산리 285-185",
  "latitude": "37.8957",
  "longitude": "126.97431"
},
{
  "number": "21",
  "storeName": "백억로또 miss missy(미스미시)",
  "phoneNumber": "031-848-7779",
  "address": "경기 양주시 회천4동 965-4 1층 105호",
  "latitude": "37.820488",
  "longitude": "127.0935"
}
]
