[
{
  "number": "1",
  "storeName": "해수로또",
  "phoneNumber": "043-221-0479",
  "address": "충북 청주시 상당구 금천동 261-50번지",
  "latitude": "36.62703",
  "longitude": "127.499794"
},
{
  "number": "2",
  "storeName": "천금복권방",
  "phoneNumber": "043-222-0645",
  "address": "충북 청주시 상당구 영운동 55-1번지",
  "latitude": "36.62074",
  "longitude": "127.50799"
},
{
  "number": "3",
  "storeName": "대성복권전문점",
  "phoneNumber": "043-294-2555",
  "address": "충북 청주시 상당구 용암동 2555번지",
  "latitude": "36.61974",
  "longitude": "127.51208"
},
{
  "number": "4",
  "storeName": "대박명당",
  "phoneNumber": "043-291-4030",
  "address": "충북 청주시 상당구 용정동 611번지",
  "latitude": "36.621296",
  "longitude": "127.51189"
},
{
  "number": "5",
  "storeName": "복권명당",
  "phoneNumber": "043-256-4303",
  "address": "충북 청주시 상당구 북문로2가 96-17번지",
  "latitude": "36.639503",
  "longitude": "127.48887"
},
{
  "number": "6",
  "storeName": "대박마트",
  "phoneNumber": "043-293-1355",
  "address": "충북 청주시 상당구 용암동 2108번지 주공상가점포103",
  "latitude": "36.614487",
  "longitude": "127.509766"
},
{
  "number": "7",
  "storeName": "복권명당",
  "phoneNumber": "043-296-5542",
  "address": "충북 청주시 상당구 용암동 1433번지",
  "latitude": "36.61135",
  "longitude": "127.50162"
},
{
  "number": "8",
  "storeName": "행운복권방",
  "phoneNumber": "043-256-9010",
  "address": "충북 청주시 상당구 탑동 325-1번지",
  "latitude": "36.632233",
  "longitude": "127.493614"
},
{
  "number": "9",
  "storeName": "대웅복권",
  "phoneNumber": "043-253-8316",
  "address": "충북 청주시 상당구 북문로1가 17-4번지",
  "latitude": "36.63545",
  "longitude": "127.48993"
},
{
  "number": "10",
  "storeName": "방아다리24시",
  "phoneNumber": "043-256-6855",
  "address": "충북 청주시 상당구 수동 450-4번지",
  "latitude": "36.644924",
  "longitude": "127.4898"
},
{
  "number": "11",
  "storeName": "GS25(청주상당점)",
  "phoneNumber": "043-296-1704",
  "address": "충북 청주시 상당구 용암동 1655번지",
  "latitude": "36.60865",
  "longitude": "127.50429"
},
{
  "number": "12",
  "storeName": "복권나라",
  "phoneNumber": "043-250-5288",
  "address": "충북 청주시 상당구 남문로1가 137-2번지",
  "latitude": "36.629204",
  "longitude": "127.491035"
},
{
  "number": "13",
  "storeName": "로또복권",
  "phoneNumber": "043-233-6342",
  "address": "충북 청주시 상당구 탑동 60-11 103호",
  "latitude": "36.630726",
  "longitude": "127.50274"
},
{
  "number": "14",
  "storeName": "행운복권방",
  "phoneNumber": "043-255-0210",
  "address": "충북 청주시 상당구 영운동 123-5번지",
  "latitude": "36.61871",
  "longitude": "127.49802"
},
{
  "number": "15",
  "storeName": "성안로또",
  "phoneNumber": "",
  "address": "충북 청주시 상당구 용정동 928 CU편의점",
  "latitude": "36.62612",
  "longitude": "127.51599"
},
{
  "number": "16",
  "storeName": "GS25(남문로점)",
  "phoneNumber": "043-253-5778",
  "address": "충북 청주시 상당구 남문로2가 39-1번지",
  "latitude": "36.63223",
  "longitude": "127.48976"
},
{
  "number": "17",
  "storeName": "청풍명월",
  "phoneNumber": "043-288-9090",
  "address": "충북 청주시 상당구 용암동 2085 상가 107호 이마트24",
  "latitude": "36.609463",
  "longitude": "127.51008"
}
]