[
{
  "number": "1",
  "storeName": "GS25(공덕대우점)",
  "phoneNumber": "02-3276-8970",
  "address": "서울 마포구 신공덕동 167번지 대우매트로디오빌102-A",
  "latitude": "37.544594",
  "longitude": "126.9557"
},
{
  "number": "2",
  "storeName": "GS25(마포역점)",
  "phoneNumber": "02-704-0271",
  "address": "서울 마포구 용강동 51-8 1층",
  "latitude": "37.555923",
  "longitude": "126.945625"
},
{
  "number": "3",
  "storeName": "GS25(마포공덕점)",
  "phoneNumber": "02-701-2524",
  "address": "서울 마포구 공덕동 249-12번지",
  "latitude": "37.546597",
  "longitude": "126.953926"
},
{
  "number": "4",
  "storeName": "GS25(망원희망점)",
  "phoneNumber": "02-3143-2535",
  "address": "서울 마포구 망원동 406-16",
  "latitude": "37.554283",
  "longitude": "126.90228"
},
{
  "number": "5",
  "storeName": "세븐일레븐마포구청점",
  "phoneNumber": "02-306-6697",
  "address": "서울 마포구 성산동 591-1번지 대우이안1차 106호",
  "latitude": "37.56534",
  "longitude": "126.902084"
},
{
  "number": "6",
  "storeName": "세명복권",
  "phoneNumber": "02-392-3458",
  "address": "서울 마포구 서교동 453-3번지 1호",
  "latitude": "37.55792",
  "longitude": "126.91657"
},
{
  "number": "7",
  "storeName": "마포 스토리점 로또판매",
  "phoneNumber": "02-336-6697",
  "address": "서울 마포구 서교동 445-4",
  "latitude": "37.556053",
  "longitude": "126.92005"
},
{
  "number": "8",
  "storeName": "돼지슈퍼",
  "phoneNumber": "02-717-5946",
  "address": "서울 마포구 합정동 387-1",
  "latitude": "37.546707",
  "longitude": "126.93982"
},
{
  "number": "9",
  "storeName": "서교동가판점",
  "phoneNumber": "02-337-5065",
  "address": "서울 마포구 서교동 374-18번지",
  "latitude": "37.554016",
  "longitude": "126.91952"
},
{
  "number": "10",
  "storeName": "로또토토복권",
  "phoneNumber": "02-336-5457",
  "address": "서울 마포구 동교동 174-16",
  "latitude": "37.557884",
  "longitude": "126.928314"
},
{
  "number": "11",
  "storeName": "로또복권판매소",
  "phoneNumber": "02-702-7008",
  "address": "서울 마포구 도화동 37번지 진도빌딩앞",
  "latitude": "37.539936",
  "longitude": "126.94708"
},
{
  "number": "12",
  "storeName": "아현역3번출구앞가판점",
  "phoneNumber": "02-392-9580",
  "address": "서울 마포구 아현동 267-1 아현역3번출구앞",
  "latitude": "37.55706",
  "longitude": "126.956245"
},
{
  "number": "13",
  "storeName": "용꿈돼지꿈",
  "phoneNumber": "02-716-9033",
  "address": "서울 마포구 공덕동 255-23번지",
  "latitude": "37.544685",
  "longitude": "126.95219"
},
{
  "number": "14",
  "storeName": "신수복권방",
  "phoneNumber": "02-717-6261",
  "address": "서울 마포구 연남동 565-15",
  "latitude": "37.560352",
  "longitude": "126.92071"
},
{
  "number": "15",
  "storeName": "가판점",
  "phoneNumber": "02-713-6954",
  "address": "서울 마포구 대흥동 2-10",
  "latitude": "37.556362",
  "longitude": "126.9461"
},
{
  "number": "16",
  "storeName": "한영 (한솥도시락)",
  "phoneNumber": "02-332-1858",
  "address": "서울 마포구 성산동 278-23번지",
  "latitude": "37.562405",
  "longitude": "126.90519"
},
{
  "number": "17",
  "storeName": "대구상회",
  "phoneNumber": "02-715-0576",
  "address": "서울 마포구 용강동 6-1번지",
  "latitude": "37.54295",
  "longitude": "126.943756"
},
{
  "number": "18",
  "storeName": "명신사",
  "phoneNumber": "02-336-6846",
  "address": "서울 마포구 망원동 57-34번지",
  "latitude": "37.557228",
  "longitude": "126.90865"
},
{
  "number": "19",
  "storeName": "해와달",
  "phoneNumber": "02-719-7879",
  "address": "서울 마포구 신수동 339-3번지",
  "latitude": "37.5472",
  "longitude": "126.93409"
},
{
  "number": "20",
  "storeName": "인더라인25",
  "phoneNumber": "02-704-4462",
  "address": "서울 마포구 연남동 226-15",
  "latitude": "37.562477",
  "longitude": "126.9271"
},
{
  "number": "21",
  "storeName": "공덕알파",
  "phoneNumber": "02-702-3223",
  "address": "서울 마포구 신수동 105-2번지",
  "latitude": "37.539974",
  "longitude": "126.945465"
},
{
  "number": "22",
  "storeName": "나눔 중앙마트",
  "phoneNumber": "02-718-3394",
  "address": "서울 마포구 대흥동 202-13 1층 1호",
  "latitude": "37.555958",
  "longitude": "126.943"
},
{
  "number": "23",
  "storeName": "진성미니슈퍼",
  "phoneNumber": "02-374-7137",
  "address": "서울 마포구 성산동 595번지 성산임대상가104",
  "latitude": "37.564487",
  "longitude": "126.90104"
},
{
  "number": "24",
  "storeName": "세븐일레븐 서강대1호점",
  "phoneNumber": "02-712-4380",
  "address": "서울 마포구 노고산동 120-12",
  "latitude": "37.549133",
  "longitude": "126.93875"
},
{
  "number": "25",
  "storeName": "OK25",
  "phoneNumber": "02-376-8335",
  "address": "서울 마포구 중동 64-25",
  "latitude": "37.570095",
  "longitude": "126.90383"
},
{
  "number": "26",
  "storeName": "그랜드마트앞가판점",
  "phoneNumber": "02-334-3393",
  "address": "서울 마포구 노고산동 57-2번지",
  "latitude": "37.554874",
  "longitude": "126.93597"
},
{
  "number": "27",
  "storeName": "복권방",
  "phoneNumber": "02-701-0866",
  "address": "서울 마포구 염리동 154-10번지",
  "latitude": "37.5465",
  "longitude": "126.945465"
},
{
  "number": "28",
  "storeName": "복권천국방",
  "phoneNumber": "02-337-3259",
  "address": "서울 마포구 서교동 480-1번지 1층",
  "latitude": "37.55419",
  "longitude": "126.91237"
},
{
  "number": "29",
  "storeName": "복권백화점",
  "phoneNumber": "02-3142-6478",
  "address": "서울 마포구 망원동 474-2번지",
  "latitude": "37.561565",
  "longitude": "126.904755"
},
{
  "number": "30",
  "storeName": "로또판매서교점",
  "phoneNumber": "02-326-2473",
  "address": "서울 마포구 서교동 375-37번지",
  "latitude": "37.55423",
  "longitude": "126.91915"
},
{
  "number": "31",
  "storeName": "가판",
  "phoneNumber": "02-702-1737",
  "address": "서울 마포구 도화동 169-1번지 가든호텔정문옆가판",
  "latitude": "37.540535",
  "longitude": "126.94768"
},
{
  "number": "32",
  "storeName": "신촌역로또",
  "phoneNumber": "02-3272-2642",
  "address": "서울 마포구 노고산동 31-11번지 서울메트로신촌역지하가판",
  "latitude": "37.55467",
  "longitude": "126.9375"
},
{
  "number": "33",
  "storeName": "로또지물포",
  "phoneNumber": "02-338-7537",
  "address": "서울 마포구 망원동 476-18번지",
  "latitude": "37.560402",
  "longitude": "126.904076"
},
{
  "number": "34",
  "storeName": "상수로토",
  "phoneNumber": "02-334-3486",
  "address": "서울 마포구 상수동 331-11번지 안생약국내",
  "latitude": "37.54629",
  "longitude": "126.92314"
},
{
  "number": "35",
  "storeName": "대박나라",
  "phoneNumber": "02-714-0325",
  "address": "서울 마포구 망원동 486-1",
  "latitude": "37.544147",
  "longitude": "126.9537"
},
{
  "number": "36",
  "storeName": "장원사",
  "phoneNumber": "02-716-4804",
  "address": "서울 마포구 신수동 448-23번지",
  "latitude": "37.54446",
  "longitude": "126.93554"
},
{
  "number": "37",
  "storeName": "새한양슈퍼",
  "phoneNumber": "02-302-5709",
  "address": "서울 마포구 성산동 450번지 시영A아파트내대우상가106호",
  "latitude": "37.568905",
  "longitude": "126.90273"
},
{
  "number": "38",
  "storeName": "가로매점",
  "phoneNumber": "02-714-7863",
  "address": "서울 마포구 도화동 174-5",
  "latitude": "37.541306",
  "longitude": "126.94776"
},
{
  "number": "39",
  "storeName": "GS25(마포도화점)",
  "phoneNumber": "02-3272-2225",
  "address": "서울 마포구 도화동 344번지",
  "latitude": "37.540325",
  "longitude": "126.948586"
},
{
  "number": "40",
  "storeName": "금광복권방",
  "phoneNumber": "",
  "address": "서울 마포구 중동 238 1층",
  "latitude": "37.56913",
  "longitude": "126.91108"
}
]