[
{
  "number": "1",
  "storeName": "금능마트",
  "phoneNumber": "043-843-9790",
  "address": "충북 충주시 연수동 700-8번지 금능마트",
  "latitude": "36.992493",
  "longitude": "127.931145"
},
{
  "number": "2",
  "storeName": "찬스복권방",
  "phoneNumber": "043-852-5992",
  "address": "충북 충주시 교현동 346-27번지",
  "latitude": "36.973827",
  "longitude": "127.93462"
},
{
  "number": "3",
  "storeName": "만사형통복권방",
  "phoneNumber": "043-847-9007",
  "address": "충북 충주시 안림동 1104-6 1층",
  "latitude": "36.984528",
  "longitude": "127.93976"
},
{
  "number": "4",
  "storeName": "가야로또복권방",
  "phoneNumber": "043-844-5630",
  "address": "충북 충주시 용두동 168-2번지 CU용두점내",
  "latitude": "36.962296",
  "longitude": "127.88205"
},
{
  "number": "5",
  "storeName": "충주복권명당",
  "phoneNumber": "043-846-8810",
  "address": "충북 충주시 호암동 553",
  "latitude": "36.961002",
  "longitude": "127.92912"
},
{
  "number": "6",
  "storeName": "행운을주는사람들",
  "phoneNumber": "043-847-3377",
  "address": "충북 충주시 연수동 923번지 1층 복권방",
  "latitude": "36.98763",
  "longitude": "127.93162"
},
{
  "number": "7",
  "storeName": "씨티하이퍼로또",
  "phoneNumber": "043-854-1020",
  "address": "충북 충주시 용산동 335-4번지 씨티상가내씨티하이퍼마켓",
  "latitude": "36.965008",
  "longitude": "127.937294"
},
{
  "number": "8",
  "storeName": "로또천국",
  "phoneNumber": "043-843-7534",
  "address": "충북 충주시 칠금동 849번지 충주공영버스터미널1층 터미널매점",
  "latitude": "36.982307",
  "longitude": "127.914474"
},
{
  "number": "9",
  "storeName": "행운예감",
  "phoneNumber": "043-848-6007",
  "address": "충북 충주시 지현동 326번지 도깨비만두 내",
  "latitude": "36.969837",
  "longitude": "127.93023"
},
{
  "number": "10",
  "storeName": "복권마을",
  "phoneNumber": "043-848-4345",
  "address": "충북 충주시 봉방동 57-1번지",
  "latitude": "36.976856",
  "longitude": "127.9212"
},
{
  "number": "11",
  "storeName": "썬마트(충주연안점)",
  "phoneNumber": "043-852-5645",
  "address": "충북 충주시 연수동 716-1번지",
  "latitude": "36.98877",
  "longitude": "127.931114"
},
{
  "number": "12",
  "storeName": "소영슈퍼",
  "phoneNumber": "043-842-5357",
  "address": "충북 충주시 교현동 518 교현아파트상가6",
  "latitude": "36.98099",
  "longitude": "127.93298"
},
{
  "number": "13",
  "storeName": "삼성슈퍼",
  "phoneNumber": "043-842-4783",
  "address": "충북 충주시 연수동 1219 삼성푸른아파트상가108호",
  "latitude": "36.98647",
  "longitude": "127.92736"
},
{
  "number": "14",
  "storeName": "나래복권",
  "phoneNumber": "043-853-3659",
  "address": "충북 충주시 목행동 673-6 1층",
  "latitude": "37.01169",
  "longitude": "127.84726"
},
{
  "number": "15",
  "storeName": "남운유통",
  "phoneNumber": "043-855-7739",
  "address": "충북 충주시 봉방동 343-8 1층",
  "latitude": "36.973675",
  "longitude": "127.91415"
},
{
  "number": "16",
  "storeName": "심마니대박복권방",
  "phoneNumber": "043-855-2110",
  "address": "충북 충주시 교현동 615-1",
  "latitude": "36.977444",
  "longitude": "127.92788"
},
{
  "number": "17",
  "storeName": "복권나라",
  "phoneNumber": "043-848-2030",
  "address": "충북 충주시 연수동 1146번지",
  "latitude": "36.982967",
  "longitude": "127.928535"
},
{
  "number": "18",
  "storeName": "남한강복권",
  "phoneNumber": "043-853-3808",
  "address": "충북 충주시 목행동 600-9번지 남한강낚시",
  "latitude": "37.014137",
  "longitude": "127.91693"
},
{
  "number": "19",
  "storeName": "대박복권판매점",
  "phoneNumber": "043-854-2635",
  "address": "충북 충주시 문화동 730번지",
  "latitude": "36.9737",
  "longitude": "127.92693"
},
{
  "number": "20",
  "storeName": "탄금대박로또복권",
  "phoneNumber": "043-854-9008",
  "address": "충북 충주시 칠금동 304-1 1층",
  "latitude": "36.98529",
  "longitude": "127.89671"
},
{
  "number": "21",
  "storeName": "복드림로또판매점",
  "phoneNumber": "043-857-7432",
  "address": "충북 충주시 대소원면 완오리 1121 1충",
  "latitude": "36.98077",
  "longitude": "127.92281"
},
{
  "number": "22",
  "storeName": "대소원로또",
  "phoneNumber": "043-851-9534",
  "address": "충북 충주시 대소원면 대소리 53-3번지 휴게소내 컨테이너",
  "latitude": "36.977818",
  "longitude": "127.81796"
},
{
  "number": "23",
  "storeName": "로또마당",
  "phoneNumber": "",
  "address": "충북 충주시 목행동 33-12 1층 세븐일레븐",
  "latitude": "37.008636",
  "longitude": "127.940506"
},
{
  "number": "24",
  "storeName": "하이웨이복권",
  "phoneNumber": "070-8721-8096",
  "address": "충북 충주시 연수동 1383번지 가동 102호",
  "latitude": "36.986755",
  "longitude": "127.93788"
},
{
  "number": "25",
  "storeName": "시민슈퍼",
  "phoneNumber": "043-847-4838",
  "address": "충북 충주시 문화동 889번지",
  "latitude": "36.972733",
  "longitude": "127.92738"
},
{
  "number": "26",
  "storeName": "사오정복권방",
  "phoneNumber": "043-842-5549",
  "address": "충북 충주시 안림동 1116-22번지 CU편의점 내",
  "latitude": "36.96895",
  "longitude": "127.944725"
},
{
  "number": "27",
  "storeName": "부영상회",
  "phoneNumber": "043-845-3374",
  "address": "충북 충주시 칠금동 869번지",
  "latitude": "36.98202",
  "longitude": "127.91797"
},
{
  "number": "28",
  "storeName": "로또행운점",
  "phoneNumber": "043-846-7658",
  "address": "충북 충주시 연수동 1487 1층",
  "latitude": "36.970245",
  "longitude": "127.94492"
},
{
  "number": "29",
  "storeName": "나눔로또",
  "phoneNumber": "",
  "address": "충북 충주시 교현동 465-14 1층 세븐일레븐",
  "latitude": "36.977417",
  "longitude": "127.94046"
},
{
  "number": "30",
  "storeName": "위드미 충주교현점",
  "phoneNumber": "",
  "address": "충북 충주시 용산동 1951 101호",
  "latitude": "36.977654",
  "longitude": "127.93567"
}
]