[
{
  "number": "1",
  "storeName": "네거리로또명당",
  "phoneNumber": "061-762-5360",
  "address": "전남 광양시 광양읍 목성리 921",
  "latitude": "34.975307",
  "longitude": "127.58913"
},
{
  "number": "2",
  "storeName": "로또나라",
  "phoneNumber": "061-793-9994",
  "address": "전남 광양시 중동 1296-11번지 1층",
  "latitude": "34.941494",
  "longitude": "127.69835"
},
{
  "number": "3",
  "storeName": "광양복권전문점",
  "phoneNumber": "061-762-7263",
  "address": "전남 광양시 광양읍 세풍리 413번지 광양공영터미널내 가판",
  "latitude": "34.969795",
  "longitude": "127.59081"
},
{
  "number": "4",
  "storeName": "동광할인마트내한국복권",
  "phoneNumber": "061-792-7227",
  "address": "전남 광양시 광영동 733-1번지",
  "latitude": "34.96141",
  "longitude": "127.72745"
},
{
  "number": "5",
  "storeName": "도소매복권방",
  "phoneNumber": "061-793-5111",
  "address": "전남 광양시 광영동 759-4번지",
  "latitude": "34.965664",
  "longitude": "127.71707"
},
{
  "number": "6",
  "storeName": "세븐일레븐광양시청점",
  "phoneNumber": "061-791-3411",
  "address": "전남 광양시 중동 1317-4번지 세븐일레븐편의점 내",
  "latitude": "34.941437",
  "longitude": "127.69665"
},
{
  "number": "7",
  "storeName": "나나(편의점)",
  "phoneNumber": "061-791-0032",
  "address": "전남 광양시 광영동 784-17번지",
  "latitude": "34.962833",
  "longitude": "127.71871"
},
{
  "number": "8",
  "storeName": "행운복권나라",
  "phoneNumber": "061-763-7541",
  "address": "전남 광양시 광양읍 덕례리 1726-5",
  "latitude": "34.96476",
  "longitude": "127.57816"
},
{
  "number": "9",
  "storeName": "성호로또",
  "phoneNumber": "",
  "address": "전남 광양시 광양읍 덕례리 1758-2 1층",
  "latitude": "34.968143",
  "longitude": "127.5671"
},
{
  "number": "10",
  "storeName": "중마로또",
  "phoneNumber": "061-791-0278",
  "address": "전남 광양시 중동 1415-7 커피집 내",
  "latitude": "34.94391",
  "longitude": "127.68891"
},
{
  "number": "11",
  "storeName": "도깨비복권",
  "phoneNumber": "061-792-5021",
  "address": "전남 광양시 태인동 303-6 GS편의점내",
  "latitude": "34.934666",
  "longitude": "127.74669"
},
{
  "number": "12",
  "storeName": "제철로또대리점",
  "phoneNumber": "061-795-5500",
  "address": "전남 광양시 중동 1674번지 시티프라자A동116호",
  "latitude": "34.93542",
  "longitude": "127.694275"
},
{
  "number": "13",
  "storeName": "광양복권나라(로터리)",
  "phoneNumber": "061-762-8510",
  "address": "전남 광양시 광양읍 목성리 690-14번지",
  "latitude": "34.971287",
  "longitude": "127.5898"
},
{
  "number": "14",
  "storeName": "TOTO복권",
  "phoneNumber": "061-763-8811",
  "address": "전남 광양시 광양읍 덕례리 897-1번지",
  "latitude": "34.979206",
  "longitude": "127.58432"
},
{
  "number": "15",
  "storeName": "복권판매점",
  "phoneNumber": "061-761-6516",
  "address": "전남 광양시 광양읍 용강리 529-1번지",
  "latitude": "34.9727",
  "longitude": "127.60843"
},
{
  "number": "16",
  "storeName": "로또복권방",
  "phoneNumber": "061-795-1634",
  "address": "전남 광양시 태인동 125-33번지 CU편의점내",
  "latitude": "34.943165",
  "longitude": "127.758156"
},
{
  "number": "17",
  "storeName": "북부상회",
  "phoneNumber": "061-763-2413",
  "address": "전남 광양시 광양읍 칠성리 901-2",
  "latitude": "34.979286",
  "longitude": "127.58307"
},
{
  "number": "18",
  "storeName": "나눔로또편의점",
  "phoneNumber": "061-795-3364",
  "address": "전남 광양시 중마동 1758-3",
  "latitude": "34.93566",
  "longitude": "127.6986"
},
{
  "number": "19",
  "storeName": "드림복권방",
  "phoneNumber": "",
  "address": "전남 광양시 광양읍 인서리 60 드림복권방",
  "latitude": "34.974495",
  "longitude": "127.58621"
},
{
  "number": "20",
  "storeName": "광양대박점",
  "phoneNumber": "061-794-5237",
  "address": "전남 광양시 중동 1255 GS편의점내",
  "latitude": "34.927982",
  "longitude": "127.687996"
}
]