[
{
  "number": "1",
  "storeName": "로또경산미래점",
  "phoneNumber": "053-802-3600",
  "address": "경북 경산시 사동 558 1층 OK부동산내",
  "latitude": "35.817074",
  "longitude": "128.75891"
},
{
  "number": "2",
  "storeName": "복돼지복권방",
  "phoneNumber": "053-818-9808",
  "address": "경북 경산시 압량면 부적리 482-17번지 1층 cu편의점 내",
  "latitude": "35.8415",
  "longitude": "128.75795"
},
{
  "number": "3",
  "storeName": "로또복권",
  "phoneNumber": "",
  "address": "경북 경산시 중방동 830-23",
  "latitude": "35.812233",
  "longitude": "128.75925"
},
{
  "number": "4",
  "storeName": "로또복권",
  "phoneNumber": "053-814-4603",
  "address": "경북 경산시 정평동 138-4 우방아파트상가",
  "latitude": "35.832664",
  "longitude": "128.72997"
},
{
  "number": "5",
  "storeName": "효원복권방",
  "phoneNumber": "053-811-1068",
  "address": "경북 경산시 진량읍 신상리 1199-2 1층 씨스페이스",
  "latitude": "35.870243",
  "longitude": "128.82817"
},
{
  "number": "6",
  "storeName": "대길통상",
  "phoneNumber": "053-857-0645",
  "address": "경북 경산시 진량읍 신상리 208-7번지",
  "latitude": "35.874172",
  "longitude": "128.81924"
},
{
  "number": "7",
  "storeName": "복권나라",
  "phoneNumber": "053-813-9695",
  "address": "경북 경산시 삼남동 132-4번지",
  "latitude": "35.814667",
  "longitude": "128.73865"
},
{
  "number": "8",
  "storeName": "복권천국",
  "phoneNumber": "053-816-4985",
  "address": "경북 경산시 중방동 883-39번지",
  "latitude": "35.823734",
  "longitude": "128.74017"
},
{
  "number": "9",
  "storeName": "역전로또",
  "phoneNumber": "",
  "address": "경북 경산시 사정동 20-8",
  "latitude": "35.819283",
  "longitude": "128.72838"
},
{
  "number": "10",
  "storeName": "하나유통",
  "phoneNumber": "053-856-6825",
  "address": "경북 경산시 진량읍 신상리 470-6번지",
  "latitude": "35.87173",
  "longitude": "128.81996"
},
{
  "number": "11",
  "storeName": "복권명당",
  "phoneNumber": "053-857-7010",
  "address": "경북 경산시 하양읍 금락리 19-4번지",
  "latitude": "35.913975",
  "longitude": "128.81902"
},
{
  "number": "12",
  "storeName": "부흥청과식품점",
  "phoneNumber": "053-853-2809",
  "address": "경북 경산시 하양읍 금락리 118번지 우방3차 상가",
  "latitude": "35.90938",
  "longitude": "128.8135"
},
{
  "number": "13",
  "storeName": "토권판매소",
  "phoneNumber": "053-815-6155",
  "address": "경북 경산시 정평동 255-137 토큰박스",
  "latitude": "35.834415",
  "longitude": "128.72963"
},
{
  "number": "14",
  "storeName": "토큰판매소",
  "phoneNumber": "053-814-5833",
  "address": "경북 경산시 중방동 538-14 토큰박스",
  "latitude": "35.822987",
  "longitude": "128.73532"
},
{
  "number": "15",
  "storeName": "토큰판매",
  "phoneNumber": "053-817-2184",
  "address": "경북 경산시 대동 168-1번지 토큰박스",
  "latitude": "35.837128",
  "longitude": "128.75375"
},
{
  "number": "16",
  "storeName": "진우복권명당",
  "phoneNumber": "053-815-6317",
  "address": "경북 경산시 옥곡동 815-6번지",
  "latitude": "35.81529",
  "longitude": "128.73119"
},
{
  "number": "17",
  "storeName": "경산상회",
  "phoneNumber": "053-813-9777",
  "address": "경북 경산시 삼북동 272-20번지",
  "latitude": "35.820515",
  "longitude": "128.73775"
},
{
  "number": "18",
  "storeName": "아참로또",
  "phoneNumber": "053-818-0827",
  "address": "경북 경산시 백천동 63-8번지",
  "latitude": "35.842983",
  "longitude": "128.76031"
},
{
  "number": "19",
  "storeName": "복권방",
  "phoneNumber": "053-854-0893",
  "address": "경북 경산시 자인면 남촌리 148-1번지",
  "latitude": "35.818817",
  "longitude": "128.82214"
},
{
  "number": "20",
  "storeName": "GS25(경산사동점)",
  "phoneNumber": "053-818-6534",
  "address": "경북 경산시 삼풍동 509-4",
  "latitude": "35.821278",
  "longitude": "128.7547"
},
{
  "number": "21",
  "storeName": "CU(진량대원점)",
  "phoneNumber": "053-853-8985",
  "address": "경북 경산시 진량읍 대원리 423",
  "latitude": "35.858273",
  "longitude": "128.82098"
},
{
  "number": "22",
  "storeName": "GS25(경산영대점)",
  "phoneNumber": "053-811-3118",
  "address": "경북 경산시 조영동 249-6번지",
  "latitude": "35.839146",
  "longitude": "128.75638"
},
{
  "number": "23",
  "storeName": "나누리로또",
  "phoneNumber": "",
  "address": "경북 경산시 옥산동 860-5 1층",
  "latitude": "35.82451",
  "longitude": "128.72433"
},
{
  "number": "24",
  "storeName": "로또복권삼주봉황",
  "phoneNumber": "053-854-5062",
  "address": "경북 경산시 진량읍 시문리 57번지",
  "latitude": "35.88435",
  "longitude": "128.82053"
},
{
  "number": "25",
  "storeName": "로또복권",
  "phoneNumber": "053-816-0078",
  "address": "경북 경산시 옥산동 864번지",
  "latitude": "35.82267",
  "longitude": "128.72235"
},
{
  "number": "26",
  "storeName": "로또대박",
  "phoneNumber": "053-816-1600",
  "address": "경북 경산시 진량읍 신상리 675-5 1층 CU편의잠내",
  "latitude": "35.876057",
  "longitude": "128.8194"
},
{
  "number": "27",
  "storeName": "레인보우",
  "phoneNumber": "053-801-5700",
  "address": "경북 경산시 정평동 184-5 101호",
  "latitude": "35.836613",
  "longitude": "128.72543"
},
{
  "number": "28",
  "storeName": "복권판매점",
  "phoneNumber": "053-853-0353",
  "address": "경북 경산시 하양읍 금락리 117-45번지",
  "latitude": "35.911133",
  "longitude": "128.81583"
},
{
  "number": "29",
  "storeName": "복권명당자인점",
  "phoneNumber": "053-857-3444",
  "address": "경북 경산시 자인면 동부리 148-7번지",
  "latitude": "35.816273",
  "longitude": "128.82492"
},
{
  "number": "30",
  "storeName": "GS25(경산정평점)",
  "phoneNumber": "053-812-9079",
  "address": "경북 경산시 정평동 246-29",
  "latitude": "35.830204",
  "longitude": "128.72986"
},
{
  "number": "31",
  "storeName": "CU(옥산사랑점)",
  "phoneNumber": "053-814-5264",
  "address": "경북 경산시 옥산동 742-7",
  "latitude": "35.826073",
  "longitude": "128.72739"
},
{
  "number": "32",
  "storeName": "복권명당",
  "phoneNumber": "053-815-1186",
  "address": "경북 경산시 중방동 848-9번지",
  "latitude": "35.82661",
  "longitude": "128.73682"
},
{
  "number": "33",
  "storeName": "복권방",
  "phoneNumber": "",
  "address": "경북 경산시 동부동 584-4 애플타워 1층 3호",
  "latitude": "35.815926",
  "longitude": "128.75783"
}
]