[
{
  "number": "1",
  "storeName": "나우리고현점",
  "phoneNumber": "055-637-1044",
  "address": "경남 거제시 고현동 961-160번지",
  "latitude": "34.888",
  "longitude": "128.62358"
},
{
  "number": "2",
  "storeName": "금강복권",
  "phoneNumber": "",
  "address": "경남 거제시 거제면 오수리 377-1",
  "latitude": "34.83556",
  "longitude": "128.59918"
},
{
  "number": "3",
  "storeName": "천하명당복권방",
  "phoneNumber": "055-687-7706",
  "address": "경남 거제시 옥포동 582번지",
  "latitude": "34.891674",
  "longitude": "128.69489"
},
{
  "number": "4",
  "storeName": "씨유고현점",
  "phoneNumber": "055-635-2138",
  "address": "경남 거제시 고현동 206",
  "latitude": "34.882774",
  "longitude": "128.62575"
},
{
  "number": "5",
  "storeName": "돈벼락맞는곳",
  "phoneNumber": "055-636-1178",
  "address": "경남 거제시 고현동 819-12 1층",
  "latitude": "34.888317",
  "longitude": "128.62215"
},
{
  "number": "6",
  "storeName": "강남25시편의점",
  "phoneNumber": "055-687-6536",
  "address": "경남 거제시 옥포동 550-17",
  "latitude": "34.8891",
  "longitude": "128.69197"
},
{
  "number": "7",
  "storeName": "CU(거제신정점)",
  "phoneNumber": "055-637-4067",
  "address": "경남 거제시 장평동 1195-3",
  "latitude": "34.89291",
  "longitude": "128.61444"
},
{
  "number": "8",
  "storeName": "대명",
  "phoneNumber": "055-688-4558",
  "address": "경남 거제시 옥포동 529-8번지 중앙시장 19호 대명텔레콤내",
  "latitude": "34.89375",
  "longitude": "128.69066"
},
{
  "number": "9",
  "storeName": "삼성슈퍼마켓",
  "phoneNumber": "055-636-0412",
  "address": "경남 거제시 고현동 1050번지 고려아파트상가1-1호",
  "latitude": "34.893974",
  "longitude": "128.63124"
},
{
  "number": "10",
  "storeName": "행운",
  "phoneNumber": "055-633-8078",
  "address": "경남 거제시 장평동 308-11번지",
  "latitude": "34.892258",
  "longitude": "128.60985"
},
{
  "number": "11",
  "storeName": "행운로또",
  "phoneNumber": "055-688-1312",
  "address": "경남 거제시 옥포동 1290-8번지 한양상가102호",
  "latitude": "34.8977",
  "longitude": "128.68828"
},
{
  "number": "12",
  "storeName": "이효민나눔로또",
  "phoneNumber": "055-681-7889",
  "address": "경남 거제시 능포동 376-6 1층",
  "latitude": "34.878044",
  "longitude": "128.73318"
},
{
  "number": "13",
  "storeName": "CU(거제해금강)",
  "phoneNumber": "055-637-8220",
  "address": "경남 거제시 고현동 997-5번지",
  "latitude": "34.894127",
  "longitude": "128.63022"
},
{
  "number": "14",
  "storeName": "CU(거제옥포점)",
  "phoneNumber": "055-688-4774",
  "address": "경남 거제시 옥포동 548-1번지",
  "latitude": "34.89106",
  "longitude": "128.69176"
},
{
  "number": "15",
  "storeName": "블루진 로또점",
  "phoneNumber": "055-637-2752",
  "address": "경남 거제시 고현동 98-5 102호",
  "latitude": "34.88579",
  "longitude": "128.62366"
},
{
  "number": "16",
  "storeName": "운수대통복권판매점",
  "phoneNumber": "055-635-5058",
  "address": "경남 거제시 능포동 727-2 102동 109호",
  "latitude": "34.887962",
  "longitude": "128.62486"
},
{
  "number": "17",
  "storeName": "옥포복권",
  "phoneNumber": "070-4134-0485",
  "address": "경남 거제시 옥포동 507-9 1층",
  "latitude": "34.8965",
  "longitude": "128.69496"
},
{
  "number": "18",
  "storeName": "신명",
  "phoneNumber": "055-635-0152",
  "address": "경남 거제시 장평동 143 상가동 102호 GS편의점내",
  "latitude": "34.887493",
  "longitude": "128.61012"
},
{
  "number": "19",
  "storeName": "코사할인마트",
  "phoneNumber": "055-636-4270",
  "address": "경남 거제시 연초면 죽토리 1104-12번지",
  "latitude": "34.914745",
  "longitude": "128.6556"
},
{
  "number": "20",
  "storeName": "모아편의점",
  "phoneNumber": "055-638-4068",
  "address": "경남 거제시 수월동 1120-40 CU편의점 內",
  "latitude": "34.892986",
  "longitude": "128.64117"
},
{
  "number": "21",
  "storeName": "나눔로또",
  "phoneNumber": "055-635-2208",
  "address": "경남 거제시 장평동 86-6 CU편의점 내",
  "latitude": "34.890102",
  "longitude": "128.60999"
},
{
  "number": "22",
  "storeName": "포시즌복권방",
  "phoneNumber": "",
  "address": "경남 거제시 수월동 1043 1층",
  "latitude": "34.895977",
  "longitude": "128.64291"
},
{
  "number": "23",
  "storeName": "탑로또",
  "phoneNumber": "",
  "address": "경남 거제시 상동동 979-1 서원탑훼밀리마트 내",
  "latitude": "34.878765",
  "longitude": "128.62796"
},
{
  "number": "24",
  "storeName": "나눔로또 능포점",
  "phoneNumber": "",
  "address": "경남 거제시 능포동 480-11",
  "latitude": "34.884693",
  "longitude": "128.737"
},
{
  "number": "25",
  "storeName": "복권판매점",
  "phoneNumber": "",
  "address": "경남 거제시 아주동 445-2 지하1층",
  "latitude": "34.87042",
  "longitude": "128.68442"
},
{
  "number": "26",
  "storeName": "로또7(LOTTO 7)",
  "phoneNumber": "",
  "address": "경남 거제시 장승포동 499-24 1층",
  "latitude": "34.868435",
  "longitude": "128.7265"
},
{
  "number": "27",
  "storeName": "초대박로또",
  "phoneNumber": "055-633-1253",
  "address": "경남 거제시 사등면 사곡리 918 103호 cu편의점 내",
  "latitude": "34.897083",
  "longitude": "128.5628"
},
{
  "number": "28",
  "storeName": "아주로또",
  "phoneNumber": "",
  "address": "경남 거제시 아주동 885 A동 103호",
  "latitude": "34.875732",
  "longitude": "128.69246"
},
{
  "number": "29",
  "storeName": "나눔로또 씨유거제뉴마전점",
  "phoneNumber": "055-681-4501",
  "address": "경남 거제시 장승포동 596-5 1층 CU편의점내",
  "latitude": "34.86024",
  "longitude": "128.72197"
},
{
  "number": "30",
  "storeName": "나눔로또 씨유거제사등대로점",
  "phoneNumber": "",
  "address": "경남 거제시 사등면 사등리 1954-2 CU편의점 내",
  "latitude": "34.910572",
  "longitude": "128.54366"
},
{
  "number": "31",
  "storeName": "동행 모바일",
  "phoneNumber": "055-636-0117",
  "address": "경남 거제시 장평동 56-1 1층 150호",
  "latitude": "34.89098",
  "longitude": "128.61288"
},
{
  "number": "32",
  "storeName": "성복로또판매점",
  "phoneNumber": "",
  "address": "경남 거제시 수양동 955-5 1동 1층 102호",
  "latitude": "34.891247",
  "longitude": "128.63603"
},
{
  "number": "33",
  "storeName": "황금돼지점",
  "phoneNumber": "055-638-4068",
  "address": "경남 거제시 수양동 1120-40 cu편의점",
  "latitude": "34.892986",
  "longitude": "128.64117"
}
]