[
{
  "number": "1",
  "storeName": "Goodday복권전문점",
  "phoneNumber": "055-276-2972",
  "address": "경남 창원시 성산구 반지동 82-16번지",
  "latitude": "35.239994",
  "longitude": "128.66164"
},
{
  "number": "2",
  "storeName": "상남슈퍼체인",
  "phoneNumber": "055-281-9288",
  "address": "경남 창원시 성산구 상남동 16 상남시장2층C-211호",
  "latitude": "35.22221",
  "longitude": "128.6834"
},
{
  "number": "3",
  "storeName": "만물할인슈퍼",
  "phoneNumber": "055-261-2576",
  "address": "경남 창원시 성산구 대방동 357번지 개나리1차상가107호",
  "latitude": "35.212383",
  "longitude": "128.70865"
},
{
  "number": "4",
  "storeName": "창성로또",
  "phoneNumber": "055-284-7222",
  "address": "경남 창원시 성산구 가음동 16 2단지상가 108호",
  "latitude": "35.208035",
  "longitude": "128.69879"
},
{
  "number": "5",
  "storeName": "현대나눔로또",
  "phoneNumber": "055-262-1119",
  "address": "경남 창원시 성산구 반림동 4-1번지 현대아파트상가1층104호",
  "latitude": "35.236153",
  "longitude": "128.67542"
},
{
  "number": "6",
  "storeName": "GS25 창원그랜드점",
  "phoneNumber": "055-261-7887",
  "address": "경남 창원시 성산구 남양동 20 성원1차상가120호",
  "latitude": "35.210793",
  "longitude": "128.70099"
},
{
  "number": "7",
  "storeName": "대우할인매장",
  "phoneNumber": "055-287-4636",
  "address": "경남 창원시 성산구 남산동 601-25번지 대운상가1층109",
  "latitude": "35.200825",
  "longitude": "128.69794"
},
{
  "number": "8",
  "storeName": "창원병원앞매표소",
  "phoneNumber": "055-266-2460",
  "address": "경남 창원시 성산구 중앙동 104-1번지 가판",
  "latitude": "35.218746",
  "longitude": "128.67244"
},
{
  "number": "9",
  "storeName": "경창상가매표소",
  "phoneNumber": "055-267-3962",
  "address": "경남 창원시 성산구 상남동 73-5번지 가판",
  "latitude": "35.21993",
  "longitude": "128.67963"
},
{
  "number": "10",
  "storeName": "부산식품",
  "phoneNumber": "055-286-9854",
  "address": "경남 창원시 성산구 상남동 16번지 상남시장1층E-104호",
  "latitude": "35.221466",
  "longitude": "128.68344"
},
{
  "number": "11",
  "storeName": "폭스일레븐(창원점)",
  "phoneNumber": "055-289-7677",
  "address": "경남 창원시 성산구 대방동 364-2번지 대양빌딩102호",
  "latitude": "35.20836",
  "longitude": "128.7081"
},
{
  "number": "12",
  "storeName": "천주산로또",
  "phoneNumber": "055-286-0365",
  "address": "경남 창원시 성산구 신촌동 15-12 DH더마트 내",
  "latitude": "35.208298",
  "longitude": "128.62646"
},
{
  "number": "13",
  "storeName": "은정슈퍼",
  "phoneNumber": "055-285-8340",
  "address": "경남 창원시 성산구 가음동 23-1 은정상가101호 GS편의점",
  "latitude": "35.207893",
  "longitude": "128.69461"
},
{
  "number": "14",
  "storeName": "대방상회",
  "phoneNumber": "055-266-2522",
  "address": "경남 창원시 성산구 대방동 344-9",
  "latitude": "35.21456",
  "longitude": "128.70937"
},
{
  "number": "15",
  "storeName": "천지창조",
  "phoneNumber": "055-263-4327",
  "address": "경남 창원시 성산구 사파동 123-13번지",
  "latitude": "35.22419",
  "longitude": "128.69864"
},
{
  "number": "16",
  "storeName": "GS25(창원서광점)",
  "phoneNumber": "055-283-3414",
  "address": "경남 창원시 성산구 중앙동 100-4번지 서광오피스텔111-1호111-2호",
  "latitude": "35.22015",
  "longitude": "128.67595"
},
{
  "number": "17",
  "storeName": "로또명당마트",
  "phoneNumber": "055-264-1785",
  "address": "경남 창원시 성산구 사파동 137-16번지",
  "latitude": "35.222942",
  "longitude": "128.6943"
},
{
  "number": "18",
  "storeName": "로또25시슈퍼",
  "phoneNumber": "055-285-7266",
  "address": "경남 창원시 성산구 상남동 92-1번지 1층104-1호",
  "latitude": "35.217037",
  "longitude": "128.68542"
},
{
  "number": "19",
  "storeName": "명당로또",
  "phoneNumber": "055-287-5509",
  "address": "경남 창원시 성산구 가음동 38-20번지",
  "latitude": "35.20658",
  "longitude": "128.70036"
},
{
  "number": "20",
  "storeName": "GS25(창원코아점)",
  "phoneNumber": "055-264-7841",
  "address": "경남 창원시 성산구 중앙동 84-1",
  "latitude": "35.22627",
  "longitude": "128.67802"
},
{
  "number": "21",
  "storeName": "홍익복권방",
  "phoneNumber": "055-602-0668",
  "address": "경남 창원시 성산구 상남동 81-3 지하층",
  "latitude": "35.218906",
  "longitude": "128.68423"
},
{
  "number": "22",
  "storeName": "왕도로또판매점",
  "phoneNumber": "070-4809-5572",
  "address": "경남 창원시 성산구 반지동 86-6",
  "latitude": "35.240734",
  "longitude": "128.66037"
},
{
  "number": "23",
  "storeName": "양곡복권방",
  "phoneNumber": "055-275-1230",
  "address": "경남 창원시 성산구 신촌동 34-2 양곡할인마트 내",
  "latitude": "35.20274",
  "longitude": "128.6281"
},
{
  "number": "24",
  "storeName": "우진슈퍼",
  "phoneNumber": "055-282-2452",
  "address": "경남 창원시 성산구 내동 456-17번지 내동상가4호",
  "latitude": "35.217117",
  "longitude": "128.67043"
},
{
  "number": "25",
  "storeName": "로또복권방",
  "phoneNumber": "070-7524-0883",
  "address": "경남 창원시 성산구 안민동 74번지 세평빌딩102호",
  "latitude": "35.186928",
  "longitude": "128.69157"
},
{
  "number": "26",
  "storeName": "톡로또복권",
  "phoneNumber": "070-5025-1882",
  "address": "경남 창원시 성산구 반송동 40-17 톡헤어",
  "latitude": "35.24222",
  "longitude": "128.66162"
},
{
  "number": "27",
  "storeName": "경성모바일",
  "phoneNumber": "055-222-5151",
  "address": "경남 창원시 성산구 사파동 355 성원3차아파트상가 1층 104호 경성모바일",
  "latitude": "35.214954",
  "longitude": "128.70525"
}
]