[
{
  "number": "1",
  "storeName": "나눔로또방",
  "phoneNumber": "043-644-6120",
  "address": "충북 제천시 명동 192-19 1층",
  "latitude": "37.13361",
  "longitude": "128.20448"
},
{
  "number": "2",
  "storeName": "선경로또",
  "phoneNumber": "043-642-2002",
  "address": "충북 제천시 하소동 188-1 1층",
  "latitude": "37.136105",
  "longitude": "128.19963"
},
{
  "number": "3",
  "storeName": "복권나라",
  "phoneNumber": "043-646-5708",
  "address": "충북 제천시 영천동 1474 1층",
  "latitude": "37.126495",
  "longitude": "128.20274"
},
{
  "number": "4",
  "storeName": "행운복권",
  "phoneNumber": "043-652-1088",
  "address": "충북 제천시 의림동 24-10 1층",
  "latitude": "37.14229",
  "longitude": "128.20863"
},
{
  "number": "5",
  "storeName": "월드복권마트",
  "phoneNumber": "043-653-6500",
  "address": "충북 제천시 장락동 1028 장락주공2단지 상가101호",
  "latitude": "37.15558",
  "longitude": "128.2249"
},
{
  "number": "6",
  "storeName": "진성식품",
  "phoneNumber": "043-646-4436",
  "address": "충북 제천시 중앙로1가 115-1 1층",
  "latitude": "37.13606",
  "longitude": "128.21"
},
{
  "number": "7",
  "storeName": "한양청과",
  "phoneNumber": "043-647-1849",
  "address": "충북 제천시 중앙로1가 77 1층 한양청과",
  "latitude": "37.136623",
  "longitude": "128.21135"
},
{
  "number": "8",
  "storeName": "크로바슈퍼",
  "phoneNumber": "043-647-6390",
  "address": "충북 제천시 신백동 178-9 1층 크로바슈퍼",
  "latitude": "37.13224",
  "longitude": "128.2261"
},
{
  "number": "9",
  "storeName": "강원상회",
  "phoneNumber": "043-642-1961",
  "address": "충북 제천시 의림동 26-14 1층 강원상회",
  "latitude": "37.142136",
  "longitude": "128.2106"
},
{
  "number": "10",
  "storeName": "세명24시로또",
  "phoneNumber": "043-642-8249",
  "address": "충북 제천시 하소동 366 1층",
  "latitude": "37.14415",
  "longitude": "128.1981"
},
{
  "number": "11",
  "storeName": "부자복권",
  "phoneNumber": "043-648-4545",
  "address": "충북 제천시 중앙로2가 84-5 1층",
  "latitude": "37.13933",
  "longitude": "128.21269"
},
{
  "number": "12",
  "storeName": "CU(제천터미널점)",
  "phoneNumber": "043-648-4938",
  "address": "충북 제천시 의림동 7-29 1층 CU편의점",
  "latitude": "37.142723",
  "longitude": "128.21121"
},
{
  "number": "13",
  "storeName": "CU(제천고암점)",
  "phoneNumber": "043-644-5222",
  "address": "충북 제천시 청전동 4-95 1층 CU편의점",
  "latitude": "37.15778",
  "longitude": "128.21469"
},
{
  "number": "14",
  "storeName": "CU(청전공원점)",
  "phoneNumber": "043-647-5055",
  "address": "충북 제천시 청전동 738 1층 CU편의점",
  "latitude": "37.147926",
  "longitude": "128.21194"
},
{
  "number": "15",
  "storeName": "복권왕국",
  "phoneNumber": "043-646-1842",
  "address": "충북 제천시 중앙로1가 77 지하145",
  "latitude": "37.136623",
  "longitude": "128.21135"
},
{
  "number": "16",
  "storeName": "휴먼시아마트",
  "phoneNumber": "043-652-8282",
  "address": "충북 제천시 영천동 2227 휴먼시아아파트상가 101,102,103호",
  "latitude": "37.124226",
  "longitude": "128.20493"
},
{
  "number": "17",
  "storeName": "희망복권",
  "phoneNumber": "043-651-2525",
  "address": "충북 제천시 서부동 224 1층 김밥천국",
  "latitude": "37.137917",
  "longitude": "128.20543"
},
{
  "number": "18",
  "storeName": "CU(제천역점)",
  "phoneNumber": "043-647-5532",
  "address": "충북 제천시 화산동 208-1 1층 CU편의점",
  "latitude": "37.129677",
  "longitude": "128.20673"
},
{
  "number": "19",
  "storeName": "CU(제천청전점)",
  "phoneNumber": "043-644-8985",
  "address": "충북 제천시 청전동 784 1층 CU편의점",
  "latitude": "37.146904",
  "longitude": "128.21117"
},
{
  "number": "20",
  "storeName": "장락복권판매점",
  "phoneNumber": "",
  "address": "충북 제천시 장락동 637-3 1층",
  "latitude": "37.152008",
  "longitude": "128.22113"
},
{
  "number": "21",
  "storeName": "제천로또신",
  "phoneNumber": "",
  "address": "충북 제천시 고암동 1171-12 1층",
  "latitude": "37.160583",
  "longitude": "128.21515"
}
]