[
{
  "number": "1",
  "storeName": "행운로또",
  "phoneNumber": "",
  "address": "충북 청주시 서원구 개신동 278-38 201호",
  "latitude": "36.6254",
  "longitude": "127.44992"
},
{
  "number": "2",
  "storeName": "찬스복권",
  "phoneNumber": "043-295-8781",
  "address": "충북 청주시 서원구 분평동 1372번지 금송빌딩104호",
  "latitude": "36.6075",
  "longitude": "127.48989"
},
{
  "number": "3",
  "storeName": "대박로또",
  "phoneNumber": "043-266-5885",
  "address": "충북 청주시 서원구 사직동 234-39 사거리 편의점 내",
  "latitude": "36.642433",
  "longitude": "127.48903"
},
{
  "number": "4",
  "storeName": "복덩어리",
  "phoneNumber": "043-298-5001",
  "address": "충북 청주시 서원구 사직동 639-16",
  "latitude": "36.63042",
  "longitude": "127.474396"
},
{
  "number": "5",
  "storeName": "로또복권방",
  "phoneNumber": "043-288-0978",
  "address": "충북 청주시 서원구 분평동 1238번지 라데팡스빌딩101호",
  "latitude": "36.61048",
  "longitude": "127.48552"
},
{
  "number": "6",
  "storeName": "로또복권방분평점",
  "phoneNumber": "043-287-2259",
  "address": "충북 청주시 서원구 분평동 1258번지",
  "latitude": "36.611122",
  "longitude": "127.493385"
},
{
  "number": "7",
  "storeName": "복권방",
  "phoneNumber": "043-293-1471",
  "address": "충북 청주시 서원구 수곡동 771",
  "latitude": "36.642433",
  "longitude": "127.48903"
},
{
  "number": "8",
  "storeName": "천하제일복권방",
  "phoneNumber": "043-272-4697",
  "address": "충북 청주시 서원구 모충동 446-20 삼호상가1-105",
  "latitude": "36.624077",
  "longitude": "127.48292"
},
{
  "number": "9",
  "storeName": "토토판매점",
  "phoneNumber": "043-274-3404",
  "address": "충북 청주시 서원구 사직동 354-6",
  "latitude": "36.642433",
  "longitude": "127.48903"
},
{
  "number": "10",
  "storeName": "두꺼비복권방",
  "phoneNumber": "043-283-0044",
  "address": "충북 청주시 서원구 산남동 839 104호",
  "latitude": "36.642433",
  "longitude": "127.48903"
},
{
  "number": "11",
  "storeName": "이마트24사창대로점",
  "phoneNumber": "043-273-3223",
  "address": "충북 청주시 서원구 사창동 185-1",
  "latitude": "36.642433",
  "longitude": "127.48903"
},
{
  "number": "12",
  "storeName": "복도장",
  "phoneNumber": "043-283-3008",
  "address": "충북 청주시 서원구 수곡동 74-41 1층",
  "latitude": "36.642433",
  "longitude": "127.48903"
},
{
  "number": "13",
  "storeName": "럭키뱅크복권방",
  "phoneNumber": "043-288-2628",
  "address": "충북 청주시 서원구 수곡동 80-20번지",
  "latitude": "36.61881",
  "longitude": "127.487274"
},
{
  "number": "14",
  "storeName": "영신슈퍼",
  "phoneNumber": "043-283-7494",
  "address": "충북 청주시 서원구 모충동 122-11번지",
  "latitude": "36.621323",
  "longitude": "127.48745"
},
{
  "number": "15",
  "storeName": "하이그린마트",
  "phoneNumber": "043-266-7878",
  "address": "충북 청주시 서원구 남이면 척산리 590",
  "latitude": "36.642433",
  "longitude": "127.48903"
},
{
  "number": "16",
  "storeName": "그린24시편의점",
  "phoneNumber": "043-292-6686",
  "address": "충북 청주시 서원구 분평동 1018번지",
  "latitude": "36.613407",
  "longitude": "127.4748"
},
{
  "number": "17",
  "storeName": "위드미청주예체로점",
  "phoneNumber": "043-272-8560",
  "address": "충북 청주시 서원구 개신동 436-11",
  "latitude": "36.642433",
  "longitude": "127.48903"
},
{
  "number": "18",
  "storeName": "행운의명당로-토토",
  "phoneNumber": "043-266-3288",
  "address": "충북 청주시 서원구 개신동 443",
  "latitude": "36.624836",
  "longitude": "127.468285"
},
{
  "number": "19",
  "storeName": "부광로또토토대박점",
  "phoneNumber": "043-237-1304",
  "address": "충북 청주시 서원구 사창동 286-10",
  "latitude": "36.642433",
  "longitude": "127.48903"
},
{
  "number": "20",
  "storeName": "GS25(청주수곡점)",
  "phoneNumber": "043-286-9777",
  "address": "충북 청주시 서원구 수곡동 910",
  "latitude": "36.642433",
  "longitude": "127.48903"
},
{
  "number": "21",
  "storeName": "GS25(청주주은점)",
  "phoneNumber": "043-283-2117",
  "address": "충북 청주시 서원구 분평동 1255",
  "latitude": "36.609886",
  "longitude": "127.4914"
},
{
  "number": "22",
  "storeName": "해적책대여점 복권방",
  "phoneNumber": "043-268-4578",
  "address": "충북 청주시 서원구 사직동 222-14",
  "latitude": "36.640194",
  "longitude": "127.479385"
},
{
  "number": "23",
  "storeName": "로또판매점",
  "phoneNumber": "043-260-5115",
  "address": "충북 청주시 서원구 현도면 선동리 502-5 gs25편의점",
  "latitude": "36.4868",
  "longitude": "127.42345"
},
{
  "number": "24",
  "storeName": "에벤에셀복권방",
  "phoneNumber": "043-266-8900",
  "address": "충북 청주시 서원구 남이면 부용외천리 847-23 101-1호",
  "latitude": "36.532993",
  "longitude": "127.42417"
},
{
  "number": "25",
  "storeName": "민우로또",
  "phoneNumber": "043-284-1388",
  "address": "충북 청주시 서원구 분평동 326-1",
  "latitude": "36.594086",
  "longitude": "127.48692"
},
{
  "number": "26",
  "storeName": "로또인쇄광고기획",
  "phoneNumber": "043-268-1151",
  "address": "충북 청주시 서원구 성화동 886번지 훼리리빌1층 102호",
  "latitude": "36.614902",
  "longitude": "127.451836"
},
{
  "number": "27",
  "storeName": "1등복권청주점",
  "phoneNumber": "",
  "address": "충북 청주시 서원구 사직동 236-17",
  "latitude": "36.618652",
  "longitude": "127.47967"
},
{
  "number": "28",
  "storeName": "거북이복권판매점",
  "phoneNumber": "",
  "address": "충북 청주시 서원구 수곡동 333",
  "latitude": "36.61866",
  "longitude": "127.47965"
}
]