[
{
  "number": "1",
  "storeName": "로또기획",
  "phoneNumber": "070-8936-5302",
  "address": "경북 안동시 옥동 993-1번지",
  "latitude": "36.56809",
  "longitude": "128.69785"
},
{
  "number": "2",
  "storeName": "동일설비 명성복권",
  "phoneNumber": "054-823-0485",
  "address": "경북 안동시 용상동 1162-2번지",
  "latitude": "36.556904",
  "longitude": "128.75537"
},
{
  "number": "3",
  "storeName": "에버빌마트",
  "phoneNumber": "054-854-1706",
  "address": "경북 안동시 정하동 240-2번지",
  "latitude": "36.55101",
  "longitude": "128.73131"
},
{
  "number": "4",
  "storeName": "천하명당",
  "phoneNumber": "054-843-8245",
  "address": "경북 안동시 태화동 249-11번지",
  "latitude": "36.56294",
  "longitude": "128.71428"
},
{
  "number": "5",
  "storeName": "로또세븐일레븐용상주공점",
  "phoneNumber": "054-822-6864",
  "address": "경북 안동시 용상동 1631 1층 세븐일레븐 편의점 내",
  "latitude": "36.553516",
  "longitude": "128.76077"
},
{
  "number": "6",
  "storeName": "행운의집",
  "phoneNumber": "054-854-2646",
  "address": "경북 안동시 북문동 23-7번지",
  "latitude": "36.56689",
  "longitude": "128.72942"
},
{
  "number": "7",
  "storeName": "구담쌀슈퍼",
  "phoneNumber": "054-821-2326",
  "address": "경북 안동시 용상동 1179-67번지",
  "latitude": "36.556942",
  "longitude": "128.75446"
},
{
  "number": "8",
  "storeName": "안동슈퍼",
  "phoneNumber": "054-857-8706",
  "address": "경북 안동시 남부동 236-15번지",
  "latitude": "36.56332",
  "longitude": "128.73108"
},
{
  "number": "9",
  "storeName": "행운의집제1호점",
  "phoneNumber": "054-843-5511",
  "address": "경북 안동시 동부동 75-3번지",
  "latitude": "36.565132",
  "longitude": "128.73332"
},
{
  "number": "10",
  "storeName": "모퉁이슈퍼",
  "phoneNumber": "054-853-7887",
  "address": "경북 안동시 광석동 187-25번지",
  "latitude": "36.566647",
  "longitude": "128.72292"
},
{
  "number": "11",
  "storeName": "행운복권",
  "phoneNumber": "054-821-4523",
  "address": "경북 안동시 송천동 478-1",
  "latitude": "36.540745",
  "longitude": "128.7947"
},
{
  "number": "12",
  "storeName": "잉크와복권",
  "phoneNumber": "054-857-7809",
  "address": "경북 안동시 송현동 260-15번지",
  "latitude": "36.571552",
  "longitude": "128.69778"
},
{
  "number": "13",
  "storeName": "생활용품abm복권방",
  "phoneNumber": "054-842-0007",
  "address": "경북 안동시 송현동 298-5 1층 미니마트 송현점",
  "latitude": "36.571003",
  "longitude": "128.6977"
},
{
  "number": "14",
  "storeName": "로또판매점",
  "phoneNumber": "",
  "address": "경북 안동시 풍산읍 안교리 82-11",
  "latitude": "36.579018",
  "longitude": "128.57347"
}
]