[
{
  "number": "1",
  "storeName": "천하명당복권방",
  "phoneNumber": "064-725-5799",
  "address": "제주 제주시 이도일동 1709-12",
  "latitude": "33.507095",
  "longitude": "126.525"
},
{
  "number": "2",
  "storeName": "빙고복권방 잉크충전방",
  "phoneNumber": "064-749-8832",
  "address": "제주 제주시 연동 1954-2 영진그린빌라102호",
  "latitude": "33.490894",
  "longitude": "126.480934"
},
{
  "number": "3",
  "storeName": "제주대림점",
  "phoneNumber": "064-746-5525",
  "address": "제주 제주시 연동 1495-1",
  "latitude": "33.47872",
  "longitude": "126.4876"
},
{
  "number": "4",
  "storeName": "로또명당목련",
  "phoneNumber": "064-743-2259",
  "address": "제주 제주시 연동 291-40",
  "latitude": "33.490025",
  "longitude": "126.495056"
},
{
  "number": "5",
  "storeName": "화북1등복권방",
  "phoneNumber": "064-755-1388",
  "address": "제주 제주시 화북일동 1976-5",
  "latitude": "33.520615",
  "longitude": "126.56564"
},
{
  "number": "6",
  "storeName": "터미널담배",
  "phoneNumber": "064-753-1501",
  "address": "제주 제주시 오라일동 2441-1",
  "latitude": "33.49972",
  "longitude": "126.51499"
},
{
  "number": "7",
  "storeName": "세븐",
  "phoneNumber": "064-723-7770",
  "address": "제주 제주시 일도이동 370-8",
  "latitude": "33.508633",
  "longitude": "126.54233"
},
{
  "number": "8",
  "storeName": "온세계전자",
  "phoneNumber": "064-796-4565",
  "address": "제주 제주시 한림읍 한림리 1303-6",
  "latitude": "33.41543",
  "longitude": "126.26534"
},
{
  "number": "9",
  "storeName": "세진OA",
  "phoneNumber": "064-743-0045",
  "address": "제주 제주시 노형동 682 천마에코피아빌딩203호",
  "latitude": "33.475918",
  "longitude": "126.48105"
},
{
  "number": "10",
  "storeName": "소요(용담점)",
  "phoneNumber": "064-726-9554",
  "address": "제주 제주시 용담일동 242-5",
  "latitude": "33.5097",
  "longitude": "126.51353"
},
{
  "number": "11",
  "storeName": "조천청룡",
  "phoneNumber": "064-782-1247",
  "address": "제주 제주시 조천읍 조천리 2356-2",
  "latitude": "33.53805",
  "longitude": "126.63982"
},
{
  "number": "12",
  "storeName": "행운복권방",
  "phoneNumber": "064-796-8228",
  "address": "제주 제주시 한림읍 한림리 1208",
  "latitude": "33.413692",
  "longitude": "126.26446"
},
{
  "number": "13",
  "storeName": "환타지아복권방",
  "phoneNumber": "064-722-2737",
  "address": "제주 제주시 봉개동 1871",
  "latitude": "33.48916",
  "longitude": "126.59657"
},
{
  "number": "14",
  "storeName": "정든마트복권",
  "phoneNumber": "064-742-0067",
  "address": "제주 제주시 노형동 2582-2 정든마을3단지상가104호",
  "latitude": "33.489502",
  "longitude": "126.47293"
},
{
  "number": "15",
  "storeName": "한솔",
  "phoneNumber": "064-702-3754",
  "address": "제주 제주시 아라일동 6139",
  "latitude": "33.471405",
  "longitude": "126.545975"
},
{
  "number": "16",
  "storeName": "로또복권판매점",
  "phoneNumber": "064-743-4141",
  "address": "제주 제주시 연동 260-14",
  "latitude": "33.490803",
  "longitude": "126.489716"
},
{
  "number": "17",
  "storeName": "행운복권방",
  "phoneNumber": "064-742-1441",
  "address": "제주 제주시 외도일동 550-10",
  "latitude": "33.48766",
  "longitude": "126.43219"
},
{
  "number": "18",
  "storeName": "신세계",
  "phoneNumber": "064-758-8941",
  "address": "제주 제주시 일도이동 378-16",
  "latitude": "33.506054",
  "longitude": "126.54028"
},
{
  "number": "19",
  "storeName": "본스튜디오",
  "phoneNumber": "064-713-2055",
  "address": "제주 제주시 애월읍 하귀1리 1550-10",
  "latitude": "33.4836",
  "longitude": "126.40791"
},
{
  "number": "20",
  "storeName": "만물가게",
  "phoneNumber": "064-756-6450",
  "address": "제주 제주시 이도이동 1188-5",
  "latitude": "33.49703",
  "longitude": "126.52998"
},
{
  "number": "21",
  "storeName": "천하명당복권방",
  "phoneNumber": "064-713-2415",
  "address": "제주 제주시 이도이동 364-2",
  "latitude": "33.47725",
  "longitude": "126.524994"
},
{
  "number": "22",
  "storeName": "신산로복권방",
  "phoneNumber": "064-726-7955",
  "address": "제주 제주시 일도이동 1030-11 세븐일레븐",
  "latitude": "33.51017",
  "longitude": "126.53225"
},
{
  "number": "23",
  "storeName": "GS25(노형런던점)",
  "phoneNumber": "064-748-3933",
  "address": "제주 제주시 노형동 1045-15",
  "latitude": "33.49112",
  "longitude": "126.47862"
},
{
  "number": "24",
  "storeName": "GS25(노형현대점)",
  "phoneNumber": "064-713-0105",
  "address": "제주 제주시 노형동 723-1",
  "latitude": "33.48128",
  "longitude": "126.484634"
},
{
  "number": "25",
  "storeName": "GS25(노형이화점)",
  "phoneNumber": "064-749-5373",
  "address": "제주 제주시 노형동 906-7",
  "latitude": "33.48811",
  "longitude": "126.48403"
},
{
  "number": "26",
  "storeName": "GS25(제주도청점)",
  "phoneNumber": "064-712-0067",
  "address": "제주 제주시 연동 301-10",
  "latitude": "33.49158",
  "longitude": "126.49707"
},
{
  "number": "27",
  "storeName": "GS25(제주이도점)",
  "phoneNumber": "064-726-0205",
  "address": "제주 제주시 이도이동 1064-21 1층",
  "latitude": "33.495735",
  "longitude": "126.53614"
},
{
  "number": "28",
  "storeName": "GS25(제주삼화점)",
  "phoneNumber": "064-726-0102",
  "address": "제주 제주시 화북일동 1023-2",
  "latitude": "33.517014",
  "longitude": "126.57355"
},
{
  "number": "29",
  "storeName": "GS25(제주탑동점)",
  "phoneNumber": "064-727-0400",
  "address": "제주 제주시 건입동 1417",
  "latitude": "33.516354",
  "longitude": "126.52507"
},
{
  "number": "30",
  "storeName": "GS25(노형대림점)",
  "phoneNumber": "064-745-9008",
  "address": "제주 제주시 노형동 2511-5 성림미래안아파트1층102호",
  "latitude": "33.48403",
  "longitude": "126.47023"
},
{
  "number": "31",
  "storeName": "로또누리",
  "phoneNumber": "064-748-8196",
  "address": "제주 제주시 노형동 933-10 cu제주정한점 1층",
  "latitude": "33.51679",
  "longitude": "126.5347"
},
{
  "number": "32",
  "storeName": "인제119복권",
  "phoneNumber": "064-752-2119",
  "address": "제주 제주시 일도이동 355-21 1층",
  "latitude": "33.508785",
  "longitude": "126.54006"
},
{
  "number": "33",
  "storeName": "황금복권",
  "phoneNumber": "064-756-1466",
  "address": "제주 제주시 용담일동 2829-7 7세븐일레븐편의점내",
  "latitude": "33.50028",
  "longitude": "126.51483"
},
{
  "number": "34",
  "storeName": "화신복권방",
  "phoneNumber": "064-742-0808",
  "address": "제주 제주시 이도일동 1260-2",
  "latitude": "33.50289",
  "longitude": "126.527855"
},
{
  "number": "35",
  "storeName": "향기있는다락방",
  "phoneNumber": "064-759-8204",
  "address": "제주 제주시 도남동 47-9 1층",
  "latitude": "33.496002",
  "longitude": "126.52415"
},
{
  "number": "36",
  "storeName": "로또내도점",
  "phoneNumber": "",
  "address": "제주 제주시 내도동 378-6",
  "latitude": "33.520836",
  "longitude": "126.85878"
},
{
  "number": "37",
  "storeName": "원희슈퍼",
  "phoneNumber": "064-747-1709",
  "address": "제주 제주시 연동 261-1",
  "latitude": "33.48969",
  "longitude": "126.489975"
},
{
  "number": "38",
  "storeName": "뉴월드마트복권방",
  "phoneNumber": "064-757-8460",
  "address": "제주 제주시 화북일동 1244-1 뉴월마트 내 매장",
  "latitude": "33.519737",
  "longitude": "126.5702"
},
{
  "number": "39",
  "storeName": "티켓코리아",
  "phoneNumber": "064-724-8945",
  "address": "제주 제주시 이도일동 1354-1",
  "latitude": "33.513",
  "longitude": "126.52531"
},
{
  "number": "40",
  "storeName": "제일복권",
  "phoneNumber": "064-758-9311",
  "address": "제주 제주시 삼도일동 558-10",
  "latitude": "33.50006",
  "longitude": "126.52368"
},
{
  "number": "41",
  "storeName": "킹로또",
  "phoneNumber": "064-745-5060",
  "address": "제주 제주시 노형동 727-3 1층 CU 해오름점",
  "latitude": "33.481262",
  "longitude": "126.48676"
},
{
  "number": "42",
  "storeName": "GS25(제주동교점)",
  "phoneNumber": "064-752-2500",
  "address": "제주 제주시 일도이동 993-5",
  "latitude": "33.513382",
  "longitude": "126.53394"
},
{
  "number": "43",
  "storeName": "레이드",
  "phoneNumber": "064-722-6847",
  "address": "제주 제주시 일도일동 1146-2",
  "latitude": "33.513588",
  "longitude": "126.52828"
},
{
  "number": "44",
  "storeName": "씨유제주구남중앙점",
  "phoneNumber": "064-702-4569",
  "address": "제주 제주시 이도이동 2002-1",
  "latitude": "33.489063",
  "longitude": "126.53528"
},
{
  "number": "45",
  "storeName": "명진복권",
  "phoneNumber": "",
  "address": "제주 제주시 노형동 2531-2",
  "latitude": "33.485325",
  "longitude": "126.473595"
},
{
  "number": "46",
  "storeName": "연동중앙복권",
  "phoneNumber": "",
  "address": "제주 제주시 연동 273-35 1층 GS25(연동중앙점)",
  "latitude": "33.486782",
  "longitude": "126.4909"
},
{
  "number": "47",
  "storeName": "함덕대박복권판매점",
  "phoneNumber": "",
  "address": "제주 제주시 조천읍 함덕리 951-1 1층 105호",
  "latitude": "33.538876",
  "longitude": "126.669365"
}
]