[
{
  "number": "1",
  "storeName": "천하명당복권",
  "phoneNumber": "064-763-8484",
  "address": "제주 서귀포시 서귀동 270-5",
  "latitude": "33.250885",
  "longitude": "126.56468"
},
{
  "number": "2",
  "storeName": "복권방",
  "phoneNumber": "064-794-9445",
  "address": "제주 서귀포시 대정읍 하모리 820-16",
  "latitude": "33.22235",
  "longitude": "126.25459"
},
{
  "number": "3",
  "storeName": "돌하르방복권",
  "phoneNumber": "064-762-5735",
  "address": "제주 서귀포시 서귀동 313-4",
  "latitude": "33.24699",
  "longitude": "126.56004"
},
{
  "number": "4",
  "storeName": "왕대박찬스",
  "phoneNumber": "064-733-4432",
  "address": "제주 서귀포시 서귀동 290-11",
  "latitude": "33.25025",
  "longitude": "126.561745"
},
{
  "number": "5",
  "storeName": "로또복권판매",
  "phoneNumber": "064-787-5482",
  "address": "제주 서귀포시 표선면 표선리 633-2",
  "latitude": "33.32488",
  "longitude": "126.83258"
},
{
  "number": "6",
  "storeName": "마법사복권방",
  "phoneNumber": "064-733-3678",
  "address": "제주 서귀포시 동홍동 472-3",
  "latitude": "33.255466",
  "longitude": "126.57364"
},
{
  "number": "7",
  "storeName": "동홍코사마트",
  "phoneNumber": "064-732-3546",
  "address": "제주 서귀포시 동홍동 588-1 동홍코사마트내",
  "latitude": "33.259064",
  "longitude": "126.56941"
},
{
  "number": "8",
  "storeName": "서귀동변로또대리점",
  "phoneNumber": "064-739-9245",
  "address": "제주 서귀포시 법환동 748 민우아파트상가1층 BBQ",
  "latitude": "33.25097",
  "longitude": "126.51029"
},
{
  "number": "9",
  "storeName": "왕대박복권방",
  "phoneNumber": "064-787-4482",
  "address": "제주 서귀포시 표선면 표선리 671-2",
  "latitude": "33.323997",
  "longitude": "126.83117"
},
{
  "number": "10",
  "storeName": "GS25(서귀중문점)",
  "phoneNumber": "064-738-9426",
  "address": "제주 서귀포시 중문동 1964-4",
  "latitude": "33.251457",
  "longitude": "126.427025"
},
{
  "number": "11",
  "storeName": "성산포에서",
  "phoneNumber": "",
  "address": "제주 서귀포시 성산읍 성산리 126-3",
  "latitude": "33.462738",
  "longitude": "126.93504"
},
{
  "number": "12",
  "storeName": "행복을주는가게",
  "phoneNumber": "064-762-1668",
  "address": "제주 서귀포시 동홍동 388-1 1층 세븐일레븐",
  "latitude": "33.250336",
  "longitude": "126.5714"
},
{
  "number": "13",
  "storeName": "송악로또",
  "phoneNumber": "064-794-3164",
  "address": "제주 서귀포시 대정읍 하모리 1417-4 팔도상회",
  "latitude": "33.22565",
  "longitude": "126.253204"
},
{
  "number": "14",
  "storeName": "서귀포복권",
  "phoneNumber": "",
  "address": "제주 서귀포시 서귀동 297-14",
  "latitude": "33.251625",
  "longitude": "126.56107"
}
]