[
{
  "number": "1",
  "storeName": "로또베스트원",
  "phoneNumber": "043-232-9124",
  "address": "충북 청주시 흥덕구 비하동 177-1번지",
  "latitude": "36.630043",
  "longitude": "127.42461"
},
{
  "number": "2",
  "storeName": "맨투맨복권방",
  "phoneNumber": "043-274-5027",
  "address": "충북 청주시 흥덕구 송절동 711 편의점",
  "latitude": "36.665718",
  "longitude": "127.45195"
},
{
  "number": "3",
  "storeName": "미호왕대박로또",
  "phoneNumber": "043-231-2215",
  "address": "충북 청주시 흥덕구 강내면 탑연리 275-17번지 상가1층5호",
  "latitude": "36.637016",
  "longitude": "127.46967"
},
{
  "number": "4",
  "storeName": "행운복권방",
  "phoneNumber": "043-236-2511",
  "address": "충북 청주시 흥덕구 가경동 1515 107호",
  "latitude": "36.62323",
  "longitude": "127.44125"
},
{
  "number": "5",
  "storeName": "홈짱",
  "phoneNumber": "043-234-5654",
  "address": "충북 청주시 흥덕구 가경동 1671번지 휴대폰매장내",
  "latitude": "36.617176",
  "longitude": "127.4434"
},
{
  "number": "6",
  "storeName": "행운복권방",
  "phoneNumber": "043-233-0645",
  "address": "충북 청주시 흥덕구 복대동 15-1번지",
  "latitude": "36.634945",
  "longitude": "127.44052"
},
{
  "number": "7",
  "storeName": "복권명당",
  "phoneNumber": "043-274-1688",
  "address": "충북 청주시 흥덕구 봉명동 969-5번지",
  "latitude": "36.639973",
  "longitude": "127.463776"
},
{
  "number": "8",
  "storeName": "로또하복대두진점",
  "phoneNumber": "043-237-7979",
  "address": "충북 청주시 흥덕구 복대동 2459번지 두진백로상가1층102호",
  "latitude": "36.63718",
  "longitude": "127.42693"
},
{
  "number": "9",
  "storeName": "터미널슈퍼",
  "phoneNumber": "043-233-9489",
  "address": "충북 청주시 흥덕구 가경동 1451-2번지",
  "latitude": "36.625854",
  "longitude": "127.43376"
},
{
  "number": "10",
  "storeName": "썬마트",
  "phoneNumber": "043-232-3015",
  "address": "충북 청주시 흥덕구 복대동 2719번지",
  "latitude": "36.632557",
  "longitude": "127.42812"
},
{
  "number": "11",
  "storeName": "피쉬복권방",
  "phoneNumber": "043-275-2545",
  "address": "충북 청주시 흥덕구 봉명동 489번지 휴대폰매장",
  "latitude": "36.646496",
  "longitude": "127.46521"
},
{
  "number": "12",
  "storeName": "대박찬스",
  "phoneNumber": "043-234-4433",
  "address": "충북 청주시 흥덕구 가경동 1220번지",
  "latitude": "36.62896",
  "longitude": "127.43647"
},
{
  "number": "13",
  "storeName": "맨유편의점",
  "phoneNumber": "043-268-5549",
  "address": "충북 청주시 흥덕구 봉명동 2758 두진메인빌 상가 105호",
  "latitude": "36.651985",
  "longitude": "127.45785"
},
{
  "number": "14",
  "storeName": "승일유통",
  "phoneNumber": "043-272-6569",
  "address": "충북 청주시 흥덕구 봉명동 200-14번지",
  "latitude": "36.638283",
  "longitude": "127.45376"
},
{
  "number": "15",
  "storeName": "행운복권방공단오거리점",
  "phoneNumber": "043-260-2490",
  "address": "충북 청주시 흥덕구 복대동 107-11번지",
  "latitude": "36.634575",
  "longitude": "127.447685"
},
{
  "number": "16",
  "storeName": "월드마트",
  "phoneNumber": "043-274-4578",
  "address": "충북 청주시 흥덕구 복대동 2405번지",
  "latitude": "36.624763",
  "longitude": "127.44769"
},
{
  "number": "17",
  "storeName": "왕대박유통",
  "phoneNumber": "043-276-9195",
  "address": "충북 청주시 흥덕구 강서동 491번지 화인프라자 1층",
  "latitude": "36.624477",
  "longitude": "127.42925"
},
{
  "number": "18",
  "storeName": "비엠복권",
  "phoneNumber": "",
  "address": "충북 청주시 흥덕구 송정동 292-13",
  "latitude": "36.64234",
  "longitude": "127.435585"
},
{
  "number": "19",
  "storeName": "영판매",
  "phoneNumber": "043-234-5421",
  "address": "충북 청주시 흥덕구 가경동 1416번지 고속터미널",
  "latitude": "36.627",
  "longitude": "127.43043"
},
{
  "number": "20",
  "storeName": "시외터미널 대박로또",
  "phoneNumber": "043-232-6858",
  "address": "충북 청주시 흥덕구 가경동 1449번지 시외버스터미널 내",
  "latitude": "36.625137",
  "longitude": "127.43194"
},
{
  "number": "21",
  "storeName": "굿모닝복권마트",
  "phoneNumber": "043-238-1515",
  "address": "충북 청주시 흥덕구 복대동 1173",
  "latitude": "36.621704",
  "longitude": "127.43595"
},
{
  "number": "22",
  "storeName": "위드미청주비하점",
  "phoneNumber": "043-236-1453",
  "address": "충북 청주시 흥덕구 비하동 236-52번지 1층 편의점",
  "latitude": "36.633472",
  "longitude": "127.424515"
},
{
  "number": "23",
  "storeName": "일등로또복권방",
  "phoneNumber": "",
  "address": "충북 청주시 흥덕구 오송읍 만수리 774",
  "latitude": "36.623047",
  "longitude": "127.32718"
},
{
  "number": "24",
  "storeName": "대박로또복권방",
  "phoneNumber": "043-271-7844",
  "address": "충북 청주시 흥덕구 봉명동 1825번지 신한은행 옆 가판점",
  "latitude": "36.643448",
  "longitude": "127.46225"
},
{
  "number": "25",
  "storeName": "미소마트",
  "phoneNumber": "043-232-7282",
  "address": "충북 청주시 흥덕구 복대동 337-15",
  "latitude": "36.638092",
  "longitude": "127.43226"
},
{
  "number": "26",
  "storeName": "대박성민로또하우스",
  "phoneNumber": "",
  "address": "충북 청주시 흥덕구 복대동 871-5",
  "latitude": "36.63402",
  "longitude": "127.45335"
},
{
  "number": "27",
  "storeName": "도깨비",
  "phoneNumber": "043-265-7727",
  "address": "충북 청주시 흥덕구 신봉동 170-8",
  "latitude": "36.65597",
  "longitude": "127.46949"
},
{
  "number": "28",
  "storeName": "1등복권마트",
  "phoneNumber": "",
  "address": "충북 청주시 흥덕구 옥산면 오산리 211-7",
  "latitude": "36.665688",
  "longitude": "127.37327"
},
{
  "number": "29",
  "storeName": "행복로또복권방",
  "phoneNumber": "043-264-7694",
  "address": "충북 청주시 흥덕구 복대동 162-4 cu편의점",
  "latitude": "36.63351",
  "longitude": "127.448586"
},
{
  "number": "30",
  "storeName": "만복편의점",
  "phoneNumber": "",
  "address": "충북 청주시 흥덕구 봉명동 900",
  "latitude": "36.640182",
  "longitude": "127.46057"
},
{
  "number": "31",
  "storeName": "오송창운로또복권",
  "phoneNumber": "043-273-5507",
  "address": "충북 청주시 흥덕구 오송읍 만수리 531 1층 104호",
  "latitude": "36.629772",
  "longitude": "127.33266"
},
{
  "number": "32",
  "storeName": "옥산행운로또복권방",
  "phoneNumber": "043-278-3737",
  "address": "충북 청주시 흥덕구 옥산면 오산리 537-10번지",
  "latitude": "36.665813",
  "longitude": "127.37278"
},
{
  "number": "33",
  "storeName": "포커스봉명점",
  "phoneNumber": "043-274-9440",
  "address": "충북 청주시 흥덕구 봉명동 168-1번지",
  "latitude": "36.643017",
  "longitude": "127.45624"
},
{
  "number": "34",
  "storeName": "행복복권방",
  "phoneNumber": "",
  "address": "충북 청주시 흥덕구 가경동 1685",
  "latitude": "36.61624",
  "longitude": "127.44066"
}
]