[
{
  "number": "1",
  "storeName": "광성슈퍼",
  "phoneNumber": "031-633-5829",
  "address": "경기 이천시 단월동 509-4",
  "latitude": "37.221348",
  "longitude": "127.450035"
},
{
  "number": "2",
  "storeName": "대성미니슈퍼",
  "phoneNumber": "031-641-2430",
  "address": "경기 이천시 장호원읍 장호원리 112-3",
  "latitude": "37.11724",
  "longitude": "127.62925"
},
{
  "number": "3",
  "storeName": "장원급제로또복권방",
  "phoneNumber": "031-642-7100",
  "address": "경기 이천시 장호원읍 진암리 7-3",
  "latitude": "37.115986",
  "longitude": "127.623634"
},
{
  "number": "4",
  "storeName": "OK편의점",
  "phoneNumber": "031-635-0355",
  "address": "경기 이천시 중리동 201",
  "latitude": "37.2798",
  "longitude": "127.44386"
},
{
  "number": "5",
  "storeName": "태극로또전문점",
  "phoneNumber": "031-631-6906",
  "address": "경기 이천시 창전동 459",
  "latitude": "37.281433",
  "longitude": "127.45034"
},
{
  "number": "6",
  "storeName": "이천스파",
  "phoneNumber": "031-635-3838",
  "address": "경기 이천시 증포동 210-5",
  "latitude": "37.293297",
  "longitude": "127.45499"
},
{
  "number": "7",
  "storeName": "당첨희망복권점",
  "phoneNumber": "031-633-0647",
  "address": "경기 이천시 관고동 4-31 관고사거리",
  "latitude": "37.28205",
  "longitude": "127.438805"
},
{
  "number": "8",
  "storeName": "주택복권",
  "phoneNumber": "031-636-5605",
  "address": "경기 이천시 창전동 150-9",
  "latitude": "37.281425",
  "longitude": "127.44348"
},
{
  "number": "9",
  "storeName": "행운의집(미니슈퍼)",
  "phoneNumber": "031-636-2446",
  "address": "경기 이천시 중리동 235 1층",
  "latitude": "37.27799",
  "longitude": "127.43768"
},
{
  "number": "10",
  "storeName": "HX복권방",
  "phoneNumber": "031-636-4485",
  "address": "경기 이천시 부발읍 아미리 726-9 현대시티플라자106호",
  "latitude": "37.252777",
  "longitude": "127.48955"
},
{
  "number": "11",
  "storeName": "늘~행복나눔(터)",
  "phoneNumber": "031-631-5606",
  "address": "경기 이천시 마장면 양촌리 35-12 1층",
  "latitude": "37.2812",
  "longitude": "127.445175"
},
{
  "number": "12",
  "storeName": "현대할인마트",
  "phoneNumber": "031-632-7010",
  "address": "경기 이천시 신둔면 수광리 312-4",
  "latitude": "37.306873",
  "longitude": "127.4031"
},
{
  "number": "13",
  "storeName": "GS25(이천대월점)",
  "phoneNumber": "031-636-8061",
  "address": "경기 이천시 대월면 사동리 347-138번지",
  "latitude": "37.244335",
  "longitude": "127.49458"
},
{
  "number": "14",
  "storeName": "이천대박로또",
  "phoneNumber": "031-638-4947",
  "address": "경기 이천시 부발읍 응암리 14-10 가산삼거리",
  "latitude": "37.239445",
  "longitude": "127.51257"
},
{
  "number": "15",
  "storeName": "싱싱마트",
  "phoneNumber": "031-637-4858",
  "address": "경기 이천시 부발읍 신하리 481-1",
  "latitude": "37.25891",
  "longitude": "127.47735"
},
{
  "number": "16",
  "storeName": "번쩍서점",
  "phoneNumber": "031-635-0338",
  "address": "경기 이천시 중리동 219",
  "latitude": "37.276917",
  "longitude": "127.44738"
},
{
  "number": "17",
  "storeName": "황금복권마트",
  "phoneNumber": "031-632-3949",
  "address": "경기 이천시 송정동 195-20 1층",
  "latitude": "37.30005",
  "longitude": "127.43801"
},
{
  "number": "18",
  "storeName": "천하명당",
  "phoneNumber": "031-631-5080",
  "address": "경기 이천시 신둔면 수광리 297-1",
  "latitude": "37.30715",
  "longitude": "127.4022"
},
{
  "number": "19",
  "storeName": "일등로또편의점",
  "phoneNumber": "031-637-1710",
  "address": "경기 이천시 송정동 107-29 1층 편의점",
  "latitude": "37.2948",
  "longitude": "127.44237"
},
{
  "number": "20",
  "storeName": "스마일로또",
  "phoneNumber": "031-635-3877",
  "address": "경기 이천시 마장면 표교리 67-15 1층 CU이천호민점",
  "latitude": "37.3451",
  "longitude": "127.931076"
},
{
  "number": "21",
  "storeName": "팡팡마트",
  "phoneNumber": "031-633-7781",
  "address": "경기 이천시 갈산동 219-23 102호",
  "latitude": "37.28749",
  "longitude": "127.46652"
},
{
  "number": "22",
  "storeName": "이천부자복권",
  "phoneNumber": "",
  "address": "경기 이천시 창전동 445-17",
  "latitude": "37.28539",
  "longitude": "127.44625"
},
{
  "number": "23",
  "storeName": "복돼지마트",
  "phoneNumber": "",
  "address": "경기 이천시 부발읍 신원리 558-15",
  "latitude": "37.290997",
  "longitude": "127.507614"
},
{
  "number": "24",
  "storeName": "부발로또",
  "phoneNumber": "031-633-5990",
  "address": "경기 이천시 부발읍 무촌리 501 1층",
  "latitude": "37.282345",
  "longitude": "127.48229"
},
{
  "number": "25",
  "storeName": "골든벨로또",
  "phoneNumber": "",
  "address": "경기 이천시 갈산동 46-1",
  "latitude": "37.281704",
  "longitude": "127.46888"
},
{
  "number": "26",
  "storeName": "왕대박로또",
  "phoneNumber": "031-6358-8751",
  "address": "경기 이천시 마장면 덕평리 333-7 CU이천덕평",
  "latitude": "37.23966",
  "longitude": "127.362816"
},
{
  "number": "27",
  "storeName": "로또이천점",
  "phoneNumber": "031-634-0482",
  "address": "경기 이천시 대월면 대흥리 8-2 미니스톱 이천대흥점",
  "latitude": "37.275574",
  "longitude": "127.44344"
},
{
  "number": "28",
  "storeName": "관촌방",
  "phoneNumber": "031-635-6561",
  "address": "경기 이천시 사음동 192-1 1층 관촌순두부 내",
  "latitude": "37.29452",
  "longitude": "127.41855"
},
{
  "number": "29",
  "storeName": "로또일등백사",
  "phoneNumber": "",
  "address": "경기 이천시 백사면 현방리 73-32",
  "latitude": "37.339996",
  "longitude": "127.48997"
},
{
  "number": "30",
  "storeName": "GS25(이천현대점)",
  "phoneNumber": "031-634-6551",
  "address": "경기 이천시 대월면 대흥리 1-6번지",
  "latitude": "37.249557",
  "longitude": "127.47494"
},
{
  "number": "31",
  "storeName": "운수대통",
  "phoneNumber": "031-694-7748",
  "address": "경기 이천시 관고동 15-14",
  "latitude": "37.280544",
  "longitude": "127.438484"
},
{
  "number": "32",
  "storeName": "부자상회",
  "phoneNumber": "031-631-1165",
  "address": "경기 이천시 대월면 사동리 175-18",
  "latitude": "37.23221",
  "longitude": "127.49438"
}
]