[
{
  "number": "1",
  "storeName": "백암복권",
  "phoneNumber": "031-338-6251",
  "address": "경기 용인시 처인구 백암면 백암리 367 옆호수",
  "latitude": "37.165386",
  "longitude": "127.37516"
},
{
  "number": "2",
  "storeName": "황금대박복권나라",
  "phoneNumber": "031-335-2740",
  "address": "경기 용인시 처인구 김량장동 133-200번지",
  "latitude": "37.23676",
  "longitude": "127.205765"
},
{
  "number": "3",
  "storeName": "희망을주는사람",
  "phoneNumber": "031-338-5933",
  "address": "경기 용인시 처인구 양지면 제일리 474-3번지",
  "latitude": "37.233852",
  "longitude": "127.28568"
},
{
  "number": "4",
  "storeName": "로또복권방",
  "phoneNumber": "031-323-1385",
  "address": "경기 용인시 처인구 김량장동 162-4",
  "latitude": "37.238716",
  "longitude": "127.208664"
},
{
  "number": "5",
  "storeName": "복권명당",
  "phoneNumber": "031-321-0373",
  "address": "경기 용인시 처인구 김량장동 325번지 1층",
  "latitude": "37.236183",
  "longitude": "127.20161"
},
{
  "number": "6",
  "storeName": "위드미 용인둔전점",
  "phoneNumber": "031-334-0729",
  "address": "경기 용인시 처인구 포곡읍 둔전리 152-17번지",
  "latitude": "37.269188",
  "longitude": "127.217636"
},
{
  "number": "7",
  "storeName": "모현복권방",
  "phoneNumber": "031-339-6749",
  "address": "경기 용인시 처인구 모현읍 왕산리 801-13번지",
  "latitude": "37.336582",
  "longitude": "127.24914"
},
{
  "number": "8",
  "storeName": "대박찬스복권전문점",
  "phoneNumber": "031-334-9778",
  "address": "경기 용인시 처인구 김량장동 296-28번지",
  "latitude": "37.23476",
  "longitude": "127.20413"
},
{
  "number": "9",
  "storeName": "아트플라워",
  "phoneNumber": "031-336-5093",
  "address": "경기 용인시 처인구 김량장동 106-2",
  "latitude": "37.23466",
  "longitude": "127.208694"
},
{
  "number": "10",
  "storeName": "노다지복권방",
  "phoneNumber": "031-336-5781",
  "address": "경기 용인시 처인구 마평동 735-1번지",
  "latitude": "37.234997",
  "longitude": "127.21054"
},
{
  "number": "11",
  "storeName": "명지나눔로또",
  "phoneNumber": "031-332-0929",
  "address": "경기 용인시 처인구 역북동 504-13 4호",
  "latitude": "37.23227",
  "longitude": "127.18875"
},
{
  "number": "12",
  "storeName": "대박로또방",
  "phoneNumber": "",
  "address": "경기 용인시 처인구 포곡읍 전대리 186-10",
  "latitude": "37.284718",
  "longitude": "127.21762"
},
{
  "number": "13",
  "storeName": "교통카드충전소",
  "phoneNumber": "031-322-7420",
  "address": "경기 용인시 처인구 역북동 582-24 가판점",
  "latitude": "37.233463",
  "longitude": "127.18889"
},
{
  "number": "14",
  "storeName": "육사구(6/49)복권방",
  "phoneNumber": "031-333-5995",
  "address": "경기 용인시 처인구 모현읍 갈담리 332-6 104호, 105호",
  "latitude": "37.32344",
  "longitude": "127.24461"
},
{
  "number": "15",
  "storeName": "송전로또",
  "phoneNumber": "031-335-9525",
  "address": "경기 용인시 처인구 이동면 송전리 715-8번지",
  "latitude": "37.13999",
  "longitude": "127.197266"
},
{
  "number": "16",
  "storeName": "로또복권짱",
  "phoneNumber": "031-338-6590",
  "address": "경기 용인시 처인구 마평동 582-3번지",
  "latitude": "37.230137",
  "longitude": "127.21442"
},
{
  "number": "17",
  "storeName": "정우",
  "phoneNumber": "031-322-1687",
  "address": "경기 용인시 처인구 이동면 천리 232-1 대농파머스건물내",
  "latitude": "37.191025",
  "longitude": "127.2064"
},
{
  "number": "18",
  "storeName": "대박로또",
  "phoneNumber": "031-334-8111",
  "address": "경기 용인시 처인구 백암면 박곡리 932-11",
  "latitude": "37.15546",
  "longitude": "127.38365"
},
{
  "number": "19",
  "storeName": "유방매표소",
  "phoneNumber": "031-338-2510",
  "address": "경기 용인시 처인구 유방동 310-10",
  "latitude": "37.258778",
  "longitude": "127.212906"
},
{
  "number": "20",
  "storeName": "왔다 로또",
  "phoneNumber": "",
  "address": "경기 용인시 처인구 김량장동 344-7 대승마트",
  "latitude": "37.232674",
  "longitude": "127.20225"
},
{
  "number": "21",
  "storeName": "아름",
  "phoneNumber": "",
  "address": "경기 용인시 처인구 김량장동 140-23 열쇠방",
  "latitude": "37.237175",
  "longitude": "127.20833"
},
{
  "number": "22",
  "storeName": "나눔로또 미니마트",
  "phoneNumber": "031-328-7061",
  "address": "경기 용인시 처인구 포곡읍 둔전리 406-19번지",
  "latitude": "37.26683",
  "longitude": "127.213875"
},
{
  "number": "23",
  "storeName": "무지개나눔로또",
  "phoneNumber": "",
  "address": "경기 용인시 처인구 역북동 427-12",
  "latitude": "37.236835",
  "longitude": "127.19031"
},
{
  "number": "24",
  "storeName": "이마트24용인스위트홈점",
  "phoneNumber": "",
  "address": "경기 용인시 처인구 김량장동 329-2 103호 편의점",
  "latitude": "37.23395",
  "longitude": "127.19821"
},
{
  "number": "25",
  "storeName": "대박나라",
  "phoneNumber": "031-333-3310",
  "address": "경기 용인시 처인구 포곡읍 둔전리 345-10 1층",
  "latitude": "37.276653",
  "longitude": "127.22747"
},
{
  "number": "26",
  "storeName": "행복가득복권방",
  "phoneNumber": "031-322-6567",
  "address": "경기 용인시 처인구 역북동 416-1",
  "latitude": "37.23711",
  "longitude": "127.18597"
},
{
  "number": "27",
  "storeName": "행복로또",
  "phoneNumber": "031-333-0067",
  "address": "경기 용인시 처인구 모현읍 왕산리 743-5 101호",
  "latitude": "37.347404",
  "longitude": "127.2512"
},
{
  "number": "28",
  "storeName": "도깨비 방망이",
  "phoneNumber": "",
  "address": "경기 용인시 처인구 역북동 414-25",
  "latitude": "37.238033",
  "longitude": "127.19099"
},
{
  "number": "29",
  "storeName": "씨유 용인포곡둔전점",
  "phoneNumber": "031-339-0747",
  "address": "경기 용인시 처인구 포곡읍 둔전리 129-2 103호",
  "latitude": "37.26852",
  "longitude": "127.22077"
},
{
  "number": "30",
  "storeName": "양지IC로또",
  "phoneNumber": "031-338-7486",
  "address": "경기 용인시 처인구 양지면 양지리 110-3 1층 CU편의점",
  "latitude": "37.233597",
  "longitude": "127.29734"
},
{
  "number": "31",
  "storeName": "소망점",
  "phoneNumber": "",
  "address": "경기 용인시 처인구 양지면 양지리 576-2 1층",
  "latitude": "37.234356",
  "longitude": "127.28454"
},
{
  "number": "32",
  "storeName": "명당복권방",
  "phoneNumber": "031-333-7254",
  "address": "경기 용인시 처인구 백암면 백암리 447-4",
  "latitude": "37.164642",
  "longitude": "127.37323"
}
]
