[
{
  "number": "1",
  "storeName": "백마사거리로또판매점",
  "phoneNumber": "",
  "address": "경기 고양시 일산동구 마두동 730-5 1층 104호",
  "latitude": "37.653847",
  "longitude": "126.79066"
},
{
  "number": "2",
  "storeName": "OK25",
  "phoneNumber": "031-901-3775",
  "address": "경기 고양시 일산동구 백석동 1308번지 남정씨티플라자110호",
  "latitude": "37.64232",
  "longitude": "126.78789"
},
{
  "number": "3",
  "storeName": "로또판매점",
  "phoneNumber": "031-908-7968",
  "address": "경기 고양시 일산동구 장항동 752 102-2",
  "latitude": "37.66012",
  "longitude": "126.76645"
},
{
  "number": "4",
  "storeName": "1등로또방",
  "phoneNumber": "031-906-8131",
  "address": "경기 고양시 일산동구 백석동 1297-2",
  "latitude": "37.64362",
  "longitude": "126.78785"
},
{
  "number": "5",
  "storeName": "행운편의점 복권방",
  "phoneNumber": "031-977-5776",
  "address": "경기 고양시 일산동구 풍동 421-4",
  "latitude": "37.66176",
  "longitude": "126.795364"
},
{
  "number": "6",
  "storeName": "로또판매점",
  "phoneNumber": "031-902-4561",
  "address": "경기 고양시 일산동구 장항동 759번지 하임빌101호",
  "latitude": "37.66127",
  "longitude": "126.76728"
},
{
  "number": "7",
  "storeName": "해피복권방",
  "phoneNumber": "031-975-1877",
  "address": "경기 고양시 일산동구 성석동 1246-80번지",
  "latitude": "37.71098",
  "longitude": "126.78839"
},
{
  "number": "8",
  "storeName": "주공슈퍼",
  "phoneNumber": "031-902-7611",
  "address": "경기 고양시 일산동구 백석동 1343번지 주공아파트단지상가",
  "latitude": "37.642838",
  "longitude": "126.786285"
},
{
  "number": "9",
  "storeName": "이전유통",
  "phoneNumber": "031-905-8288",
  "address": "경기 고양시 일산동구 백석동 1418-9번지 1층",
  "latitude": "37.64574",
  "longitude": "126.78021"
},
{
  "number": "10",
  "storeName": "1004로또점",
  "phoneNumber": "",
  "address": "경기 고양시 일산동구 중산동 1666-1 104호 미니스톱 내",
  "latitude": "37.66986",
  "longitude": "126.79089"
},
{
  "number": "11",
  "storeName": "마두역상행선 가판대",
  "phoneNumber": "031-907-2207",
  "address": "경기 고양시 일산동구 장항동 893 마두역상행선가판대",
  "latitude": "37.651474",
  "longitude": "126.77806"
},
{
  "number": "12",
  "storeName": "로또명당",
  "phoneNumber": "031-902-0839",
  "address": "경기 고양시 일산동구 풍동 633번지 동국프라자2층1-2호",
  "latitude": "37.678005",
  "longitude": "126.79402"
},
{
  "number": "13",
  "storeName": "일산복권",
  "phoneNumber": "031-919-1188",
  "address": "경기 고양시 일산동구 장항동 733-2번지 남정시티프라자8차 103호",
  "latitude": "37.663395",
  "longitude": "126.76747"
},
{
  "number": "14",
  "storeName": "로또판매점",
  "phoneNumber": "070-8841-8933",
  "address": "경기 고양시 일산동구 장항동 864번지 메트로골드제1층103호",
  "latitude": "37.657387",
  "longitude": "126.77022"
},
{
  "number": "15",
  "storeName": "마두5번출구가판로또",
  "phoneNumber": "031-906-5565",
  "address": "경기 고양시 일산동구 마두동 798-1",
  "latitude": "37.652534",
  "longitude": "126.77772"
},
{
  "number": "16",
  "storeName": "이마트24 일산식사점",
  "phoneNumber": "031-968-8510",
  "address": "경기 고양시 일산동구 식사동 1152-3번지",
  "latitude": "37.688156",
  "longitude": "126.81947"
},
{
  "number": "17",
  "storeName": "대박복권방",
  "phoneNumber": "031-904-0645",
  "address": "경기 고양시 일산동구 장항동 543-4번지",
  "latitude": "37.644257",
  "longitude": "126.7635"
},
{
  "number": "18",
  "storeName": "인더라인 정발산점",
  "phoneNumber": "031-922-2500",
  "address": "경기 고양시 일산동구 정발산동 1148-6",
  "latitude": "37.673412",
  "longitude": "126.776184"
},
{
  "number": "19",
  "storeName": "마두24마트",
  "phoneNumber": "031-905-5030",
  "address": "경기 고양시 일산동구 마두동 913번지 1층",
  "latitude": "37.66058",
  "longitude": "126.78685"
},
{
  "number": "20",
  "storeName": "1등로또토토",
  "phoneNumber": "",
  "address": "경기 고양시 일산동구 정발산동 1297-4",
  "latitude": "37.654743",
  "longitude": "126.77262"
},
{
  "number": "21",
  "storeName": "ALWAYSMART",
  "phoneNumber": "031-903-1720",
  "address": "경기 고양시 일산동구 풍동 150번지",
  "latitude": "37.663197",
  "longitude": "126.80368"
},
{
  "number": "22",
  "storeName": "CITY(씨티)",
  "phoneNumber": "031-921-7724",
  "address": "경기 고양시 일산동구 식사동 859-2 1층 106호",
  "latitude": "37.67426",
  "longitude": "126.776375"
},
{
  "number": "23",
  "storeName": "씨유 트윈시티",
  "phoneNumber": "031-965-1979",
  "address": "경기 고양시 일산동구 식사동 670-28번지 외1필지 풍산트윈시티1동113호",
  "latitude": "37.678734",
  "longitude": "126.81117"
},
{
  "number": "24",
  "storeName": "일산구청매점",
  "phoneNumber": "031-8075-6672",
  "address": "경기 고양시 일산동구 마두동 815번지 일산구청내",
  "latitude": "37.65885",
  "longitude": "126.77502"
},
{
  "number": "25",
  "storeName": "CU(백석밀라트점)",
  "phoneNumber": "031-904-9689",
  "address": "경기 고양시 일산동구 백석동 1303번지",
  "latitude": "37.64092",
  "longitude": "126.79009"
},
{
  "number": "26",
  "storeName": "로또복권방",
  "phoneNumber": "031-903-7000",
  "address": "경기 고양시 일산동구 장항동 749 코오롱레이크폴리스2B-101",
  "latitude": "37.662987",
  "longitude": "126.763626"
},
{
  "number": "27",
  "storeName": "세븐편의점",
  "phoneNumber": "031-912-4536",
  "address": "경기 고양시 일산동구 장항동 746번지 우인아크리움빌2111",
  "latitude": "37.66375",
  "longitude": "126.764694"
},
{
  "number": "28",
  "storeName": "키즈월드",
  "phoneNumber": "031-976-6450",
  "address": "경기 고양시 일산동구 중산동 1561-1번지 해태쇼핑1층146호",
  "latitude": "37.693653",
  "longitude": "126.78013"
},
{
  "number": "29",
  "storeName": "로또랑 슈퍼랑",
  "phoneNumber": "031-975-9775",
  "address": "경기 고양시 일산동구 중산동 1667-6 1층 108호",
  "latitude": "37.68288",
  "longitude": "126.77854"
},
{
  "number": "30",
  "storeName": "복권나라",
  "phoneNumber": "",
  "address": "경기 고양시 일산동구 중산동 1802 104호",
  "latitude": "37.67563",
  "longitude": "126.78608"
},
{
  "number": "31",
  "storeName": "로데오복권방",
  "phoneNumber": "031-932-1577",
  "address": "경기 고양시 일산동구 장항동 778번지 우림보보카운티108",
  "latitude": "37.66271",
  "longitude": "126.76879"
},
{
  "number": "32",
  "storeName": "창이",
  "phoneNumber": "",
  "address": "경기 고양시 일산동구 마두동 851-4 102호 일부",
  "latitude": "37.660145",
  "longitude": "126.76848"
},
{
  "number": "33",
  "storeName": "로그인 일산 중산점",
  "phoneNumber": "031-975-4404",
  "address": "경기 고양시 일산동구 중산동 12-2 102호",
  "latitude": "37.682877",
  "longitude": "126.79088"
},
{
  "number": "34",
  "storeName": "풍동 복권판매점",
  "phoneNumber": "031-901-0364",
  "address": "경기 고양시 일산동구 풍동 1297-8 102호 1층",
  "latitude": "37.66547",
  "longitude": "126.80012"
},
{
  "number": "35",
  "storeName": "나눔로또",
  "phoneNumber": "031-905-1980",
  "address": "경기 고양시 일산동구 장항동 771-1 1층 116호",
  "latitude": "37.65966",
  "longitude": "126.77134"
},
{
  "number": "36",
  "storeName": "소망복권(cu정발산건영점)",
  "phoneNumber": "031-815-5941",
  "address": "경기 고양시 일산동구 정발산동 697",
  "latitude": "37.668205",
  "longitude": "126.77166"
},
{
  "number": "37",
  "storeName": "일등 편의점",
  "phoneNumber": "",
  "address": "경기 고양시 일산동구 장항동 868 B동 1층 116호",
  "latitude": "37.65443",
  "longitude": "126.77363"
},
{
  "number": "38",
  "storeName": "모아슈퍼",
  "phoneNumber": "",
  "address": "경기 고양시 일산동구 장항동 856-3 102호",
  "latitude": "37.65736",
  "longitude": "126.77072"
},
{
  "number": "39",
  "storeName": "매점",
  "phoneNumber": "070-4141-0002",
  "address": "경기 고양시 일산동구 마두동 1010 지하1층 매점",
  "latitude": "37.65588",
  "longitude": "126.77612"
},
{
  "number": "40",
  "storeName": "드루와편의점",
  "phoneNumber": "031-921-1422",
  "address": "경기 고양시 일산동구 정발산동 1202-1",
  "latitude": "37.67208",
  "longitude": "126.77895"
}
]
