[
{
  "number": "1",
  "storeName": "미양공단점",
  "phoneNumber": "070-7793-9748",
  "address": "경기 안성시 미양면 계륵리 271-9번지 102호",
  "latitude": "36.97758",
  "longitude": "127.26128"
},
{
  "number": "2",
  "storeName": "안성맞춤",
  "phoneNumber": "031-675-2266",
  "address": "경기 안성시 금산동 47",
  "latitude": "37.01105",
  "longitude": "127.26991"
},
{
  "number": "3",
  "storeName": "대박미니수퍼",
  "phoneNumber": "031-675-3863",
  "address": "경기 안성시 대덕면 내리 689-7 1층",
  "latitude": "37.001205",
  "longitude": "127.22464"
},
{
  "number": "4",
  "storeName": "로또통신",
  "phoneNumber": "031-677-1016",
  "address": "경기 안성시 인지동 352-10",
  "latitude": "37.00584",
  "longitude": "127.26741"
},
{
  "number": "5",
  "storeName": "천하명당복권방",
  "phoneNumber": "031-674-8267",
  "address": "경기 안성시 영동 428번지",
  "latitude": "37.006542",
  "longitude": "127.273705"
},
{
  "number": "6",
  "storeName": "복권명당",
  "phoneNumber": "031-692-1498",
  "address": "경기 안성시 공도읍 승두리 60-129",
  "latitude": "36.99996",
  "longitude": "127.17308"
},
{
  "number": "7",
  "storeName": "복터진날",
  "phoneNumber": "031-618-3808",
  "address": "경기 안성시 공도읍 진사리 20-14 우림아파트상가 B-03호",
  "latitude": "36.991585",
  "longitude": "127.140434"
},
{
  "number": "8",
  "storeName": "세종광고",
  "phoneNumber": "031-677-2333",
  "address": "경기 안성시 신건지동 4-17 세종종합광고내",
  "latitude": "37.013496",
  "longitude": "127.25336"
},
{
  "number": "9",
  "storeName": "당첨복권방",
  "phoneNumber": "031-677-9240",
  "address": "경기 안성시 미양면 양변리 245-2 1층 상가 미니스톱",
  "latitude": "36.954746",
  "longitude": "127.24368"
},
{
  "number": "10",
  "storeName": "1등 되는날",
  "phoneNumber": "031-674-1726",
  "address": "경기 안성시 공도읍 양기리 332-5번지",
  "latitude": "37.00736",
  "longitude": "127.193275"
},
{
  "number": "11",
  "storeName": "금하마트로또판매점",
  "phoneNumber": "031-671-3959",
  "address": "경기 안성시 서운면 신능리 223-5 금하마트내",
  "latitude": "36.973427",
  "longitude": "127.26802"
},
{
  "number": "12",
  "storeName": "로또판매점",
  "phoneNumber": "031-676-0707",
  "address": "경기 안성시 죽산면 죽산리 134-7",
  "latitude": "37.077023",
  "longitude": "127.42844"
},
{
  "number": "13",
  "storeName": "안성상회",
  "phoneNumber": "",
  "address": "경기 안성시 당왕동 158-3",
  "latitude": "37.018597",
  "longitude": "127.267395"
},
{
  "number": "14",
  "storeName": "안성휴게소 복권판매점",
  "phoneNumber": "",
  "address": "경기 안성시 원곡면 반제리 642-6 안성휴게소 하행 내",
  "latitude": "37.013218",
  "longitude": "127.14471"
},
{
  "number": "15",
  "storeName": "오예로또",
  "phoneNumber": "",
  "address": "경기 안성시 일죽면 송천리 20-12번지",
  "latitude": "37.09366",
  "longitude": "127.47792"
},
{
  "number": "16",
  "storeName": "로또대박복권",
  "phoneNumber": "",
  "address": "경기 안성시 대천동 122",
  "latitude": "37.008392",
  "longitude": "127.26959"
},
{
  "number": "17",
  "storeName": "나눔로또(도기점)",
  "phoneNumber": "031-672-4855",
  "address": "경기 안성시 도기동 100-13 1층 106호",
  "latitude": "37.00125",
  "longitude": "127.26784"
},
{
  "number": "18",
  "storeName": "지우시스템",
  "phoneNumber": "031-656-1215",
  "address": "경기 안성시 공도읍 용두리 717-18",
  "latitude": "36.998123",
  "longitude": "127.15482"
},
{
  "number": "19",
  "storeName": "나눔로또",
  "phoneNumber": "",
  "address": "경기 안성시 신건지동 123 세븐일레븐내",
  "latitude": "37.02008",
  "longitude": "127.244095"
},
{
  "number": "20",
  "storeName": "행운복권방",
  "phoneNumber": "",
  "address": "경기 안성시 일죽면 월정리 718-1 1층 복권방",
  "latitude": "37.083363",
  "longitude": "127.448975"
},
{
  "number": "21",
  "storeName": "골드복권방",
  "phoneNumber": "",
  "address": "경기 안성시 공도읍 만정리 311-9",
  "latitude": "37.005405",
  "longitude": "127.1826"
},
{
  "number": "22",
  "storeName": "새말편의점",
  "phoneNumber": "031-671-1222",
  "address": "경기 안성시 대덕면 신령리 167",
  "latitude": "37.027367",
  "longitude": "127.22279"
},
{
  "number": "23",
  "storeName": "동행복권",
  "phoneNumber": "",
  "address": "경기 안성시 공도읍 마정리 200-531 105호",
  "latitude": "37.015274",
  "longitude": "127.20113"
}
]
