[
{
  "number": "1",
  "storeName": "복권명당(용흥점)",
  "phoneNumber": "054-251-1815",
  "address": "경북 포항시 북구 용흥동 377-8",
  "latitude": "36.039574",
  "longitude": "129.35388"
},
{
  "number": "2",
  "storeName": "복받는날",
  "phoneNumber": "054-241-3190",
  "address": "경북 포항시 북구 장성동 1350-15번지",
  "latitude": "36.06759",
  "longitude": "129.37898"
},
{
  "number": "3",
  "storeName": "복권나라",
  "phoneNumber": "054-255-3074",
  "address": "경북 포항시 북구 양덕동 1266",
  "latitude": "36.08082",
  "longitude": "129.39603"
},
{
  "number": "4",
  "storeName": "나눔로또",
  "phoneNumber": "054-0000-0000",
  "address": "경북 포항시 북구 장량동 1378-7 1층(장성동,세븐일레븐편의점내)",
  "latitude": "36.03304",
  "longitude": "129.36685"
},
{
  "number": "5",
  "storeName": "로또복권보성점",
  "phoneNumber": "054-247-8239",
  "address": "경북 포항시 북구 용흥동 528번지 보성아파트상가101호",
  "latitude": "36.039642",
  "longitude": "129.34781"
},
{
  "number": "6",
  "storeName": "훼미리(창포점)",
  "phoneNumber": "054-246-8008",
  "address": "경북 포항시 북구 창포동 618-12번지",
  "latitude": "36.06301",
  "longitude": "129.36731"
},
{
  "number": "7",
  "storeName": "훼미리마트(포항제일점)",
  "phoneNumber": "054-274-3698",
  "address": "경북 포항시 북구 죽도동 618-2번지",
  "latitude": "36.023598",
  "longitude": "129.35835"
},
{
  "number": "8",
  "storeName": "GS25시오광장점",
  "phoneNumber": "054-274-5368",
  "address": "경북 포항시 북구 죽도동 617-7번지 LG25포항오광정점내일부",
  "latitude": "36.02263",
  "longitude": "129.35828"
},
{
  "number": "9",
  "storeName": "로또복권",
  "phoneNumber": "054-277-2140",
  "address": "경북 포항시 북구 학잠동 38-39번지",
  "latitude": "36.02665",
  "longitude": "129.35068"
},
{
  "number": "10",
  "storeName": "재운로또복권",
  "phoneNumber": "054-244-0806",
  "address": "경북 포항시 북구 우현동 135-8번지 8호 1층",
  "latitude": "36.051147",
  "longitude": "129.3569"
},
{
  "number": "11",
  "storeName": "로또방양덕점",
  "phoneNumber": "054-231-3356",
  "address": "경북 포항시 북구 양덕동 1751 포항시 북구 양덕동1751 이마트24포항양덕점",
  "latitude": "36.082916",
  "longitude": "129.40215"
},
{
  "number": "12",
  "storeName": "로또명당",
  "phoneNumber": "054-000-0000",
  "address": "경북 포항시 북구 죽도동 56-39 CU죽도점",
  "latitude": "36.01655",
  "longitude": "129.35338"
},
{
  "number": "13",
  "storeName": "훼미리로또(북구흥해)",
  "phoneNumber": "054-262-1779",
  "address": "경북 포항시 북구 흥해읍 옥성리 242-10번지 훼미리마트내",
  "latitude": "36.10408",
  "longitude": "129.34207"
},
{
  "number": "14",
  "storeName": "훼미리로또흥해마산점",
  "phoneNumber": "054-262-3111",
  "address": "경북 포항시 북구 흥해읍 마산리 127-4 CU흥해마산점",
  "latitude": "36.111362",
  "longitude": "129.34187"
},
{
  "number": "15",
  "storeName": "운수대통복권",
  "phoneNumber": "054-252-6875",
  "address": "경북 포항시 북구 두호동 226-3번지",
  "latitude": "36.06617",
  "longitude": "129.3858"
},
{
  "number": "16",
  "storeName": "CU포항용흥형제점",
  "phoneNumber": "054-2758-8255",
  "address": "경북 포항시 북구 용흥동 115-8번지 CU포항용흥형제점",
  "latitude": "36.050026",
  "longitude": "129.36925"
},
{
  "number": "17",
  "storeName": "성심상회",
  "phoneNumber": "054-247-3289",
  "address": "경북 포항시 북구 중앙동 41번지",
  "latitude": "36.038143",
  "longitude": "129.368"
},
{
  "number": "18",
  "storeName": "영화유통",
  "phoneNumber": "054-274-7179",
  "address": "경북 포항시 북구 죽도동 623-21번지",
  "latitude": "36.023727",
  "longitude": "129.35391"
},
{
  "number": "19",
  "storeName": "영화마을흥해점",
  "phoneNumber": "054-261-3158",
  "address": "경북 포항시 북구 흥해읍 북송리 249번지",
  "latitude": "36.107826",
  "longitude": "129.34506"
},
{
  "number": "20",
  "storeName": "CU(포항대흥점)",
  "phoneNumber": "054-249-0125",
  "address": "경북 포항시 북구 600-20번지",
  "latitude": "36.037613",
  "longitude": "129.36226"
},
{
  "number": "21",
  "storeName": "CU(환호희망점)",
  "phoneNumber": "054-252-9994",
  "address": "경북 포항시 북구 환호동 510번지",
  "latitude": "36.069904",
  "longitude": "129.39777"
},
{
  "number": "22",
  "storeName": "CU(포항오거리점)",
  "phoneNumber": "054-242-2229",
  "address": "경북 포항시 북구 죽도동 42-17번지",
  "latitude": "36.033833",
  "longitude": "129.36467"
},
{
  "number": "23",
  "storeName": "성림할인마트",
  "phoneNumber": "054-261-1305",
  "address": "경북 포항시 북구 흥해읍 옥성리 87 CU흥해신로터리점",
  "latitude": "36.11024",
  "longitude": "129.34654"
},
{
  "number": "24",
  "storeName": "로터리편의마트",
  "phoneNumber": "054-247-2990",
  "address": "경북 포항시 북구 덕산동 113-11번지",
  "latitude": "36.04074",
  "longitude": "129.36723"
},
{
  "number": "25",
  "storeName": "포항복권방",
  "phoneNumber": "054-248-3161",
  "address": "경북 포항시 북구 대신동 15-17번지",
  "latitude": "36.048725",
  "longitude": "129.3669"
},
{
  "number": "26",
  "storeName": "풀타임로또(두호점)",
  "phoneNumber": "054-242-2615",
  "address": "경북 포항시 북구 두호동 728번지",
  "latitude": "36.056614",
  "longitude": "129.37733"
},
{
  "number": "27",
  "storeName": "부경복권방",
  "phoneNumber": "054-274-9385",
  "address": "경북 포항시 북구 죽도동 701-24번지",
  "latitude": "36.017586",
  "longitude": "129.35051"
},
{
  "number": "28",
  "storeName": "GS25포항신덕로점",
  "phoneNumber": "054-252-6581",
  "address": "경북 포항시 북구 양덕동 1187번지",
  "latitude": "36.08628",
  "longitude": "129.39241"
},
{
  "number": "29",
  "storeName": "삼구오케이마트로또판매점",
  "phoneNumber": "054-253-5553",
  "address": "경북 포항시 북구 양덕동 467-1 23호 OK할인마트",
  "latitude": "36.089706",
  "longitude": "129.38516"
},
{
  "number": "30",
  "storeName": "천하명당",
  "phoneNumber": "054-242-4677",
  "address": "경북 포항시 북구 우현동 108-17 1층",
  "latitude": "36.050365",
  "longitude": "129.3605"
},
{
  "number": "31",
  "storeName": "CU(두호점)",
  "phoneNumber": "054-241-3036",
  "address": "경북 포항시 북구 두호동 1034-13번지",
  "latitude": "36.06029",
  "longitude": "129.37875"
},
{
  "number": "32",
  "storeName": "두산LOTTO",
  "phoneNumber": "",
  "address": "경북 포항시 북구 장성동 1577-1 경북 포항시 북구 새천년대로1249번길6,S-MART내",
  "latitude": "36.060047",
  "longitude": "129.376"
},
{
  "number": "33",
  "storeName": "시안복권",
  "phoneNumber": "054-000-0000",
  "address": "경북 포항시 북구 흥해읍 초곡리 1761 136동604호(초곡삼구트리니엔시티)",
  "latitude": "36.100048",
  "longitude": "129.33937"
},
{
  "number": "34",
  "storeName": "양덕황금복돼지",
  "phoneNumber": "054-232-9909",
  "address": "경북 포항시 북구 장량동 1597 경북 포항시 북구 장량로 181 1층 우측",
  "latitude": "36.08211",
  "longitude": "129.39674"
},
{
  "number": "35",
  "storeName": "도로시 로또",
  "phoneNumber": "054-000-0000",
  "address": "경북 포항시 북구 죽도동 334-51 상가 1층 우측",
  "latitude": "36.02107",
  "longitude": "129.35901"
}
]