[
{
  "number": "1",
  "storeName": "열두보석복권방",
  "phoneNumber": "031-274-1916",
  "address": "경기 용인시 기흥구 구갈동 351 구갈스포츠센터106호",
  "latitude": "37.281094",
  "longitude": "127.1118"
},
{
  "number": "2",
  "storeName": "행운",
  "phoneNumber": "031-275-4014",
  "address": "경기 용인시 기흥구 언남동 336-7",
  "latitude": "37.293896",
  "longitude": "127.12075"
},
{
  "number": "3",
  "storeName": "마실더그린테이블",
  "phoneNumber": "070-4120-1991",
  "address": "경기 용인시 기흥구 동백동 614-5 101호 마실",
  "latitude": "37.283566",
  "longitude": "127.15353"
},
{
  "number": "4",
  "storeName": "구갈대박로또방",
  "phoneNumber": "031-282-0138",
  "address": "경기 용인시 기흥구 구갈동 345-9 101호",
  "latitude": "37.32077",
  "longitude": "127.11515"
},
{
  "number": "5",
  "storeName": "황금 슈퍼",
  "phoneNumber": "031-274-1818",
  "address": "경기 용인시 기흥구 상하동 483-1 어정프라자 103호",
  "latitude": "37.275932",
  "longitude": "127.14405"
},
{
  "number": "6",
  "storeName": "로또휴게실",
  "phoneNumber": "031-286-3442",
  "address": "경기 용인시 기흥구 보라동 378-1",
  "latitude": "37.256638",
  "longitude": "127.10431"
},
{
  "number": "7",
  "storeName": "수지맞은집",
  "phoneNumber": "031-284-0748",
  "address": "경기 용인시 기흥구 공세동 260-1 기흥휴게소, 부산방향 쇼핑몰2층",
  "latitude": "37.236668",
  "longitude": "127.104485"
},
{
  "number": "8",
  "storeName": "태평매표소",
  "phoneNumber": "031-282-4864",
  "address": "경기 용인시 기흥구 신갈동 464-17번지",
  "latitude": "37.270927",
  "longitude": "127.10296"
},
{
  "number": "9",
  "storeName": "장흥전기",
  "phoneNumber": "031-283-0307",
  "address": "경기 용인시 기흥구 마북동 301-7번지",
  "latitude": "37.296143",
  "longitude": "127.117546"
},
{
  "number": "10",
  "storeName": "민속촌 행운복권방",
  "phoneNumber": "031-274-1307",
  "address": "경기 용인시 기흥구 하갈동 171",
  "latitude": "37.255054",
  "longitude": "127.10468"
},
{
  "number": "11",
  "storeName": "강남대로또",
  "phoneNumber": "031-275-8802",
  "address": "경기 용인시 기흥구 구갈동 579-2",
  "latitude": "37.2715",
  "longitude": "127.12674"
},
{
  "number": "12",
  "storeName": "백만장자",
  "phoneNumber": "031-211-1180",
  "address": "경기 용인시 기흥구 영덕동 974-10 흥덕유프라자111호",
  "latitude": "37.27725",
  "longitude": "127.07335"
},
{
  "number": "13",
  "storeName": "대성기획",
  "phoneNumber": "031-283-1304",
  "address": "경기 용인시 기흥구 마북동 339-1번지",
  "latitude": "37.294975",
  "longitude": "127.11579"
},
{
  "number": "14",
  "storeName": "GS25(동백역점)",
  "phoneNumber": "031-286-4222",
  "address": "경기 용인시 기흥구 중동 853-1번지",
  "latitude": "37.269974",
  "longitude": "127.15417"
},
{
  "number": "15",
  "storeName": "GS25(신갈주공점)",
  "phoneNumber": "031-275-0961",
  "address": "경기 용인시 기흥구 신갈동 712 104호",
  "latitude": "37.28906",
  "longitude": "127.111626"
},
{
  "number": "16",
  "storeName": "와우",
  "phoneNumber": "",
  "address": "경기 용인시 기흥구 영덕동 1005 흥덕IT밸리 컴플렉스동 1층 B-119호",
  "latitude": "37.27005",
  "longitude": "127.068016"
},
{
  "number": "17",
  "storeName": "대박찬스복권방",
  "phoneNumber": "031-284-5545",
  "address": "경기 용인시 기흥구 상갈동 125-22",
  "latitude": "37.266582",
  "longitude": "127.10692"
},
{
  "number": "18",
  "storeName": "로또복권방동백점",
  "phoneNumber": "031-8005-6676",
  "address": "경기 용인시 기흥구 중동 831-1 월드프라자101",
  "latitude": "37.2766",
  "longitude": "127.152435"
},
{
  "number": "19",
  "storeName": "황곡복권방",
  "phoneNumber": "031-205-5939",
  "address": "경기 용인시 기흥구 영덕동 390-1 황곡프라자 204호",
  "latitude": "37.265896",
  "longitude": "127.076164"
},
{
  "number": "20",
  "storeName": "스마트로또",
  "phoneNumber": "",
  "address": "경기 용인시 기흥구 보정동 1197-2 108호",
  "latitude": "37.32075",
  "longitude": "127.11078"
},
{
  "number": "21",
  "storeName": "복권방",
  "phoneNumber": "031-282-2545",
  "address": "경기 용인시 기흥구 신갈동 51번지",
  "latitude": "37.273132",
  "longitude": "127.10815"
},
{
  "number": "22",
  "storeName": "노다지복권",
  "phoneNumber": "",
  "address": "경기 용인시 기흥구 상하동 462-3",
  "latitude": "37.273792",
  "longitude": "127.139565"
},
{
  "number": "23",
  "storeName": "대박로또",
  "phoneNumber": "",
  "address": "경기 용인시 기흥구 상하동 371-2 세븐일레븐",
  "latitude": "37.266773",
  "longitude": "127.136955"
},
{
  "number": "24",
  "storeName": "오영행복로또점",
  "phoneNumber": "",
  "address": "경기 용인시 기흥구 신갈동 673 팝스토아",
  "latitude": "37.288334",
  "longitude": "127.10789"
},
{
  "number": "25",
  "storeName": "드래곤복권",
  "phoneNumber": "031-275-2119",
  "address": "경기 용인시 기흥구 공세동 734-4",
  "latitude": "37.238598",
  "longitude": "127.10997"
},
{
  "number": "26",
  "storeName": "동백복권",
  "phoneNumber": "031-283-8151",
  "address": "경기 용인시 기흥구 중동 850-3 106호",
  "latitude": "37.270367",
  "longitude": "127.15237"
},
{
  "number": "27",
  "storeName": "상갈로또명당점",
  "phoneNumber": "",
  "address": "경기 용인시 기흥구 상갈동 482-1번지",
  "latitude": "37.26167",
  "longitude": "127.10467"
},
{
  "number": "28",
  "storeName": "로또가게",
  "phoneNumber": "",
  "address": "경기 용인시 기흥구 신갈동 71-5번지 101호",
  "latitude": "37.271015",
  "longitude": "127.10547"
},
{
  "number": "29",
  "storeName": "구구상사",
  "phoneNumber": "031-286-4849",
  "address": "경기 용인시 기흥구 구갈동 374-7번지 1층 편의점",
  "latitude": "37.27644",
  "longitude": "127.11627"
},
{
  "number": "30",
  "storeName": "대박로또",
  "phoneNumber": "031-286-5959",
  "address": "경기 용인시 기흥구 신갈동 61-17",
  "latitude": "37.271713",
  "longitude": "127.10688"
},
{
  "number": "31",
  "storeName": "행운",
  "phoneNumber": "031-283-0830",
  "address": "경기 용인시 기흥구 마북동 619 상가내부 cu",
  "latitude": "37.294",
  "longitude": "127.11349"
},
{
  "number": "32",
  "storeName": "로또기흥점",
  "phoneNumber": "031-693-9599",
  "address": "경기 용인시 기흥구 고매동 696-1 101호",
  "latitude": "37.22234",
  "longitude": "127.09769"
},
{
  "number": "33",
  "storeName": "대박로또",
  "phoneNumber": "",
  "address": "경기 용인시 기흥구 상갈동 100",
  "latitude": "37.269657",
  "longitude": "127.10589"
}
]