[
{
  "number": "1",
  "storeName": "나눔로또 스포츠토토(김포장기점)",
  "phoneNumber": "031-987-7089",
  "address": "경기 김포시 장기동 1399 1층 110호",
  "latitude": "37.644806",
  "longitude": "126.670654"
},
{
  "number": "2",
  "storeName": "차부상회",
  "phoneNumber": "031-988-0204",
  "address": "경기 김포시 통진읍 서암리 717-6번지",
  "latitude": "37.69032",
  "longitude": "126.60032"
},
{
  "number": "3",
  "storeName": "대성슈퍼",
  "phoneNumber": "031-983-2838",
  "address": "경기 김포시 사우동 254번지 초원빌딩1층",
  "latitude": "37.61648",
  "longitude": "126.71613"
},
{
  "number": "4",
  "storeName": "노다지복권방",
  "phoneNumber": "031-982-7972",
  "address": "경기 김포시 북변동 235-14번지 제1층",
  "latitude": "37.626408",
  "longitude": "126.70517"
},
{
  "number": "5",
  "storeName": "금도깨비복권전문점",
  "phoneNumber": "031-997-6119",
  "address": "경기 김포시 하성면 원산리 346-1번지",
  "latitude": "37.70971",
  "longitude": "126.6347"
},
{
  "number": "6",
  "storeName": "풍무대박복권",
  "phoneNumber": "031-983-7454",
  "address": "경기 김포시 풍무동 271-1",
  "latitude": "37.604893",
  "longitude": "126.72187"
},
{
  "number": "7",
  "storeName": "대곶천국열쇠 로또명당",
  "phoneNumber": "031-983-8851",
  "address": "경기 김포시 대곶면 율생리 453-7번지",
  "latitude": "37.650734",
  "longitude": "126.583046"
},
{
  "number": "8",
  "storeName": "김포로또",
  "phoneNumber": "031-982-7011",
  "address": "경기 김포시 사우동 944번지 한솔프라자101",
  "latitude": "37.61937",
  "longitude": "126.718"
},
{
  "number": "9",
  "storeName": "행운복권방",
  "phoneNumber": "031-986-3108",
  "address": "경기 김포시 양촌읍 누산리 627-1번지 누산마트내",
  "latitude": "37.615246",
  "longitude": "126.71563"
},
{
  "number": "10",
  "storeName": "우리로또",
  "phoneNumber": "031-996-0050",
  "address": "경기 김포시 장기동 346-4번지",
  "latitude": "37.651543",
  "longitude": "126.67267"
},
{
  "number": "11",
  "storeName": "대박로또복권",
  "phoneNumber": "031-998-0048",
  "address": "경기 김포시 통진읍 옹정리 37-1번지",
  "latitude": "37.69686",
  "longitude": "126.57718"
},
{
  "number": "12",
  "storeName": "로또복권판매점",
  "phoneNumber": "031-984-2975",
  "address": "경기 김포시 통진읍 도사리 450-1번지 상가1호매장내",
  "latitude": "37.685085",
  "longitude": "126.613106"
},
{
  "number": "13",
  "storeName": "행운복권방",
  "phoneNumber": "031-983-7805",
  "address": "경기 김포시 북변동 244-1번지",
  "latitude": "37.627724",
  "longitude": "126.70668"
},
{
  "number": "14",
  "storeName": "100억로또점",
  "phoneNumber": "031-988-2368",
  "address": "경기 김포시 양촌읍 누산리 487-1번지 나동 6호",
  "latitude": "37.663116",
  "longitude": "126.65885"
},
{
  "number": "15",
  "storeName": "풍무복권방",
  "phoneNumber": "031-987-3227",
  "address": "경기 김포시 풍무동 421-8",
  "latitude": "37.6021",
  "longitude": "126.721245"
},
{
  "number": "16",
  "storeName": "로또명당",
  "phoneNumber": "031-986-0806",
  "address": "경기 김포시 고촌읍 신곡리 575-6번지",
  "latitude": "37.599792",
  "longitude": "126.7713"
},
{
  "number": "17",
  "storeName": "행운복권",
  "phoneNumber": "",
  "address": "경기 김포시 구래동 6883-16 106호",
  "latitude": "37.60995",
  "longitude": "126.723656"
},
{
  "number": "18",
  "storeName": "세븐일레븐 김포학운공단점",
  "phoneNumber": "",
  "address": "경기 김포시 양촌읍 학운리 2773",
  "latitude": "37.6191",
  "longitude": "126.621155"
},
{
  "number": "19",
  "storeName": "GS25시 양곡신협점(대박복권)",
  "phoneNumber": "031-981-2464",
  "address": "경기 김포시 양곡리 388-50",
  "latitude": "37.653553",
  "longitude": "126.62371"
},
{
  "number": "20",
  "storeName": "장기로또복권방",
  "phoneNumber": "",
  "address": "경기 김포시 장기동 1611 1층 105호",
  "latitude": "37.644608",
  "longitude": "126.66894"
},
{
  "number": "21",
  "storeName": "홈돌이로또복권",
  "phoneNumber": "031-999-8082",
  "address": "경기 김포시 감정동 692번지 삼성홈플러스2층",
  "latitude": "37.624004",
  "longitude": "126.698746"
},
{
  "number": "22",
  "storeName": "대박로또",
  "phoneNumber": "070-5103-9688",
  "address": "경기 김포시 장기동 1900-12 1동 101호",
  "latitude": "37.6195",
  "longitude": "126.71999"
},
{
  "number": "23",
  "storeName": "감정리매표소",
  "phoneNumber": "031-983-7447",
  "address": "경기 김포시 감정동 549-5번지",
  "latitude": "37.623337",
  "longitude": "126.70004"
},
{
  "number": "24",
  "storeName": "티켓몰",
  "phoneNumber": "031-996-1112",
  "address": "경기 김포시 사우동 251-8번지",
  "latitude": "37.617004",
  "longitude": "126.71685"
},
{
  "number": "25",
  "storeName": "김포로또판매",
  "phoneNumber": "031-989-6055",
  "address": "경기 김포시 하성면 원산리 648-5 1층 CU",
  "latitude": "37.711155",
  "longitude": "126.619965"
},
{
  "number": "26",
  "storeName": "럭키복권",
  "phoneNumber": "",
  "address": "경기 김포시 통진읍 고정리 479-1",
  "latitude": "37.711605",
  "longitude": "126.59927"
},
{
  "number": "27",
  "storeName": "브라보김포로또",
  "phoneNumber": "",
  "address": "경기 김포시 운양동 1431-2 107호",
  "latitude": "37.644905",
  "longitude": "126.66959"
},
{
  "number": "28",
  "storeName": "로또편의점",
  "phoneNumber": "",
  "address": "경기 김포시 운양동 1298-1 골든스퀘어 101호",
  "latitude": "37.654305",
  "longitude": "126.68417"
},
{
  "number": "29",
  "storeName": "행운로또",
  "phoneNumber": "031-985-5997",
  "address": "경기 김포시 마산동 637-3 상가 103호",
  "latitude": "37.61713",
  "longitude": "126.62562"
},
{
  "number": "30",
  "storeName": "주아복권",
  "phoneNumber": "",
  "address": "경기 김포시 김포본동 387-77",
  "latitude": "37.60369",
  "longitude": "126.768265"
},
{
  "number": "31",
  "storeName": "일등로또",
  "phoneNumber": "",
  "address": "경기 김포시 장기동 1766 위드미 김포뉴고려병원점",
  "latitude": "37.64134",
  "longitude": "126.659805"
},
{
  "number": "32",
  "storeName": "인생역전 로또방",
  "phoneNumber": "",
  "address": "경기 김포시 하성면 마곡리 621-16 1층",
  "latitude": "37.719807",
  "longitude": "126.63337"
},
{
  "number": "33",
  "storeName": "로또판매점",
  "phoneNumber": "",
  "address": "경기 김포시 장기동 1886-2 스웨첸아파트상가1동101호씨유kcc점",
  "latitude": "37.64597",
  "longitude": "126.66298"
},
{
  "number": "34",
  "storeName": "로또판매 김포운양점",
  "phoneNumber": "",
  "address": "경기 김포시 운양동 1300-3 718동 지1층 101호,풍경마을반도유보라아파트",
  "latitude": "37.654057",
  "longitude": "126.68067"
},
{
  "number": "35",
  "storeName": "씨유 김포풍무역점",
  "phoneNumber": "",
  "address": "경기 김포시 풍무동 271-1 1층",
  "latitude": "37.693027",
  "longitude": "126.59573"
},
{
  "number": "36",
  "storeName": "대운",
  "phoneNumber": "070-4898-0645",
  "address": "경기 김포시 대곶면 율생리 15-5",
  "latitude": "37.65358",
  "longitude": "126.59564"
},
{
  "number": "37",
  "storeName": "김포복권",
  "phoneNumber": "031-988-1164",
  "address": "경기 김포시 구래동 6880-4 101호",
  "latitude": "37.645844",
  "longitude": "126.62611"
},
{
  "number": "38",
  "storeName": "로또또",
  "phoneNumber": "031-986-1020",
  "address": "경기 김포시 양촌읍 대포리 40-10 102호",
  "latitude": "37.62098",
  "longitude": "126.63305"
},
{
  "number": "39",
  "storeName": "나눔로또",
  "phoneNumber": "",
  "address": "경기 김포시 양촌읍 양곡리 414-22",
  "latitude": "37.6929",
  "longitude": "126.599"
},
{
  "number": "40",
  "storeName": "로또석모리",
  "phoneNumber": "",
  "address": "경기 김포시 양촌읍 석모리 968-7",
  "latitude": "37.652527",
  "longitude": "126.6434"
},
{
  "number": "41",
  "storeName": "1등 터",
  "phoneNumber": "",
  "address": "경기 김포시 양촌읍 양곡리 1306-6",
  "latitude": "37.655308",
  "longitude": "126.627525"
},
{
  "number": "42",
  "storeName": "로또맛집배은복",
  "phoneNumber": "",
  "address": "경기 김포시 풍무동 115-11 1층 6호",
  "latitude": "37.606365",
  "longitude": "126.72209"
}
]
