[
{
  "number": "1",
  "storeName": "명당골복권방",
  "phoneNumber": "031-235-4223",
  "address": "경기 수원시 권선구 권선동 1295-3 104호",
  "latitude": "37.25106",
  "longitude": "127.03548"
},
{
  "number": "2",
  "storeName": "광교로또",
  "phoneNumber": "",
  "address": "경기 수원시 영통구 이의동 1349 118호",
  "latitude": "37.290737",
  "longitude": "127.0467"
},
{
  "number": "3",
  "storeName": "보성종합상사",
  "phoneNumber": "031-466-2979",
  "address": "경기 안양시 만안구 안양동 622-41",
  "latitude": "37.396877",
  "longitude": "126.92628"
},
{
  "number": "4",
  "storeName": "SK행운편의점",
  "phoneNumber": "031-374-4233",
  "address": "경기 오산시 수청동 619-5 베네치아B동 103호",
  "latitude": "37.169483",
  "longitude": "127.06494"
},
{
  "number": "5",
  "storeName": "백암복권",
  "phoneNumber": "031-338-6251",
  "address": "경기 용인시 처인구 백암면 백암리 367 옆호수",
  "latitude": "37.165386",
  "longitude": "127.37516"
},
{
  "number": "6",
  "storeName": "대호상사",
  "phoneNumber": "031-781-2526",
  "address": "경기 성남시 분당구 야탑동 355-1 GS25",
  "latitude": "37.411133",
  "longitude": "127.126816"
},
{
  "number": "7",
  "storeName": "분당점로또판매",
  "phoneNumber": "070-4136-3809",
  "address": "경기 성남시 분당구 판교동 621-2번지 한솔프라자104호",
  "latitude": "37.389996",
  "longitude": "127.08895"
},
{
  "number": "8",
  "storeName": "나눔이매로또",
  "phoneNumber": "031-706-5440",
  "address": "경기 성남시 분당구 이매동 120-7번지 구두28호점",
  "latitude": "37.39093",
  "longitude": "127.126335"
},
{
  "number": "9",
  "storeName": "분당정자점로또판매점",
  "phoneNumber": "",
  "address": "경기 성남시 분당구 서현동 298-2 1층 109호 이마트24",
  "latitude": "37.37723",
  "longitude": "127.13393"
},
{
  "number": "10",
  "storeName": "단대대박복권방",
  "phoneNumber": "031-732-4714",
  "address": "경기 성남시 중원구 금광동 11번지",
  "latitude": "37.444717",
  "longitude": "127.158585"
},
{
  "number": "11",
  "storeName": "해뜰날로또복권방",
  "phoneNumber": "031-755-0708",
  "address": "경기 성남시 중원구 하대원동 132-5",
  "latitude": "37.43008",
  "longitude": "127.150246"
},
{
  "number": "12",
  "storeName": "명당골복권방",
  "phoneNumber": "031-235-4223",
  "address": "경기 수원시 권선구 권선동 1295-3 104호",
  "latitude": "37.25106",
  "longitude": "127.03548"
},
{
  "number": "13",
  "storeName": "로또삼성복권방",
  "phoneNumber": "031-214-8249",
  "address": "경기 수원시 영통구 원천동 550-1 원천훼미리타운105호",
  "latitude": "37.26671",
  "longitude": "127.058174"
},
{
  "number": "14",
  "storeName": "나눔로또정거장",
  "phoneNumber": "031-241-3544",
  "address": "경기 수원시 장안구 정자동 73-10 1층108호",
  "latitude": "37.29066",
  "longitude": "127.00089"
},
{
  "number": "15",
  "storeName": "복권판매소",
  "phoneNumber": "031-268-2639",
  "address": "경기 수원시 장안구 율전동 99-55",
  "latitude": "37.302837",
  "longitude": "126.97269"
},
{
  "number": "16",
  "storeName": "천하명당복권방 곡반한솔점",
  "phoneNumber": "070-8736-7053",
  "address": "경기 수원시 권선구 곡반정동 593-1 102호",
  "latitude": "37.235043",
  "longitude": "127.026764"
},
{
  "number": "17",
  "storeName": "㈜현대택배권선영업소",
  "phoneNumber": "031-234-8662",
  "address": "경기 수원시 권선구 곡반정동 574-1 101호",
  "latitude": "37.23692",
  "longitude": "127.030174"
},
{
  "number": "18",
  "storeName": "한양복권방",
  "phoneNumber": "031-292-6277",
  "address": "경기 수원시 권선구 오목천동 498-5",
  "latitude": "37.244526",
  "longitude": "126.96389"
},
{
  "number": "19",
  "storeName": "7복권방",
  "phoneNumber": "031-295-7771",
  "address": "경기 수원시 권선구 평동 23-28 A동 122호, 수원공구유통타운",
  "latitude": "37.25857",
  "longitude": "126.997314"
},
{
  "number": "20",
  "storeName": "GS25(수원파크점)",
  "phoneNumber": "031-898-6730",
  "address": "경기 수원시 권선구 권선동 1017-7번지",
  "latitude": "37.25972",
  "longitude": "127.02792"
},
{
  "number": "21",
  "storeName": "힐링로또마트",
  "phoneNumber": "",
  "address": "경기 수원시 권선구 당수동 158-2 104호",
  "latitude": "37.29127",
  "longitude": "126.94029"
},
{
  "number": "22",
  "storeName": "세류보석복권방",
  "phoneNumber": "031-238-5763",
  "address": "경기 수원시 권선구 세류동 1090-7",
  "latitude": "37.25483",
  "longitude": "127.015884"
},
{
  "number": "23",
  "storeName": "태일이엔지",
  "phoneNumber": "",
  "address": "경기 수원시 권선구 권선동 1188 한양아파트상가 107호",
  "latitude": "37.252502",
  "longitude": "127.02106"
},
{
  "number": "24",
  "storeName": "드림로또마켓",
  "phoneNumber": "",
  "address": "경기 수원시 권선구 금곡동 1117 127호",
  "latitude": "37.273964",
  "longitude": "126.95406"
},
{
  "number": "25",
  "storeName": "온누리로또",
  "phoneNumber": "",
  "address": "경기 수원시 권선구 세류동 1075-2 1층 102호",
  "latitude": "37.25713",
  "longitude": "127.017494"
},
{
  "number": "26",
  "storeName": "아지뜨",
  "phoneNumber": "",
  "address": "경기 수원시 권선구 오목천동 431-1 107호",
  "latitude": "37.24028",
  "longitude": "126.96582"
},
{
  "number": "27",
  "storeName": "찬스로또복권방",
  "phoneNumber": "",
  "address": "경기 수원시 권선구 권선동 1032-1",
  "latitude": "37.25858",
  "longitude": "127.02392"
},
{
  "number": "28",
  "storeName": "한방인생",
  "phoneNumber": "",
  "address": "경기 수원시 권선구 호매실동 1375-3 105호",
  "latitude": "37.266193",
  "longitude": "126.96197"
},
{
  "number": "29",
  "storeName": "권선베스토아",
  "phoneNumber": "031-239-8836",
  "address": "경기 수원시 권선구 권선동 1052-4",
  "latitude": "37.256275",
  "longitude": "127.02583"
},
{
  "number": "30",
  "storeName": "로또복권편의점",
  "phoneNumber": "",
  "address": "경기 수원시 권선구 세류동 230-42 1층",
  "latitude": "37.26384",
  "longitude": "127.007645"
}
]
