[
{
  "number": "1",
  "storeName": "천하명당복권방제일점",
  "phoneNumber": "055-255-9689",
  "address": "경남 창원시 마산회원구 합성동 159-5번지 1층",
  "latitude": "35.24125",
  "longitude": "128.58589"
},
{
  "number": "2",
  "storeName": "복권파는집",
  "phoneNumber": "055-256-7746",
  "address": "경남 창원시 마산회원구 합성동 84-29번지",
  "latitude": "35.240192",
  "longitude": "128.58365"
},
{
  "number": "3",
  "storeName": "로또판매점",
  "phoneNumber": "055-292-1410",
  "address": "경남 창원시 마산회원구 내서읍 호계리 80번지 코오롱하늘채2차상가 104호 CU편의점 內",
  "latitude": "35.265686",
  "longitude": "128.52446"
},
{
  "number": "4",
  "storeName": "프리코너로또방",
  "phoneNumber": "055-299-3718",
  "address": "경남 창원시 마산회원구 석전동 247-2번지",
  "latitude": "35.231186",
  "longitude": "128.5764"
},
{
  "number": "5",
  "storeName": "휴복권방",
  "phoneNumber": "055-714-8211",
  "address": "경남 창원시 마산회원구 내서읍 호계리 80 다올채상가 1동 2층 204호 헤어휴미용실",
  "latitude": "35.261417",
  "longitude": "128.52211"
},
{
  "number": "6",
  "storeName": "로또판매점",
  "phoneNumber": "055-241-8443",
  "address": "경남 창원시 마산회원구 회원동 45-12번지",
  "latitude": "35.219196",
  "longitude": "128.57489"
},
{
  "number": "7",
  "storeName": "대동이미지복권방",
  "phoneNumber": "055-253-8773",
  "address": "경남 창원시 마산회원구 내서읍 삼계리 260 1층 GS편의점",
  "latitude": "35.224014",
  "longitude": "128.50325"
},
{
  "number": "8",
  "storeName": "행운로또복권방",
  "phoneNumber": "055-295-8764",
  "address": "경남 창원시 마산회원구 구암동 282-1번지",
  "latitude": "35.252384",
  "longitude": "128.59361"
},
{
  "number": "9",
  "storeName": "서원탑훼미리합성점",
  "phoneNumber": "055-255-5568",
  "address": "경남 창원시 마산회원구 합성동 269-2번지",
  "latitude": "35.237663",
  "longitude": "128.58426"
},
{
  "number": "10",
  "storeName": "이마트24 마산만복점",
  "phoneNumber": "055-299-1153",
  "address": "경남 창원시 마산회원구 합성동 266-17번지",
  "latitude": "35.238205",
  "longitude": "128.58397"
},
{
  "number": "11",
  "storeName": "삼계복권전문점",
  "phoneNumber": "055-231-1959",
  "address": "경남 창원시 마산회원구 내서읍 삼계리 30-3번지",
  "latitude": "35.23187",
  "longitude": "128.50455"
},
{
  "number": "12",
  "storeName": "로또판매소",
  "phoneNumber": "055-251-7370",
  "address": "경남 창원시 마산회원구 석전동 260-28 1층 해바라기슈퍼",
  "latitude": "35.227455",
  "longitude": "128.5742"
},
{
  "number": "13",
  "storeName": "밀성당 로또판매점",
  "phoneNumber": "055-296-3155",
  "address": "경남 창원시 마산회원구 석전동 264-69번지",
  "latitude": "35.22726",
  "longitude": "128.57214"
},
{
  "number": "14",
  "storeName": "폭스일레븐",
  "phoneNumber": "055-295-7550",
  "address": "경남 창원시 마산회원구 석전동 246-10 진스빌103호",
  "latitude": "35.22975",
  "longitude": "128.57686"
},
{
  "number": "15",
  "storeName": "봉암마트",
  "phoneNumber": "055-292-4403",
  "address": "경남 창원시 마산회원구 봉암동 436-32 436-31번지, 기존주소지와 동일",
  "latitude": "35.2214",
  "longitude": "128.59387"
},
{
  "number": "16",
  "storeName": "태금로또토토",
  "phoneNumber": "055-232-5484",
  "address": "경남 창원시 마산회원구 내서읍 중리 365-11 신축건물1층(중리 365-2번지)",
  "latitude": "35.252644",
  "longitude": "128.51949"
},
{
  "number": "17",
  "storeName": "일등합성대로점",
  "phoneNumber": "055-251-6654",
  "address": "경남 창원시 마산회원구 합성동 340-29 1층 CU편의점 내",
  "latitude": "35.235558",
  "longitude": "128.58966"
},
{
  "number": "18",
  "storeName": "비젼복권",
  "phoneNumber": "055-232-4867",
  "address": "경남 창원시 마산회원구 내서읍 중리 659-2 1층 CU편의점 내",
  "latitude": "35.25082",
  "longitude": "128.516"
},
{
  "number": "19",
  "storeName": "킹할인마트",
  "phoneNumber": "055-293-6464",
  "address": "경남 창원시 마산회원구 구암동 20-12 1층 슈퍼 내",
  "latitude": "35.246746",
  "longitude": "128.58951"
},
{
  "number": "20",
  "storeName": "끌레리띠",
  "phoneNumber": "055-294-6693",
  "address": "경남 창원시 마산회원구 구암동 11-6번지",
  "latitude": "35.248287",
  "longitude": "128.59213"
},
{
  "number": "21",
  "storeName": "중리복권",
  "phoneNumber": "",
  "address": "경남 창원시 마산회원구 내서읍 중리 976-2 1층",
  "latitude": "35.25117",
  "longitude": "128.51083"
},
{
  "number": "22",
  "storeName": "해피복권",
  "phoneNumber": "055-296-2217",
  "address": "경남 창원시 마산회원구 양덕동 17-3번지 양덕편의점 내",
  "latitude": "35.231403",
  "longitude": "128.58397"
},
{
  "number": "23",
  "storeName": "복권판매점",
  "phoneNumber": "",
  "address": "경남 창원시 마산회원구 내서읍 상곡리 193 상가동 109호",
  "latitude": "35.243652",
  "longitude": "128.50005"
},
{
  "number": "24",
  "storeName": "25시슈퍼",
  "phoneNumber": "055-295-8891",
  "address": "경남 창원시 마산회원구 봉암동 462-30번지",
  "latitude": "35.22129",
  "longitude": "128.59529"
},
{
  "number": "25",
  "storeName": "CU(마산메트로6점)",
  "phoneNumber": "055-291-9150",
  "address": "경남 창원시 마산회원구 양덕동 59-3 1층 CU편의점 내",
  "latitude": "35.228916",
  "longitude": "128.58447"
},
{
  "number": "26",
  "storeName": "경일통신",
  "phoneNumber": "055-251-6500",
  "address": "경남 창원시 마산회원구 회성동 169-1번지",
  "latitude": "35.233814",
  "longitude": "128.56062"
},
{
  "number": "27",
  "storeName": "서광로또",
  "phoneNumber": "055-293-0103",
  "address": "경남 창원시 마산회원구 봉암동 277 상가동 101호",
  "latitude": "35.21671",
  "longitude": "128.61258"
},
{
  "number": "28",
  "storeName": "로또명당 중리점",
  "phoneNumber": "055-000-0000",
  "address": "경남 창원시 마산회원구 내서읍 중리 398-4 1층",
  "latitude": "35.249344",
  "longitude": "128.52225"
}
]