[
{
  "number": "1",
  "storeName": "로또복권방",
  "phoneNumber": "043-213-3175",
  "address": "충북 청주시 청원구 내수읍 내수리 36-19 디지털프라자 옆",
  "latitude": "36.72647",
  "longitude": "127.53583"
},
{
  "number": "2",
  "storeName": "오창중앙복권",
  "phoneNumber": "043-215-0645",
  "address": "충북 청주시 청원구 오창읍 양청리 792-1번지 103호",
  "latitude": "36.71512",
  "longitude": "127.42915"
},
{
  "number": "3",
  "storeName": "로또복권",
  "phoneNumber": "043-250-4007",
  "address": "충북 청주시 청원구 내덕동 725-29번지",
  "latitude": "36.660927",
  "longitude": "127.47642"
},
{
  "number": "4",
  "storeName": "복권나라",
  "phoneNumber": "043-215-2628",
  "address": "충북 청주시 청원구 율량동 912",
  "latitude": "36.668537",
  "longitude": "127.48829"
},
{
  "number": "5",
  "storeName": "명당복권방",
  "phoneNumber": "043-211-3754",
  "address": "충북 청주시 청원구 주성동 163-3",
  "latitude": "36.677174",
  "longitude": "127.497635"
},
{
  "number": "6",
  "storeName": "토토원",
  "phoneNumber": "043-212-9924",
  "address": "충북 청주시 청원구 율량동 1816 0",
  "latitude": "36.665924",
  "longitude": "127.48617"
},
{
  "number": "7",
  "storeName": "영화마을(현대점)",
  "phoneNumber": "",
  "address": "충북 청주시 청원구 율량동 717번지 0",
  "latitude": "36.66811",
  "longitude": "127.4858"
},
{
  "number": "8",
  "storeName": "행운복권방",
  "phoneNumber": "043-259-7240",
  "address": "충북 청주시 청원구 우암동 372-13번지",
  "latitude": "36.655094",
  "longitude": "127.4816"
},
{
  "number": "9",
  "storeName": "매직통신",
  "phoneNumber": "043-286-8848",
  "address": "충북 청주시 청원구 오창읍 각리 645-1 105호",
  "latitude": "36.707726",
  "longitude": "127.42773"
},
{
  "number": "10",
  "storeName": "편의점사랑(그린신화점)",
  "phoneNumber": "043-215-7771",
  "address": "충북 청주시 청원구 내덕동 413-2번지",
  "latitude": "36.661835",
  "longitude": "127.491394"
},
{
  "number": "11",
  "storeName": "그린24시편의점상당점",
  "phoneNumber": "043-254-4349",
  "address": "충북 청주시 청원구 우암동 344-5번지",
  "latitude": "36.647434",
  "longitude": "127.486916"
},
{
  "number": "12",
  "storeName": "복권명당",
  "phoneNumber": "043-215-2769",
  "address": "충북 청주시 청원구 주성동 335 대원칸타빌 1차 아파트 상가 편의점",
  "latitude": "36.630894",
  "longitude": "127.506096"
},
{
  "number": "13",
  "storeName": "현대복권방",
  "phoneNumber": "043-252-8345",
  "address": "충북 청주시 청원구 내덕동 656-36",
  "latitude": "36.656834",
  "longitude": "127.47994"
},
{
  "number": "14",
  "storeName": "행운복권마트",
  "phoneNumber": "043-223-8332",
  "address": "충북 청주시 청원구 율량동 1043-1 1층",
  "latitude": "36.667404",
  "longitude": "127.49325"
},
{
  "number": "15",
  "storeName": "복터져",
  "phoneNumber": "",
  "address": "충북 청주시 청원구 주중동 952번지 103호",
  "latitude": "36.673298",
  "longitude": "127.49006"
},
{
  "number": "16",
  "storeName": "오창구룡점로또복권",
  "phoneNumber": "043-216-1038",
  "address": "충북 청주시 청원구 오창읍 구룡리 401-6 CU편의점",
  "latitude": "36.71101",
  "longitude": "127.41223"
},
{
  "number": "17",
  "storeName": "GS25(청주율량점)",
  "phoneNumber": "043-217-1127",
  "address": "충북 청주시 청원구 율량동 846",
  "latitude": "36.66978",
  "longitude": "127.49136"
},
{
  "number": "18",
  "storeName": "슈퍼오창로또명당",
  "phoneNumber": "",
  "address": "충북 청주시 청원구 오창읍 양청리 749-5",
  "latitude": "36.716908",
  "longitude": "127.42326"
},
{
  "number": "19",
  "storeName": "오창돼지토토",
  "phoneNumber": "043-216-3567",
  "address": "충북 청주시 청원구 오창읍 주성리 547 101호",
  "latitude": "36.73606",
  "longitude": "127.454994"
},
{
  "number": "20",
  "storeName": "로또스튜디오",
  "phoneNumber": "043-216-3927",
  "address": "충북 청주시 청원구 율량동 1410 1층",
  "latitude": "36.66632",
  "longitude": "127.481636"
},
{
  "number": "21",
  "storeName": "SUN마트예대점",
  "phoneNumber": "043-215-1398",
  "address": "충북 청주시 청원구 내덕동 109-10 0",
  "latitude": "36.657642",
  "longitude": "127.494194"
},
{
  "number": "22",
  "storeName": "중앙복권방",
  "phoneNumber": "",
  "address": "충북 청주시 청원구 율량동 2155",
  "latitude": "36.66569",
  "longitude": "127.50039"
},
{
  "number": "23",
  "storeName": "왕대박복권방",
  "phoneNumber": "043-211-2045",
  "address": "충북 청주시 청원구 오창읍 장대리 344",
  "latitude": "36.741875",
  "longitude": "127.454796"
},
{
  "number": "24",
  "storeName": "천억로또",
  "phoneNumber": "",
  "address": "충북 청주시 청원구 사천동 422-5",
  "latitude": "36.663292",
  "longitude": "127.47383"
},
{
  "number": "25",
  "storeName": "로또다 로또",
  "phoneNumber": "043-211-1179",
  "address": "충북 청주시 청원구 오창읍 주성리 640 편의점",
  "latitude": "36.731644",
  "longitude": "127.45042"
},
{
  "number": "26",
  "storeName": "오창명당로또복권방",
  "phoneNumber": "",
  "address": "충북 청주시 청원구 오창읍 주성리 616 102호",
  "latitude": "36.73261",
  "longitude": "127.45087"
}
]