[
{
  "number": "1",
  "storeName": "나눔로또정거장",
  "phoneNumber": "031-241-3544",
  "address": "경기 수원시 장안구 정자동 73-10 1층108호",
  "latitude": "37.29066",
  "longitude": "127.00089"
},
{
  "number": "2",
  "storeName": "복권판매소",
  "phoneNumber": "031-268-2639",
  "address": "경기 수원시 장안구 율전동 99-55",
  "latitude": "37.302837",
  "longitude": "126.97269"
},
{
  "number": "3",
  "storeName": "대박로또판매점",
  "phoneNumber": "031-297-7577",
  "address": "경기 수원시 장안구 율전동 291",
  "latitude": "37.2987",
  "longitude": "126.9713"
},
{
  "number": "4",
  "storeName": "기쁘다복권방",
  "phoneNumber": "031-253-2345",
  "address": "경기 수원시 장안구 송죽동 497-15",
  "latitude": "37.302074",
  "longitude": "127.0068"
},
{
  "number": "5",
  "storeName": "복권나라",
  "phoneNumber": "031-251-9332",
  "address": "경기 수원시 장안구 정자동 534-4 1층",
  "latitude": "37.307343",
  "longitude": "126.99032"
},
{
  "number": "6",
  "storeName": "현대화체인점",
  "phoneNumber": "031-255-2956",
  "address": "경기 수원시 장안구 정자동 46-2",
  "latitude": "37.293037",
  "longitude": "127.00116"
},
{
  "number": "7",
  "storeName": "계경슈퍼",
  "phoneNumber": "031-245-5969",
  "address": "경기 수원시 장안구 영화동 422-43",
  "latitude": "37.28759",
  "longitude": "127.00543"
},
{
  "number": "8",
  "storeName": "일주일행복로또(파장매표소)",
  "phoneNumber": "031-253-7410",
  "address": "경기 수원시 장안구 파장동 572-39",
  "latitude": "37.306763",
  "longitude": "126.99182"
},
{
  "number": "9",
  "storeName": "수일매표소",
  "phoneNumber": "031-242-7196",
  "address": "경기 수원시 장안구 송죽동 445-1",
  "latitude": "37.30585",
  "longitude": "127.001656"
},
{
  "number": "10",
  "storeName": "황금로또방(북문전화국앞)",
  "phoneNumber": "031-246-2520",
  "address": "경기 수원시 장안구 영화동 305-5",
  "latitude": "37.292355",
  "longitude": "127.011246"
},
{
  "number": "11",
  "storeName": "ANY로또",
  "phoneNumber": "031-257-6247",
  "address": "경기 수원시 장안구 조원동 676-12",
  "latitude": "37.293476",
  "longitude": "127.01101"
},
{
  "number": "12",
  "storeName": "영화모음",
  "phoneNumber": "031-268-7667",
  "address": "경기 수원시 장안구 조원동 859-3 뉴타운프라자A-107",
  "latitude": "37.303158",
  "longitude": "127.0161"
},
{
  "number": "13",
  "storeName": "OK25복권방",
  "phoneNumber": "031-243-4773",
  "address": "경기 수원시 장안구 송죽동 195 102호",
  "latitude": "37.306843",
  "longitude": "127.0038"
},
{
  "number": "14",
  "storeName": "운수대통",
  "phoneNumber": "031-244-0366",
  "address": "경기 수원시 장안구 조원동 898-1",
  "latitude": "37.302128",
  "longitude": "127.0092"
},
{
  "number": "15",
  "storeName": "왕대박복권",
  "phoneNumber": "031-255-3775",
  "address": "경기 수원시 장안구 연무동 233-16",
  "latitude": "37.29557",
  "longitude": "127.026146"
},
{
  "number": "16",
  "storeName": "행운이랑대박이랑",
  "phoneNumber": "031-255-5888",
  "address": "경기 수원시 장안구 정자동 333-5",
  "latitude": "37.29886",
  "longitude": "126.99201"
},
{
  "number": "17",
  "storeName": "번개로또복권방",
  "phoneNumber": "070-4157-5441",
  "address": "경기 수원시 장안구 정자동 836-1",
  "latitude": "37.30348",
  "longitude": "126.99677"
},
{
  "number": "18",
  "storeName": "북문복권방",
  "phoneNumber": "031-242-4556",
  "address": "경기 수원시 장안구 영화동 311-12",
  "latitude": "37.29122",
  "longitude": "127.01302"
},
{
  "number": "19",
  "storeName": "주택복권방",
  "phoneNumber": "031-258-5366",
  "address": "경기 수원시 장안구 송죽동 277-26 옆 점포, 같은지번 사용",
  "latitude": "37.304237",
  "longitude": "126.998055"
},
{
  "number": "20",
  "storeName": "한일로또나라",
  "phoneNumber": "031-253-3210",
  "address": "경기 수원시 장안구 조원동 896 북수원홈플러스內",
  "latitude": "37.302593",
  "longitude": "127.00898"
},
{
  "number": "21",
  "storeName": "로또복권방",
  "phoneNumber": "031-258-8419",
  "address": "경기 수원시 장안구 파장동 266-9",
  "latitude": "37.309483",
  "longitude": "126.99453"
},
{
  "number": "22",
  "storeName": "일록로또복권방",
  "phoneNumber": "031-246-5474",
  "address": "경기 수원시 장안구 파장동 581-4",
  "latitude": "37.306023",
  "longitude": "126.99317"
},
{
  "number": "23",
  "storeName": "로또판매점",
  "phoneNumber": "031-255-8003",
  "address": "경기 수원시 장안구 송죽동 504-2",
  "latitude": "37.299847",
  "longitude": "127.00753"
},
{
  "number": "24",
  "storeName": "플러스원",
  "phoneNumber": "031-268-3347",
  "address": "경기 수원시 장안구 천천동 528-3 108호",
  "latitude": "37.295307",
  "longitude": "126.98341"
},
{
  "number": "25",
  "storeName": "공원슈퍼",
  "phoneNumber": "031-246-4278",
  "address": "경기 수원시 장안구 영화동 257-1",
  "latitude": "37.288914",
  "longitude": "127.01315"
},
{
  "number": "26",
  "storeName": "일등로또",
  "phoneNumber": "031-271-1661",
  "address": "경기 수원시 장안구 정자동 877-1 116호",
  "latitude": "37.2961",
  "longitude": "126.99317"
},
{
  "number": "27",
  "storeName": "아!로또",
  "phoneNumber": "031-269-5700",
  "address": "경기 수원시 장안구 정자동 945 604동 101호",
  "latitude": "37.305332",
  "longitude": "126.98473"
},
{
  "number": "28",
  "storeName": "세일마트",
  "phoneNumber": "031-242-3702",
  "address": "경기 수원시 장안구 연무동 193-67",
  "latitude": "37.28855",
  "longitude": "127.02038"
},
{
  "number": "29",
  "storeName": "행운1등복권방",
  "phoneNumber": "031-256-2116",
  "address": "경기 수원시 장안구 정자동 36-23 송학아파트상가 4호",
  "latitude": "37.29549",
  "longitude": "127.0059"
},
{
  "number": "30",
  "storeName": "GS25(수원베스트점)",
  "phoneNumber": "031-269-3893",
  "address": "경기 수원시 장안구 천천동 524-2번지",
  "latitude": "37.297073",
  "longitude": "126.98209"
},
{
  "number": "31",
  "storeName": "복권방",
  "phoneNumber": "031-251-6160",
  "address": "경기 수원시 장안구 영화동 274-19 미니스톱 수원영화점",
  "latitude": "37.291378",
  "longitude": "127.01338"
},
{
  "number": "32",
  "storeName": "행운로또",
  "phoneNumber": "",
  "address": "경기 수원시 장안구 조원동 675-1 1층, 안스파크빌",
  "latitude": "37.295475",
  "longitude": "127.009964"
},
{
  "number": "33",
  "storeName": "한누리",
  "phoneNumber": "",
  "address": "경기 수원시 장안구 조원1동 519-287 1층",
  "latitude": "37.297325",
  "longitude": "127.02054"
}
]
