[
{
  "number": "1",
  "storeName": "행운복권",
  "phoneNumber": "031-795-5536",
  "address": "경기 하남시 풍산동 493 R110호",
  "latitude": "37.539772",
  "longitude": "127.20147"
},
{
  "number": "2",
  "storeName": "로또마트",
  "phoneNumber": "031-794-6668",
  "address": "경기 하남시 풍산동 565 미사강변 아란티움 상가 내",
  "latitude": "37.54294",
  "longitude": "127.20559"
},
{
  "number": "3",
  "storeName": "태원통신",
  "phoneNumber": "031-794-4318",
  "address": "경기 하남시 덕풍동 309-63번지",
  "latitude": "37.543007",
  "longitude": "127.20351"
},
{
  "number": "4",
  "storeName": "재우텔레콤",
  "phoneNumber": "031-793-8016",
  "address": "경기 하남시 신장동 427-29번지",
  "latitude": "37.53987",
  "longitude": "127.20609"
},
{
  "number": "5",
  "storeName": "복권방",
  "phoneNumber": "031-792-2774",
  "address": "경기 하남시 신장동 427-169번지",
  "latitude": "37.538036",
  "longitude": "127.20479"
},
{
  "number": "6",
  "storeName": "행운로또",
  "phoneNumber": "",
  "address": "경기 하남시 망월동 1108-1 101호",
  "latitude": "37.535973",
  "longitude": "127.20643"
},
{
  "number": "7",
  "storeName": "건강마트",
  "phoneNumber": "031-794-4577",
  "address": "경기 하남시 신장동 315-2번지",
  "latitude": "37.547104",
  "longitude": "127.211426"
},
{
  "number": "8",
  "storeName": "복권방",
  "phoneNumber": "031-793-7489",
  "address": "경기 하남시 신장동 406-2번지 1층6호",
  "latitude": "37.540417",
  "longitude": "127.2089"
},
{
  "number": "9",
  "storeName": "바른",
  "phoneNumber": "",
  "address": "경기 하남시 천현동 194-15번지",
  "latitude": "37.535675",
  "longitude": "127.21004"
},
{
  "number": "10",
  "storeName": "GS25(하남천현점)",
  "phoneNumber": "031-791-3494",
  "address": "경기 하남시 천현동 43-10번지",
  "latitude": "37.534817",
  "longitude": "127.22396"
},
{
  "number": "11",
  "storeName": "하남시청 세븐일레븐 로또",
  "phoneNumber": "",
  "address": "경기 하남시 신장동 519 103호 세븐일레븐 편의점",
  "latitude": "37.54057",
  "longitude": "127.21391"
},
{
  "number": "12",
  "storeName": "대박마을복권방",
  "phoneNumber": "031-796-3541",
  "address": "경기 하남시 덕풍동 358-2번지",
  "latitude": "37.541504",
  "longitude": "127.20007"
},
{
  "number": "13",
  "storeName": "복권판매",
  "phoneNumber": "02-485-0220",
  "address": "경기 하남시 덕풍동 373-9",
  "latitude": "37.51587",
  "longitude": "127.14875"
},
{
  "number": "14",
  "storeName": "빵터져복권",
  "phoneNumber": "031-794-0344",
  "address": "경기 하남시 덕풍동 349",
  "latitude": "37.54297",
  "longitude": "127.19871"
},
{
  "number": "15",
  "storeName": "미사로또",
  "phoneNumber": "031-791-1572",
  "address": "경기 하남시 풍산동 470 상가 105호 CU",
  "latitude": "37.55813",
  "longitude": "127.18451"
},
{
  "number": "16",
  "storeName": "드림로또복권",
  "phoneNumber": "02-400-8461",
  "address": "경기 하남시 학암동 504",
  "latitude": "37.478592",
  "longitude": "127.14827"
}
]