[
{
  "number": "1",
  "storeName": "이마트24로또주월점",
  "phoneNumber": "062-675-1319",
  "address": "광주 남구 주월동 412-6",
  "latitude": "35.126015",
  "longitude": "126.89648"
},
{
  "number": "2",
  "storeName": "노다지복권방진월점",
  "phoneNumber": "062-674-3613",
  "address": "광주 남구 진월동 422 1층2호",
  "latitude": "35.118225",
  "longitude": "126.89846"
},
{
  "number": "3",
  "storeName": "대박복권",
  "phoneNumber": "062-652-0828",
  "address": "광주 남구 주월동 1158-12 1층",
  "latitude": "35.13156",
  "longitude": "126.90543"
},
{
  "number": "4",
  "storeName": "다운다운",
  "phoneNumber": "062-365-6990",
  "address": "광주 남구 월산동 377-17 다운다운마트 내",
  "latitude": "35.105385",
  "longitude": "126.90507"
},
{
  "number": "5",
  "storeName": "씨유 진월지구점",
  "phoneNumber": "062-651-6008",
  "address": "광주 남구 노대동 852 CU진월지구점",
  "latitude": "35.122124",
  "longitude": "126.89817"
},
{
  "number": "6",
  "storeName": "월드복권",
  "phoneNumber": "062-653-0067",
  "address": "광주 남구 방림동 566번지 방림광신프로그레스상가112동 지하층 101호 이마트에브리데이 내",
  "latitude": "35.131855",
  "longitude": "126.9194"
},
{
  "number": "7",
  "storeName": "예스로또복권",
  "phoneNumber": "062-433-6009",
  "address": "광주 남구 방림동 119-16번지",
  "latitude": "35.135563",
  "longitude": "126.91829"
},
{
  "number": "8",
  "storeName": "영웅기획",
  "phoneNumber": "062-431-4345",
  "address": "광주 남구 월산동 120-21번지",
  "latitude": "35.14051",
  "longitude": "126.90179"
},
{
  "number": "9",
  "storeName": "훼미리로또",
  "phoneNumber": "062-654-0613",
  "address": "광주 남구 봉선동 111-4 CU봉선쌍용점 내",
  "latitude": "35.122803",
  "longitude": "126.91299"
},
{
  "number": "10",
  "storeName": "노다지복권방백운점",
  "phoneNumber": "062-673-0052",
  "address": "광주 남구 주월동 369",
  "latitude": "35.1319",
  "longitude": "126.900154"
},
{
  "number": "11",
  "storeName": "동원슈퍼",
  "phoneNumber": "062-362-3406",
  "address": "광주 남구 월산동 1053-22번지",
  "latitude": "35.137062",
  "longitude": "126.896675"
},
{
  "number": "12",
  "storeName": "대중슈퍼",
  "phoneNumber": "062-673-9501",
  "address": "광주 남구 주월동 1266-9번지 대중슈퍼",
  "latitude": "35.13246",
  "longitude": "126.90757"
},
{
  "number": "13",
  "storeName": "다비상사",
  "phoneNumber": "062-674-1283",
  "address": "광주 남구 봉선동 940-3번지 CU 봉선점",
  "latitude": "35.13283",
  "longitude": "126.910805"
},
{
  "number": "14",
  "storeName": "광주도서유통",
  "phoneNumber": "062-671-5739",
  "address": "광주 남구 봉선동 1037-7",
  "latitude": "35.12812",
  "longitude": "126.913895"
},
{
  "number": "15",
  "storeName": "홍삼나라",
  "phoneNumber": "062-654-0325",
  "address": "광주 남구 봉선동 1040-12",
  "latitude": "35.12738",
  "longitude": "126.91142"
},
{
  "number": "16",
  "storeName": "CU(광주서동점)",
  "phoneNumber": "062-674-5960",
  "address": "광주 남구 서동 13-2",
  "latitude": "35.148144",
  "longitude": "126.905594"
},
{
  "number": "17",
  "storeName": "CU(광주지석중앙점)",
  "phoneNumber": "062-382-1701",
  "address": "광주 남구 지석동 323-3번지",
  "latitude": "35.08336",
  "longitude": "126.82994"
},
{
  "number": "18",
  "storeName": "대박행운드림",
  "phoneNumber": "062-651-3651",
  "address": "광주 남구 행암동 539 CU광주효천점내",
  "latitude": "35.136616",
  "longitude": "126.89466"
},
{
  "number": "19",
  "storeName": "대야지복권",
  "phoneNumber": "062-653-6965",
  "address": "광주 남구 주월동 961-24번지",
  "latitude": "35.134705",
  "longitude": "126.898026"
},
{
  "number": "20",
  "storeName": "씨유주월일등점나눔로또",
  "phoneNumber": "062-651-3540",
  "address": "광주 남구 주월동 1264-6",
  "latitude": "35.13323",
  "longitude": "126.90653"
},
{
  "number": "21",
  "storeName": "행운드림",
  "phoneNumber": "",
  "address": "광주 남구 주월동 968-26",
  "latitude": "35.13306",
  "longitude": "126.896065"
}
]