[
{
  "number": "1",
  "storeName": "파크애비뉴",
  "phoneNumber": "070-8249-0823",
  "address": "경기 화성시 반송동 47-3 102호",
  "latitude": "37.208008",
  "longitude": "127.06255"
},
{
  "number": "2",
  "storeName": "파란만장복권방",
  "phoneNumber": "031-224-1696",
  "address": "경기 화성시 진안동 878-4 101호",
  "latitude": "37.212376",
  "longitude": "127.03885"
},
{
  "number": "3",
  "storeName": "올인(allin)",
  "phoneNumber": "031-353-5311",
  "address": "경기 화성시 향남읍 장짐리 273-3",
  "latitude": "37.13527",
  "longitude": "126.910614"
},
{
  "number": "4",
  "storeName": "창미슈퍼",
  "phoneNumber": "031-355-9933",
  "address": "경기 화성시 남양읍 남양리 1270-3",
  "latitude": "37.210106",
  "longitude": "126.81964"
},
{
  "number": "5",
  "storeName": "로또복권",
  "phoneNumber": "031-357-1264",
  "address": "경기 화성시 송산면 사강리 672-4",
  "latitude": "37.21305",
  "longitude": "126.73418"
},
{
  "number": "6",
  "storeName": "복돼지복권방",
  "phoneNumber": "031-351-0399",
  "address": "경기 화성시 우정읍 조암리 290-12",
  "latitude": "37.08338",
  "longitude": "126.81769"
},
{
  "number": "7",
  "storeName": "로뎀",
  "phoneNumber": "031-232-4215",
  "address": "경기 화성시 남양읍 북양리 524 미니스톱 편의점내",
  "latitude": "37.211895",
  "longitude": "126.85549"
},
{
  "number": "8",
  "storeName": "로또왕대박",
  "phoneNumber": "031-222-1816",
  "address": "경기 화성시 봉담읍 와우리 75-6 1층",
  "latitude": "37.215237",
  "longitude": "126.9773"
},
{
  "number": "9",
  "storeName": "천하명당복권방",
  "phoneNumber": "070-4208-8132",
  "address": "경기 화성시 남양읍 남양리 1267-5",
  "latitude": "37.209858",
  "longitude": "126.8182"
},
{
  "number": "10",
  "storeName": "예인기획",
  "phoneNumber": "031-353-9841",
  "address": "경기 화성시 향남읍 평리 32-1",
  "latitude": "37.133812",
  "longitude": "126.90977"
},
{
  "number": "11",
  "storeName": "봉담복자리복권과편의점",
  "phoneNumber": "031-227-0071",
  "address": "경기 화성시 봉담읍 상리 27-11",
  "latitude": "37.21965",
  "longitude": "126.94882"
},
{
  "number": "12",
  "storeName": "명성복권방",
  "phoneNumber": "031-232-9411",
  "address": "경기 화성시 진안동 525-58",
  "latitude": "37.208397",
  "longitude": "127.03433"
},
{
  "number": "13",
  "storeName": "한방복권방",
  "phoneNumber": "031-267-1019",
  "address": "경기 화성시 안녕동 19-6",
  "latitude": "37.20511",
  "longitude": "127.014084"
},
{
  "number": "14",
  "storeName": "율암25시편의점",
  "phoneNumber": "031-354-2626",
  "address": "경기 화성시 팔탄면 율암리 481-2",
  "latitude": "37.165916",
  "longitude": "126.88151"
},
{
  "number": "15",
  "storeName": "대박예감",
  "phoneNumber": "031-205-2729",
  "address": "경기 화성시 반월동 30",
  "latitude": "37.23591",
  "longitude": "127.06215"
},
{
  "number": "16",
  "storeName": "프랜드편의점",
  "phoneNumber": "031-352-5929",
  "address": "경기 화성시 향남읍 평리 109-6",
  "latitude": "37.13196",
  "longitude": "126.90798"
},
{
  "number": "17",
  "storeName": "서해로또방",
  "phoneNumber": "070-4274-8801",
  "address": "경기 화성시 남양읍 북양리 56-1",
  "latitude": "37.223183",
  "longitude": "126.84238"
},
{
  "number": "18",
  "storeName": "광장복권판매점",
  "phoneNumber": "031-374-0066",
  "address": "경기 화성시 반송동 87-4",
  "latitude": "37.2066",
  "longitude": "127.07426"
},
{
  "number": "19",
  "storeName": "플러스로또",
  "phoneNumber": "031-355-2211",
  "address": "경기 화성시 마도면 두곡리 452-6",
  "latitude": "37.204357",
  "longitude": "126.78473"
},
{
  "number": "20",
  "storeName": "일등대박복권",
  "phoneNumber": "031-203-2250",
  "address": "경기 화성시 반월동 342 cu화성반월점",
  "latitude": "37.229206",
  "longitude": "127.06462"
},
{
  "number": "21",
  "storeName": "동탄복권방",
  "phoneNumber": "031-373-7222",
  "address": "경기 화성시 영천동 681-4 성산타워 B동 101호",
  "latitude": "37.20738",
  "longitude": "127.11096"
},
{
  "number": "22",
  "storeName": "포유로또",
  "phoneNumber": "031-297-3651",
  "address": "경기 화성시 봉담읍 동화리 599-4 웅신프라자 1층 109호",
  "latitude": "37.216576",
  "longitude": "126.95886"
},
{
  "number": "23",
  "storeName": "향남복권",
  "phoneNumber": "070-8845-6041",
  "address": "경기 화성시 향남읍 행정리 455-2",
  "latitude": "37.127235",
  "longitude": "126.91473"
},
{
  "number": "24",
  "storeName": "화랑로또방",
  "phoneNumber": "031-354-3554",
  "address": "경기 화성시 팔탄면 구장리 23-22",
  "latitude": "37.167343",
  "longitude": "126.89573"
},
{
  "number": "25",
  "storeName": "행운슈퍼",
  "phoneNumber": "031-226-9370",
  "address": "경기 화성시 병점동 345-77 106호",
  "latitude": "37.208263",
  "longitude": "127.03755"
},
{
  "number": "26",
  "storeName": "팡팡편의점",
  "phoneNumber": "031-352-0618",
  "address": "경기 화성시 양감면 송산리 5-25",
  "latitude": "37.12252",
  "longitude": "126.99543"
},
{
  "number": "27",
  "storeName": "나눔로또 신동탄점",
  "phoneNumber": "031-8015-0645",
  "address": "경기 화성시 능동 1098-8",
  "latitude": "37.21584",
  "longitude": "127.056175"
},
{
  "number": "28",
  "storeName": "동탄 반송 복권방",
  "phoneNumber": "031-613-1489",
  "address": "경기 화성시 반송동 14-1 103호",
  "latitude": "37.210533",
  "longitude": "127.068214"
},
{
  "number": "29",
  "storeName": "1등로또",
  "phoneNumber": "",
  "address": "경기 화성시 오산동 489-1 101호",
  "latitude": "37.183376",
  "longitude": "127.10324"
},
{
  "number": "30",
  "storeName": "황금복권방",
  "phoneNumber": "",
  "address": "경기 화성시 병점동 408-8",
  "latitude": "37.20565",
  "longitude": "127.03886"
},
{
  "number": "31",
  "storeName": "스피드",
  "phoneNumber": "031-8003-6674",
  "address": "경기 화성시 능동 1080-8 102호",
  "latitude": "37.213486",
  "longitude": "127.0635"
},
{
  "number": "32",
  "storeName": "행복한세상",
  "phoneNumber": "031-356-6977",
  "address": "경기 화성시 비봉면 자안리 664",
  "latitude": "37.198177",
  "longitude": "126.87601"
},
{
  "number": "33",
  "storeName": "송산로또천하",
  "phoneNumber": "",
  "address": "경기 화성시 송산면 봉가리 142-1 제A동 5호",
  "latitude": "37.203697",
  "longitude": "126.98227"
},
{
  "number": "34",
  "storeName": "대박로또점",
  "phoneNumber": "",
  "address": "경기 화성시 장안면 석포리 134-4 104호, 복권방",
  "latitude": "37.12152",
  "longitude": "126.8315"
},
{
  "number": "35",
  "storeName": "동명로또",
  "phoneNumber": "",
  "address": "경기 화성시 동탄면 방교리 753-5 103호",
  "latitude": "37.182606",
  "longitude": "127.08964"
},
{
  "number": "36",
  "storeName": "절대복권",
  "phoneNumber": "031-377-8086",
  "address": "경기 화성시 영천동 654-7 101호",
  "latitude": "37.207237",
  "longitude": "127.09767"
},
{
  "number": "37",
  "storeName": "복권판매점",
  "phoneNumber": "",
  "address": "경기 화성시 마도면 청원리 1259-1 101호",
  "latitude": "37.177532",
  "longitude": "126.76662"
},
{
  "number": "38",
  "storeName": "동탄복합문화센터복권판매점",
  "phoneNumber": "",
  "address": "경기 화성시 반송동 106-5 제1층 107호",
  "latitude": "37.200836",
  "longitude": "126.82847"
},
{
  "number": "39",
  "storeName": "해뜰날수퍼",
  "phoneNumber": "",
  "address": "경기 화성시 기안동 338-3 103호",
  "latitude": "37.22604",
  "longitude": "126.97244"
},
{
  "number": "40",
  "storeName": "타임로또",
  "phoneNumber": "031-357-5088",
  "address": "경기 화성시 청계동 535-1 포드센트럴시티 115호 세븐일레븐",
  "latitude": "37.200356",
  "longitude": "127.11299"
},
{
  "number": "41",
  "storeName": "로또명당",
  "phoneNumber": "",
  "address": "경기 화성시 석우동 31-3 제1층 104호",
  "latitude": "37.21818",
  "longitude": "127.07787"
},
{
  "number": "42",
  "storeName": "금손",
  "phoneNumber": "031-373-7482",
  "address": "경기 화성시 팔탄면 창곡리 1027-2 1층 CU편의점",
  "latitude": "37.174816",
  "longitude": "126.89091"
},
{
  "number": "43",
  "storeName": "복권랜드",
  "phoneNumber": "031-353-3573",
  "address": "경기 화성시 양감면 용소리 917",
  "latitude": "37.07724",
  "longitude": "126.97018"
},
{
  "number": "44",
  "storeName": "위드유로또",
  "phoneNumber": "",
  "address": "경기 화성시 송산면 삼존리 750-2 1층",
  "latitude": "37.212036",
  "longitude": "126.756516"
},
{
  "number": "45",
  "storeName": "궁평항대박명당",
  "phoneNumber": "",
  "address": "경기 화성시 서신면 궁평리 649-33",
  "latitude": "37.213997",
  "longitude": "127.04066"
},
{
  "number": "46",
  "storeName": "이마트24 로또정남점",
  "phoneNumber": "031-8003-6263",
  "address": "경기 화성시 정남면 덕절리 231-9 이마트24 편의점",
  "latitude": "37.13145",
  "longitude": "127.01961"
},
{
  "number": "47",
  "storeName": "대박복권",
  "phoneNumber": "",
  "address": "경기 화성시 팔탄면 서근리 229-3 세븐일레븐",
  "latitude": "37.126297",
  "longitude": "126.85775"
},
{
  "number": "48",
  "storeName": "나눔로또",
  "phoneNumber": "031-8059-0719",
  "address": "경기 화성시 향남읍 하길리 1473 101호",
  "latitude": "37.112648",
  "longitude": "126.91407"
},
{
  "number": "49",
  "storeName": "정현로또",
  "phoneNumber": "031-353-3061",
  "address": "경기 화성시 팔탄면 해창리 164-1 1층 GS25편의점",
  "latitude": "37.108532",
  "longitude": "126.87133"
},
{
  "number": "50",
  "storeName": "찬스",
  "phoneNumber": "",
  "address": "경기 화성시 봉담읍 수기리 1-164 제1층 편의점",
  "latitude": "37.102966",
  "longitude": "126.84236"
},
{
  "number": "51",
  "storeName": "노다지복권방",
  "phoneNumber": "031-356-5522",
  "address": "경기 화성시 남양읍 남양리 2294-1 제1층 103호",
  "latitude": "37.205135",
  "longitude": "126.82096"
},
{
  "number": "52",
  "storeName": "행운플러스",
  "phoneNumber": "031-354-3321",
  "address": "경기 화성시 향남읍 평리 172-3",
  "latitude": "37.128616",
  "longitude": "126.90831"
},
{
  "number": "53",
  "storeName": "행운가득복권",
  "phoneNumber": "031-204-6687",
  "address": "경기 화성시 반정동 607 CU반정삼성점",
  "latitude": "37.24698",
  "longitude": "127.04149"
},
{
  "number": "54",
  "storeName": "행운나눔로또방",
  "phoneNumber": "031-352-3124",
  "address": "경기 화성시 향남읍 하길리 1459-5",
  "latitude": "37.117794",
  "longitude": "126.915344"
},
{
  "number": "55",
  "storeName": "동탄역 일등 복권방",
  "phoneNumber": "",
  "address": "경기 화성시 동탄6동 967-150 라스플로레스 제1층 1038호",
  "latitude": "37.197636",
  "longitude": "127.09778"
},
{
  "number": "56",
  "storeName": "1등을 꿈꾸는 로또매니아",
  "phoneNumber": "",
  "address": "경기 화성시 안녕동 37-98 1층",
  "latitude": "37.203022",
  "longitude": "127.0132"
},
{
  "number": "57",
  "storeName": "행복드림",
  "phoneNumber": "",
  "address": "경기 화성시 반송동 103-3 104호",
  "latitude": "37.201874",
  "longitude": "127.07179"
},
{
  "number": "58",
  "storeName": "맨투맨",
  "phoneNumber": "031-357-0440",
  "address": "경기 화성시 마도면 쌍송리 662 나동 101호",
  "latitude": "37.185738",
  "longitude": "126.79022"
},
{
  "number": "59",
  "storeName": "서신로또편의점(대박상사)",
  "phoneNumber": "031-356-3375",
  "address": "경기 화성시 서신면 매화리 505-1 1층",
  "latitude": "37.161736",
  "longitude": "126.70704"
},
{
  "number": "60",
  "storeName": "남양제일로또",
  "phoneNumber": "",
  "address": "경기 화성시 남양읍 남양리 415-3 우림그린빌리지 단지내 상가 B동 110호",
  "latitude": "37.20516",
  "longitude": "126.80504"
},
{
  "number": "61",
  "storeName": "신영통",
  "phoneNumber": "",
  "address": "경기 화성시 반월동 160-14",
  "latitude": "37.233524",
  "longitude": "127.063416"
},
{
  "number": "62",
  "storeName": "미래 로또복권 판매점",
  "phoneNumber": "",
  "address": "경기 화성시 동탄3동 1162-1 제1층 102호",
  "latitude": "37.19797",
  "longitude": "127.05226"
},
{
  "number": "63",
  "storeName": "착한동행복권",
  "phoneNumber": "",
  "address": "경기 화성시 동탄5동 681-8 제1층 109호",
  "latitude": "37.206436",
  "longitude": "127.11171"
}
]