[
{
  "number": "1",
  "storeName": "GS25(이문쌍용점)",
  "phoneNumber": "",
  "address": "서울 동대문구 이문동 64 쌍용아파트 상가 1층-103",
  "latitude": "37.60075",
  "longitude": "127.06877"
},
{
  "number": "2",
  "storeName": "CU(촬영소사거리점)",
  "phoneNumber": "02-2212-2950",
  "address": "서울 동대문구 장안동 141-10번지",
  "latitude": "37.572876",
  "longitude": "127.06679"
},
{
  "number": "3",
  "storeName": "CU(홍릉점)",
  "phoneNumber": "02-968-1986",
  "address": "서울 동대문구 청량리동 520-55번지",
  "latitude": "37.586845",
  "longitude": "127.04118"
},
{
  "number": "4",
  "storeName": "CU(휘경주공점)",
  "phoneNumber": "02-2214-2752",
  "address": "서울 동대문구 휘경동 57-1번지",
  "latitude": "37.584263",
  "longitude": "127.06835"
},
{
  "number": "5",
  "storeName": "GS25(경희점)",
  "phoneNumber": "02-962-2525",
  "address": "서울 동대문구 회기동 36-26번지",
  "latitude": "37.592773",
  "longitude": "127.05229"
},
{
  "number": "6",
  "storeName": "대박",
  "phoneNumber": "02-2212-7072",
  "address": "서울 동대문구 답십리동 495-1번지",
  "latitude": "37.567436",
  "longitude": "127.052376"
},
{
  "number": "7",
  "storeName": "장안홈타운",
  "phoneNumber": "02-2244-3661",
  "address": "서울 동대문구 장안동 355-1",
  "latitude": "37.56794",
  "longitude": "127.07382"
},
{
  "number": "8",
  "storeName": "로또마트",
  "phoneNumber": "02-2243-1696",
  "address": "서울 동대문구 장안동 418-11번지 1층 4호",
  "latitude": "37.562553",
  "longitude": "127.06349"
},
{
  "number": "9",
  "storeName": "준로또",
  "phoneNumber": "02-2215-2359",
  "address": "서울 동대문구 장안동 427-2",
  "latitude": "37.566616",
  "longitude": "127.06572"
},
{
  "number": "10",
  "storeName": "롯데마트999(회기점)",
  "phoneNumber": "02-965-5093",
  "address": "서울 동대문구 회기동 60-125번지 롯데마트999내 위치함.",
  "latitude": "37.591293",
  "longitude": "127.05002"
},
{
  "number": "11",
  "storeName": "우성빨래방",
  "phoneNumber": "02-2217-7890",
  "address": "서울 동대문구 장안동 306-3번지 우성휠포커스텔1층104호",
  "latitude": "37.573437",
  "longitude": "127.071526"
},
{
  "number": "12",
  "storeName": "성경스튜디오",
  "phoneNumber": "02-963-4577",
  "address": "서울 동대문구 청량리동 678번지",
  "latitude": "37.583183",
  "longitude": "127.043846"
},
{
  "number": "13",
  "storeName": "세븐로또",
  "phoneNumber": "02-961-3406",
  "address": "서울 동대문구 용두동 40-4번지",
  "latitude": "37.576088",
  "longitude": "127.037796"
},
{
  "number": "14",
  "storeName": "꽃돼지로또방",
  "phoneNumber": "02-2249-2814",
  "address": "서울 동대문구 답십리동 469-1",
  "latitude": "37.570137",
  "longitude": "127.07343"
},
{
  "number": "15",
  "storeName": "청량로또",
  "phoneNumber": "02-967-6354",
  "address": "서울 동대문구 청량리동 53-20",
  "latitude": "37.575455",
  "longitude": "127.02487"
},
{
  "number": "16",
  "storeName": "명당복권",
  "phoneNumber": "02-969-0959",
  "address": "서울 동대문구 용두동 711-4번지 가판",
  "latitude": "37.577896",
  "longitude": "127.035736"
},
{
  "number": "17",
  "storeName": "종합가판점",
  "phoneNumber": "02-959-5686",
  "address": "서울 동대문구 전농동 620-69 청량리역 4번출구 가판점",
  "latitude": "37.580017",
  "longitude": "127.04475"
},
{
  "number": "18",
  "storeName": "신나라복권나라",
  "phoneNumber": "02-968-8438",
  "address": "서울 동대문구 이문동 258-51",
  "latitude": "37.600056",
  "longitude": "127.062126"
},
{
  "number": "19",
  "storeName": "살맛나는 세상",
  "phoneNumber": "02-2214-3463",
  "address": "서울 동대문구 장안동 93-86 GS25시 휘경주공점",
  "latitude": "37.56269",
  "longitude": "127.06812"
},
{
  "number": "20",
  "storeName": "로또가맹점",
  "phoneNumber": "02-2213-7058",
  "address": "서울 동대문구 신설동 98-27 101호",
  "latitude": "37.571587",
  "longitude": "127.07461"
},
{
  "number": "21",
  "storeName": "토큰박스",
  "phoneNumber": "02-957-1538",
  "address": "서울 동대문구 이문동 329-1 외대앞 버스정류장",
  "latitude": "37.595573",
  "longitude": "127.059586"
},
{
  "number": "22",
  "storeName": "로또판매점",
  "phoneNumber": "02-963-3288",
  "address": "서울 동대문구 청량리동 741",
  "latitude": "37.580704",
  "longitude": "127.044304"
},
{
  "number": "23",
  "storeName": "천하명당복권방",
  "phoneNumber": "02-2214-3221",
  "address": "서울 동대문구 답십리동 99-22번지",
  "latitude": "37.57439",
  "longitude": "127.05733"
},
{
  "number": "24",
  "storeName": "행운복권방",
  "phoneNumber": "02-968-1717",
  "address": "서울 동대문구 답십리동 490-98번지",
  "latitude": "37.567337",
  "longitude": "127.05589"
},
{
  "number": "25",
  "storeName": "노다지",
  "phoneNumber": "02-2248-3728",
  "address": "서울 동대문구 답십리동 12-18번지",
  "latitude": "37.56679",
  "longitude": "127.06183"
},
{
  "number": "26",
  "storeName": "투데이",
  "phoneNumber": "02-923-5450",
  "address": "서울 동대문구 용두동 118-81 1층",
  "latitude": "37.57408",
  "longitude": "127.03099"
},
{
  "number": "27",
  "storeName": "채널큐",
  "phoneNumber": "02-2212-8827",
  "address": "서울 동대문구 답십리동 496-17번지 훼미리마트 내 위치함",
  "latitude": "37.56792",
  "longitude": "127.05172"
},
{
  "number": "28",
  "storeName": "돈우리",
  "phoneNumber": "02-2249-5228",
  "address": "서울 동대문구 답십리동 902번지",
  "latitude": "37.56955",
  "longitude": "127.06398"
},
{
  "number": "29",
  "storeName": "보성정보통신",
  "phoneNumber": "02-2217-1016",
  "address": "서울 동대문구 장안동 464-6번지",
  "latitude": "37.561882",
  "longitude": "127.06649"
},
{
  "number": "30",
  "storeName": "행운을드립니다",
  "phoneNumber": "02-2212-0170",
  "address": "서울 동대문구 장안동 312-1번지",
  "latitude": "37.577415",
  "longitude": "127.07243"
},
{
  "number": "31",
  "storeName": "바이더웨이",
  "phoneNumber": "02-967-1100",
  "address": "서울 동대문구 이문동 283-12번지",
  "latitude": "37.603252",
  "longitude": "127.0651"
},
{
  "number": "32",
  "storeName": "한양슈퍼",
  "phoneNumber": "02-2237-2730",
  "address": "서울 동대문구 신설동 104-30",
  "latitude": "37.59117",
  "longitude": "127.05566"
},
{
  "number": "33",
  "storeName": "하나로슈퍼",
  "phoneNumber": "02-964-8348",
  "address": "서울 동대문구 제기동 844번지",
  "latitude": "37.582718",
  "longitude": "127.03882"
},
{
  "number": "34",
  "storeName": "엔마트",
  "phoneNumber": "02-2244-2840",
  "address": "서울 동대문구 장안동 304-5번지",
  "latitude": "37.57539",
  "longitude": "127.07128"
},
{
  "number": "35",
  "storeName": "그린슈퍼",
  "phoneNumber": "02-2248-6374",
  "address": "서울 동대문구 용두동 24-4",
  "latitude": "37.574482",
  "longitude": "127.0488"
},
{
  "number": "36",
  "storeName": "미래마트",
  "phoneNumber": "02-2244-2677",
  "address": "서울 동대문구 장안동 309-3번지",
  "latitude": "37.57334",
  "longitude": "127.07212"
},
{
  "number": "37",
  "storeName": "일등복권방",
  "phoneNumber": "02-2213-6803",
  "address": "서울 동대문구 전농동 38-12번지",
  "latitude": "37.577827",
  "longitude": "127.05884"
},
{
  "number": "38",
  "storeName": "경성식품",
  "phoneNumber": "02-2243-2680",
  "address": "서울 동대문구 휘경동 192-5번지",
  "latitude": "37.590366",
  "longitude": "127.06004"
},
{
  "number": "39",
  "storeName": "위드미 외대이문점",
  "phoneNumber": "02-960-5189",
  "address": "서울 동대문구 이문동 120-36번지",
  "latitude": "37.59735",
  "longitude": "127.06494"
},
{
  "number": "40",
  "storeName": "경복식품",
  "phoneNumber": "02-924-6044",
  "address": "서울 동대문구 용두동 193-78번지",
  "latitude": "37.581234",
  "longitude": "127.02955"
},
{
  "number": "41",
  "storeName": "복권명당",
  "phoneNumber": "02-960-3168",
  "address": "서울 동대문구 제기동 621-7",
  "latitude": "37.57736",
  "longitude": "127.032326"
},
{
  "number": "42",
  "storeName": "이가복권방",
  "phoneNumber": "02-2245-3203",
  "address": "서울 동대문구 전농동 644-90",
  "latitude": "37.571674",
  "longitude": "127.073654"
},
{
  "number": "43",
  "storeName": "현대비디오",
  "phoneNumber": "02-2248-0631",
  "address": "서울 동대문구 장안동 389-1번지",
  "latitude": "37.57183",
  "longitude": "127.06865"
},
{
  "number": "44",
  "storeName": "참텔레콤",
  "phoneNumber": "02-2217-3011",
  "address": "서울 동대문구 답십리동 53-6번지",
  "latitude": "37.572628",
  "longitude": "127.05765"
},
{
  "number": "45",
  "storeName": "대박복권",
  "phoneNumber": "02-2217-2244",
  "address": "서울 동대문구 답십리동 80번지 청솔우성아파트상가115호",
  "latitude": "37.57462",
  "longitude": "127.060036"
},
{
  "number": "46",
  "storeName": "금화당안경원",
  "phoneNumber": "02-2214-2841",
  "address": "서울 동대문구 장안동 430-9번지",
  "latitude": "37.564327",
  "longitude": "127.06578"
},
{
  "number": "47",
  "storeName": "웨이스탑(전농점)",
  "phoneNumber": "02-2249-8162",
  "address": "서울 동대문구 전농동 295-143번지",
  "latitude": "37.57646",
  "longitude": "127.05751"
},
{
  "number": "48",
  "storeName": "유니온복권",
  "phoneNumber": "02-965-5747",
  "address": "서울 동대문구 장안동 119-18",
  "latitude": "37.57647",
  "longitude": "127.06793"
},
{
  "number": "49",
  "storeName": "형제상회",
  "phoneNumber": "02-927-7260",
  "address": "서울 동대문구 용두동 127-38",
  "latitude": "37.572224",
  "longitude": "127.030304"
},
{
  "number": "50",
  "storeName": "선일상회",
  "phoneNumber": "02-966-1218",
  "address": "서울 동대문구 청량리동 235-4번지 미주상가1층31호",
  "latitude": "37.582005",
  "longitude": "127.04713"
},
{
  "number": "51",
  "storeName": "노다지복권방",
  "phoneNumber": "02-926-8471",
  "address": "서울 동대문구 신설동 84-1번지",
  "latitude": "37.576286",
  "longitude": "127.023926"
},
{
  "number": "52",
  "storeName": "복권나라",
  "phoneNumber": "02-2232-7078",
  "address": "서울 동대문구 신설동 103-3번지 광일빌딩102호",
  "latitude": "37.574707",
  "longitude": "127.02448"
},
{
  "number": "53",
  "storeName": "복권",
  "phoneNumber": "02-963-4061",
  "address": "서울 동대문구 이문동 237-107번지",
  "latitude": "37.603115",
  "longitude": "127.06585"
},
{
  "number": "54",
  "storeName": "로또토토답십리래미안",
  "phoneNumber": "02-2217-0645",
  "address": "서울 동대문구 장안동 108-6",
  "latitude": "37.57814",
  "longitude": "127.06855"
},
{
  "number": "55",
  "storeName": "샛별로또",
  "phoneNumber": "02-2245-8715",
  "address": "서울 동대문구 장안동 375-8번지 공감대빌딩cu내 위치함",
  "latitude": "37.56753",
  "longitude": "127.06798"
},
{
  "number": "56",
  "storeName": "명당복권방",
  "phoneNumber": "02-2249-1235",
  "address": "서울 동대문구 장안동 98-6번지",
  "latitude": "37.579586",
  "longitude": "127.07029"
},
{
  "number": "57",
  "storeName": "로또벤처빌판매점",
  "phoneNumber": "02-2215-7717",
  "address": "서울 동대문구 장안동 374-11번지 진성빌딩1층미니스톱내 위치함.",
  "latitude": "37.56876",
  "longitude": "127.06879"
},
{
  "number": "58",
  "storeName": "제일복권",
  "phoneNumber": "070-8916-1071",
  "address": "서울 동대문구 휘경동 319-1번지",
  "latitude": "37.58981",
  "longitude": "127.05734"
},
{
  "number": "59",
  "storeName": "J수퍼",
  "phoneNumber": "02-960-0592",
  "address": "서울 동대문구 청량리동 258",
  "latitude": "37.58633",
  "longitude": "127.04142"
},
{
  "number": "60",
  "storeName": "복권천국",
  "phoneNumber": "02-2212-7660",
  "address": "서울 동대문구 답십리동 266-1번지",
  "latitude": "37.568233",
  "longitude": "127.057274"
},
{
  "number": "61",
  "storeName": "북앤파트너",
  "phoneNumber": "02-2242-7047",
  "address": "서울 동대문구 장안동 188-17번지",
  "latitude": "37.568913",
  "longitude": "127.06404"
},
{
  "number": "62",
  "storeName": "미니상회",
  "phoneNumber": "02-960-5804",
  "address": "서울 동대문구 제기동 652-2번지 가판",
  "latitude": "37.579475",
  "longitude": "127.042046"
},
{
  "number": "63",
  "storeName": "네잎클로버복권방",
  "phoneNumber": "02-2212-6881",
  "address": "서울 동대문구 장안동 286-1",
  "latitude": "37.578537",
  "longitude": "127.07035"
},
{
  "number": "64",
  "storeName": "현대복권방",
  "phoneNumber": "02-967-4441",
  "address": "서울 동대문구 청량리동 719번지",
  "latitude": "37.581875",
  "longitude": "127.04412"
},
{
  "number": "65",
  "storeName": "고대잉크복권방",
  "phoneNumber": "02-3390-0398",
  "address": "서울 동대문구 이문동 336-3",
  "latitude": "37.603252",
  "longitude": "127.0651"
},
{
  "number": "66",
  "storeName": "GS25(답십리역점)",
  "phoneNumber": "02-2244-1025",
  "address": "서울 동대문구 답십리동 994",
  "latitude": "37.5705",
  "longitude": "127.050224"
},
{
  "number": "67",
  "storeName": "GS25(시립대점)",
  "phoneNumber": "02-2249-1700",
  "address": "서울 동대문구 전농동 103-340번지",
  "latitude": "37.57845",
  "longitude": "127.057686"
},
{
  "number": "68",
  "storeName": "CU(용두으뜸점)",
  "phoneNumber": "02-923-0223",
  "address": "서울 동대문구 용두동 730-1번지",
  "latitude": "37.581207",
  "longitude": "127.027794"
},
{
  "number": "69",
  "storeName": "CU(경동사거리점)",
  "phoneNumber": "02-959-2391",
  "address": "서울 동대문구 용두동 52-1번지",
  "latitude": "37.57744",
  "longitude": "127.037445"
},
{
  "number": "70",
  "storeName": "수정슈퍼",
  "phoneNumber": "",
  "address": "서울 동대문구 전농동 2-42",
  "latitude": "37.58009",
  "longitude": "127.065895"
}
]