[
{
  "number": "1",
  "storeName": "양대로또판매점",
  "phoneNumber": "041-668-4242",
  "address": "충남 서산시 동문동 259-7 113호",
  "latitude": "36.77776",
  "longitude": "126.45994"
},
{
  "number": "2",
  "storeName": "서산로또명당점",
  "phoneNumber": "",
  "address": "충남 서산시 석남동 663-3 세븐일레븐편의점 옆",
  "latitude": "36.771255",
  "longitude": "126.436646"
},
{
  "number": "3",
  "storeName": "디포복권방",
  "phoneNumber": "041-665-0426",
  "address": "충남 서산시 대산리 197-8",
  "latitude": "36.939407",
  "longitude": "126.43211"
},
{
  "number": "4",
  "storeName": "필로또복권",
  "phoneNumber": "041-681-6664",
  "address": "충남 서산시 예천동 1280-1 1층",
  "latitude": "36.766735",
  "longitude": "126.44257"
},
{
  "number": "5",
  "storeName": "대박로또토토판매점",
  "phoneNumber": "041-665-0343",
  "address": "충남 서산시 동문동 661-2번지",
  "latitude": "36.787888",
  "longitude": "126.45672"
},
{
  "number": "6",
  "storeName": "시민슈퍼",
  "phoneNumber": "041-681-5979",
  "address": "충남 서산시 읍내동 606-2",
  "latitude": "36.78563",
  "longitude": "126.44794"
},
{
  "number": "7",
  "storeName": "토토복권방",
  "phoneNumber": "070-8814-3521",
  "address": "충남 서산시 석림동 444번지",
  "latitude": "36.76879",
  "longitude": "126.46315"
},
{
  "number": "8",
  "storeName": "서산 터미널복권방",
  "phoneNumber": "041-664-3620",
  "address": "충남 서산시 동문동 309-3",
  "latitude": "36.78173",
  "longitude": "126.45878"
},
{
  "number": "9",
  "storeName": "나눔로또 토토",
  "phoneNumber": "041-666-7997",
  "address": "충남 서산시 인지면 둔당리 224 아진아파트상가1층105호",
  "latitude": "36.757637",
  "longitude": "126.42859"
},
{
  "number": "10",
  "storeName": "서산복권방",
  "phoneNumber": "041-669-0047",
  "address": "충남 서산시 읍내동 137-8",
  "latitude": "36.780228",
  "longitude": "126.4489"
},
{
  "number": "11",
  "storeName": "OK편의점",
  "phoneNumber": "041-666-0943",
  "address": "충남 서산시 석남동 575-1",
  "latitude": "36.761436",
  "longitude": "126.4547"
},
{
  "number": "12",
  "storeName": "로또명당해미점",
  "phoneNumber": "041-688-6004",
  "address": "충남 서산시 해미면 읍내리 295-4",
  "latitude": "36.713444",
  "longitude": "126.54421"
},
{
  "number": "13",
  "storeName": "럭키오메가",
  "phoneNumber": "",
  "address": "충남 서산시 음암면 도당리 28-12 S오일 주유소 내",
  "latitude": "36.785797",
  "longitude": "126.51368"
},
{
  "number": "14",
  "storeName": "활력",
  "phoneNumber": "041-664-2702",
  "address": "충남 서산시 동문동 425-6번지 버스터미널에서 새마을금고를지나 원광한의원 맞은편 1층상가 건",
  "latitude": "36.78331",
  "longitude": "126.45779"
},
{
  "number": "15",
  "storeName": "작은신부",
  "phoneNumber": "",
  "address": "충남 서산시 대산읍 대산리 133-31",
  "latitude": "36.936127",
  "longitude": "126.43599"
},
{
  "number": "16",
  "storeName": "복권판매점",
  "phoneNumber": "041-664-3477",
  "address": "충남 서산시 동문동 797-13 미림화랑 옆 1층 상가",
  "latitude": "36.78335",
  "longitude": "126.45342"
},
{
  "number": "17",
  "storeName": "서산리치로또점",
  "phoneNumber": "041-668-0640",
  "address": "충남 서산시 지곡면 무장리 1709 1층 CU서산오토밸리공단점",
  "latitude": "36.85442",
  "longitude": "126.45984"
},
{
  "number": "18",
  "storeName": "읍내동로또복권방",
  "phoneNumber": "041-667-6700",
  "address": "충남 서산시 읍내동 146-5번지",
  "latitude": "36.780666",
  "longitude": "126.45088"
},
{
  "number": "19",
  "storeName": "날개복권",
  "phoneNumber": "",
  "address": "충남 서산시 동문2동 137-2 현대아파트상가103호",
  "latitude": "36.777523",
  "longitude": "126.46429"
},
{
  "number": "20",
  "storeName": "왕24시",
  "phoneNumber": "041-664-3724",
  "address": "충남 서산시 읍내동 111-10",
  "latitude": "36.77949",
  "longitude": "126.45122"
},
{
  "number": "21",
  "storeName": "부경복권",
  "phoneNumber": "041-664-2325",
  "address": "충남 서산시 읍내동 24-9 양대사거리1층상가",
  "latitude": "36.777016",
  "longitude": "126.4529"
},
{
  "number": "22",
  "storeName": "혁진로또",
  "phoneNumber": "041-663-9471",
  "address": "충남 서산시 대산읍 대산리 813-8",
  "latitude": "36.941624",
  "longitude": "126.42547"
},
{
  "number": "23",
  "storeName": "예성로또서점",
  "phoneNumber": "",
  "address": "충남 서산시 석남동 121-34",
  "latitude": "36.804745",
  "longitude": "126.47616"
},
{
  "number": "24",
  "storeName": "우리로또",
  "phoneNumber": "",
  "address": "충남 서산시 지곡면 화천리 535-2 이마트24편의점",
  "latitude": "36.87733",
  "longitude": "126.43951"
},
{
  "number": "25",
  "storeName": "드림로또",
  "phoneNumber": "",
  "address": "충남 서산시 성연면 오사리 1787",
  "latitude": "36.827763",
  "longitude": "126.44726"
},
{
  "number": "26",
  "storeName": "국민로또방",
  "phoneNumber": "",
  "address": "충남 서산시 동문1동 370-5",
  "latitude": "36.783813",
  "longitude": "126.46108"
}
]