[
{
  "number": "1",
  "storeName": "훼밀리슈퍼",
  "phoneNumber": "031-556-4784",
  "address": "경기 구리시 인창동 672-4번지 세신훼밀리타운102",
  "latitude": "37.60447",
  "longitude": "127.14134"
},
{
  "number": "2",
  "storeName": "세븐일레븐 구리으뜸점",
  "phoneNumber": "031-562-2500",
  "address": "경기 구리시 교문동 227-21",
  "latitude": "37.600033",
  "longitude": "127.13583"
},
{
  "number": "3",
  "storeName": "세븐일레븐구리한성점",
  "phoneNumber": "031-565-0470",
  "address": "경기 구리시 교문동 766-1번지 한성1차아파트상가102호",
  "latitude": "37.59336",
  "longitude": "127.136795"
},
{
  "number": "4",
  "storeName": "오에스티(O.S.T)",
  "phoneNumber": "031-566-1894",
  "address": "경기 구리시 수택동 383-10번지",
  "latitude": "37.600235",
  "longitude": "127.139435"
},
{
  "number": "5",
  "storeName": "토큰박스",
  "phoneNumber": "031-563-2643",
  "address": "경기 구리시 수택동 370-6 kt 앞 가판",
  "latitude": "37.60004",
  "longitude": "127.13752"
},
{
  "number": "6",
  "storeName": "삼일통신",
  "phoneNumber": "031-553-1018",
  "address": "경기 구리시 인창동 498-5번지",
  "latitude": "37.60937",
  "longitude": "127.1363"
},
{
  "number": "7",
  "storeName": "화인",
  "phoneNumber": "031-551-3451",
  "address": "경기 구리시 수택동 463-10번지",
  "latitude": "37.595325",
  "longitude": "127.14057"
},
{
  "number": "8",
  "storeName": "진칼라",
  "phoneNumber": "031-553-6433",
  "address": "경기 구리시 교문동 738-7번지",
  "latitude": "37.597008",
  "longitude": "127.13272"
},
{
  "number": "9",
  "storeName": "프로피스",
  "phoneNumber": "031-552-7776",
  "address": "경기 구리시 교문동 764-14번지",
  "latitude": "37.592007",
  "longitude": "127.132515"
},
{
  "number": "10",
  "storeName": "삼성통신",
  "phoneNumber": "031-552-2201",
  "address": "경기 구리시 수택동 288번지",
  "latitude": "37.59515",
  "longitude": "127.148026"
},
{
  "number": "11",
  "storeName": "푸시케",
  "phoneNumber": "",
  "address": "경기 구리시 인창동 280-4 CU구리명동점 내",
  "latitude": "37.60207",
  "longitude": "127.14268"
},
{
  "number": "12",
  "storeName": "로또명품",
  "phoneNumber": "031-562-2050",
  "address": "경기 구리시 수택동 697-3 1층",
  "latitude": "37.5915",
  "longitude": "127.145134"
},
{
  "number": "13",
  "storeName": "우리복권방",
  "phoneNumber": "031-552-0864",
  "address": "경기 구리시 교문동 241-8번지",
  "latitude": "37.600803",
  "longitude": "127.13434"
},
{
  "number": "14",
  "storeName": "금호마트",
  "phoneNumber": "031-564-3008",
  "address": "경기 구리시 수택동 515-6번지",
  "latitude": "37.598637",
  "longitude": "127.14309"
},
{
  "number": "15",
  "storeName": "미니복권",
  "phoneNumber": "",
  "address": "경기 구리시 인창동 576-9번지",
  "latitude": "37.604675",
  "longitude": "127.13439"
},
{
  "number": "16",
  "storeName": "GS25(구리수택점)",
  "phoneNumber": "031-566-6661",
  "address": "경기 구리시 수택동 374-22",
  "latitude": "37.599712",
  "longitude": "127.13818"
},
{
  "number": "17",
  "storeName": "GS25(구리공원점)",
  "phoneNumber": "031-568-2672",
  "address": "경기 구리시 수택동 876번지",
  "latitude": "37.586708",
  "longitude": "127.13977"
},
{
  "number": "18",
  "storeName": "CU(구리토평점)",
  "phoneNumber": "031-569-4205",
  "address": "경기 구리시 토평동 997번지",
  "latitude": "37.5931",
  "longitude": "127.15066"
},
{
  "number": "19",
  "storeName": "고려슈퍼마켓",
  "phoneNumber": "031-563-1145",
  "address": "경기 구리시 수택동 472번지 상가",
  "latitude": "37.596203",
  "longitude": "127.14336"
},
{
  "number": "20",
  "storeName": "대박",
  "phoneNumber": "031-557-5647",
  "address": "경기 구리시 수택동 405-16번지",
  "latitude": "37.599392",
  "longitude": "127.141556"
},
{
  "number": "21",
  "storeName": "슈퍼복권",
  "phoneNumber": "031-564-9695",
  "address": "경기 구리시 수택동 506-9",
  "latitude": "37.59707",
  "longitude": "127.145"
},
{
  "number": "22",
  "storeName": "미소 로또(로그인편의점)",
  "phoneNumber": "",
  "address": "경기 구리시 수택동 453-8",
  "latitude": "37.592735",
  "longitude": "127.14337"
},
{
  "number": "23",
  "storeName": "로또",
  "phoneNumber": "031-575-7657",
  "address": "경기 구리시 갈매동 610-5 CU갈매에이스점",
  "latitude": "37.630344",
  "longitude": "127.116165"
},
{
  "number": "24",
  "storeName": "CU(구리원일점)",
  "phoneNumber": "031-567-2262",
  "address": "경기 구리시 인창동 651-72번지 예일센스빌3차아파트107호101호",
  "latitude": "37.608555",
  "longitude": "127.13318"
},
{
  "number": "25",
  "storeName": "대박로또점",
  "phoneNumber": "",
  "address": "경기 구리시 갈매동 604-2 1층 세븐일레븐",
  "latitude": "37.63252",
  "longitude": "127.11647"
},
{
  "number": "26",
  "storeName": "픽미 픽미 아이스크림",
  "phoneNumber": "",
  "address": "경기 구리시 갈매동 605-2 진영트윈타워 A동104호",
  "latitude": "37.630413",
  "longitude": "127.11717"
},
{
  "number": "27",
  "storeName": "더까까주까 구리수택점",
  "phoneNumber": "",
  "address": "경기 구리시 수택동 448-6 1층105호",
  "latitude": "37.59235",
  "longitude": "127.1403"
}
]
