[
{
  "number": "1",
  "storeName": "잘찍어로또방",
  "phoneNumber": "031-683-0708",
  "address": "경기 평택시 안중읍 안중리 272-5",
  "latitude": "36.98842",
  "longitude": "126.92788"
},
{
  "number": "2",
  "storeName": "로또복권방",
  "phoneNumber": "031-665-9212",
  "address": "경기 평택시 지산동 993번지",
  "latitude": "37.082363",
  "longitude": "127.05955"
},
{
  "number": "3",
  "storeName": "왕대박",
  "phoneNumber": "031-691-3341",
  "address": "경기 평택시 팽성읍 안정리 41-294",
  "latitude": "36.961117",
  "longitude": "127.045715"
},
{
  "number": "4",
  "storeName": "로또복권",
  "phoneNumber": "031-655-9351",
  "address": "경기 평택시 평택동 55-8 보광당금은방",
  "latitude": "36.99239",
  "longitude": "127.085915"
},
{
  "number": "5",
  "storeName": "로또.토토.블루베리",
  "phoneNumber": "031-683-6542",
  "address": "경기 평택시 안중읍 현화리 854-1 105호",
  "latitude": "36.9833",
  "longitude": "126.92806"
},
{
  "number": "6",
  "storeName": "복권명당",
  "phoneNumber": "",
  "address": "경기 평택시 서정동 1106-4 만민교회 1층",
  "latitude": "37.063995",
  "longitude": "127.06656"
},
{
  "number": "7",
  "storeName": "부자되세요복권방",
  "phoneNumber": "031-668-9669",
  "address": "경기 평택시 진위면 하북리 147-1",
  "latitude": "37.1096",
  "longitude": "127.063774"
},
{
  "number": "8",
  "storeName": "명당일세",
  "phoneNumber": "031-655-2979",
  "address": "경기 평택시 평택동 71-6",
  "latitude": "36.994026",
  "longitude": "127.084885"
},
{
  "number": "9",
  "storeName": "노다지복권방서정지점",
  "phoneNumber": "031-666-2821",
  "address": "경기 평택시 서정동 335-27번지",
  "latitude": "37.056206",
  "longitude": "127.055466"
},
{
  "number": "10",
  "storeName": "행복충전소",
  "phoneNumber": "031-664-1210",
  "address": "경기 평택시 지산동 755-1",
  "latitude": "37.08176",
  "longitude": "127.056404"
},
{
  "number": "11",
  "storeName": "영스타",
  "phoneNumber": "",
  "address": "경기 평택시 팽성읍 송화리 266-1번지 103호",
  "latitude": "36.944874",
  "longitude": "127.05173"
},
{
  "number": "12",
  "storeName": "요술상자",
  "phoneNumber": "031-652-0777",
  "address": "경기 평택시 비전동 598-4 동일건물내 이전",
  "latitude": "36.99839",
  "longitude": "127.093834"
},
{
  "number": "13",
  "storeName": "개그스토리마트(평택본점)",
  "phoneNumber": "070-8861-3698",
  "address": "경기 평택시 포승읍 만호리 311-26 1층 개그스토리편의점",
  "latitude": "36.961807",
  "longitude": "126.85373"
},
{
  "number": "14",
  "storeName": "평택로또판매",
  "phoneNumber": "031-618-9810",
  "address": "경기 평택시 비전동 624-2",
  "latitude": "36.9969",
  "longitude": "127.09143"
},
{
  "number": "15",
  "storeName": "로또복권판매점",
  "phoneNumber": "031-611-4589",
  "address": "경기 평택시 서정동 842-11",
  "latitude": "37.065887",
  "longitude": "127.05969"
},
{
  "number": "16",
  "storeName": "천하명당복권방",
  "phoneNumber": "031-611-8249",
  "address": "경기 평택시 오성면 죽리 1-6 마키리오스빌딩1층107호",
  "latitude": "37.007275",
  "longitude": "126.97729"
},
{
  "number": "17",
  "storeName": "평택포승점로또",
  "phoneNumber": "031-682-9985",
  "address": "경기 평택시 포승읍 도곡리 1142-10 위드미 편의점 포승공단점",
  "latitude": "36.988434",
  "longitude": "126.84542"
},
{
  "number": "18",
  "storeName": "대박복권방",
  "phoneNumber": "",
  "address": "경기 평택시 서정동 835-11번지 101호 포시즌편의점",
  "latitude": "37.066544",
  "longitude": "127.05552"
},
{
  "number": "19",
  "storeName": "서정천하명당",
  "phoneNumber": "031-611-4097",
  "address": "경기 평택시 서정동 262-11",
  "latitude": "37.05803",
  "longitude": "127.05933"
},
{
  "number": "20",
  "storeName": "복권방",
  "phoneNumber": "031-656-4933",
  "address": "경기 평택시 세교동 569-8번지 1층 복권방",
  "latitude": "36.99929",
  "longitude": "127.079704"
},
{
  "number": "21",
  "storeName": "코사마트역전점",
  "phoneNumber": "031-655-3407",
  "address": "경기 평택시 평택동 46-4",
  "latitude": "36.991978",
  "longitude": "127.08722"
},
{
  "number": "22",
  "storeName": "에스마트평택점",
  "phoneNumber": "031-654-5644",
  "address": "경기 평택시 평택동 71-2 코사마트 편의점",
  "latitude": "36.993774",
  "longitude": "127.085075"
},
{
  "number": "23",
  "storeName": "천하명당",
  "phoneNumber": "031-662-0233",
  "address": "경기 평택시 서정동 76-14",
  "latitude": "37.072586",
  "longitude": "127.05528"
},
{
  "number": "24",
  "storeName": "해피타임",
  "phoneNumber": "031-652-9664",
  "address": "경기 평택시 오성면 죽리 7-15",
  "latitude": "37.00684",
  "longitude": "126.969574"
},
{
  "number": "25",
  "storeName": "럭키마트",
  "phoneNumber": "070-8201-5924",
  "address": "경기 평택시 포승읍 도곡리 1126-6",
  "latitude": "36.98536",
  "longitude": "126.845566"
},
{
  "number": "26",
  "storeName": "서부역지점",
  "phoneNumber": "031-662-2026",
  "address": "경기 평택시 평택동 169-3 1층",
  "latitude": "36.990482",
  "longitude": "127.08356"
},
{
  "number": "27",
  "storeName": "대박로또(낚시편의점)",
  "phoneNumber": "031-684-8585",
  "address": "경기 평택시 청북읍 옥길리 1162-5 위드미편의점 내",
  "latitude": "37.017334",
  "longitude": "126.91694"
},
{
  "number": "28",
  "storeName": "평택소사벌 로또판매점",
  "phoneNumber": "031-618-3318",
  "address": "경기 평택시 비전동 1091-5번지 중앙프라자 건물 1층 CU편의점",
  "latitude": "36.99728",
  "longitude": "127.1026"
},
{
  "number": "29",
  "storeName": "씨유팽성공원점",
  "phoneNumber": "",
  "address": "경기 평택시 팽성읍 송화리 60-1 1층 CU편의점 내",
  "latitude": "36.95931",
  "longitude": "127.05164"
},
{
  "number": "30",
  "storeName": "애플마트",
  "phoneNumber": "031-682-0557",
  "address": "경기 평택시 포승읍 원정리 391-11 1층 애플마트내",
  "latitude": "36.994762",
  "longitude": "126.84052"
},
{
  "number": "31",
  "storeName": "황금알상회",
  "phoneNumber": "031-664-6554",
  "address": "경기 평택시 지산동 1029 대로변 상가 1층 115호",
  "latitude": "37.081493",
  "longitude": "127.062096"
},
{
  "number": "32",
  "storeName": "준",
  "phoneNumber": "031-683-2479",
  "address": "경기 평택시 포승읍 방림리 53-5",
  "latitude": "36.9826",
  "longitude": "126.88217"
},
{
  "number": "33",
  "storeName": "로또복권",
  "phoneNumber": "031-618-4564",
  "address": "경기 평택시 팽성읍 송화리 126-3번지 GS25평택송화점",
  "latitude": "36.9644",
  "longitude": "127.06038"
},
{
  "number": "34",
  "storeName": "용이복권방",
  "phoneNumber": "031-651-6999",
  "address": "경기 평택시 용이동 450-6",
  "latitude": "36.99725",
  "longitude": "127.13851"
},
{
  "number": "35",
  "storeName": "빅슈퍼",
  "phoneNumber": "031-691-6668",
  "address": "경기 평택시 동삭동 685-13 101호",
  "latitude": "37.008995",
  "longitude": "127.09366"
},
{
  "number": "36",
  "storeName": "공단슈퍼",
  "phoneNumber": "031-665-4406",
  "address": "경기 평택시 모곡동 442-1 1층",
  "latitude": "37.036713",
  "longitude": "127.076035"
},
{
  "number": "37",
  "storeName": "천하명당복권방",
  "phoneNumber": "031-656-6116",
  "address": "경기 평택시 세교동 563-4",
  "latitude": "36.99946",
  "longitude": "127.08177"
},
{
  "number": "38",
  "storeName": "빙고복권점",
  "phoneNumber": "031-664-3589",
  "address": "경기 평택시 서정동 907-4 1층",
  "latitude": "37.06138",
  "longitude": "127.058205"
},
{
  "number": "39",
  "storeName": "K-마켓",
  "phoneNumber": "031-654-7576",
  "address": "경기 평택시 평택동 55-3",
  "latitude": "36.99098",
  "longitude": "127.08707"
},
{
  "number": "40",
  "storeName": "신바람복권마트",
  "phoneNumber": "031-652-2194",
  "address": "경기 평택시 비전동 731-13",
  "latitude": "36.9934",
  "longitude": "127.095345"
},
{
  "number": "41",
  "storeName": "L마트",
  "phoneNumber": "031-686-5077",
  "address": "경기 평택시 청북읍 옥길리 1158-2 케이디프라자 제1층 114호",
  "latitude": "37.050407",
  "longitude": "126.97543"
},
{
  "number": "42",
  "storeName": "로또복권",
  "phoneNumber": "031-653-7996",
  "address": "경기 평택시 합정동 918-8 1층 1호",
  "latitude": "36.988914",
  "longitude": "127.1017"
},
{
  "number": "43",
  "storeName": "로또명당",
  "phoneNumber": "",
  "address": "경기 평택시 진위면 견산리 75-9 1호",
  "latitude": "37.10507",
  "longitude": "127.0827"
},
{
  "number": "44",
  "storeName": "드림복권전문점",
  "phoneNumber": "031-652-6450",
  "address": "경기 평택시 비전동 190-1,3번지",
  "latitude": "36.99191",
  "longitude": "127.10696"
},
{
  "number": "45",
  "storeName": "로또복권",
  "phoneNumber": "070-8210-8705",
  "address": "경기 평택시 신평동 734-7",
  "latitude": "36.991272",
  "longitude": "127.09158"
},
{
  "number": "46",
  "storeName": "희망복권",
  "phoneNumber": "031-618-1742",
  "address": "경기 평택시 평택동 34-12 1층 복권방",
  "latitude": "36.99418",
  "longitude": "127.08927"
},
{
  "number": "47",
  "storeName": "복권하우스",
  "phoneNumber": "031-667-2407",
  "address": "경기 평택시 지산동 797-12 1층",
  "latitude": "37.076424",
  "longitude": "127.057724"
},
{
  "number": "48",
  "storeName": "카톡복권방",
  "phoneNumber": "",
  "address": "경기 평택시 팽성읍 두리 37-3 6호",
  "latitude": "36.96899",
  "longitude": "127.06272"
},
{
  "number": "49",
  "storeName": "이충복권방",
  "phoneNumber": "",
  "address": "경기 평택시 이충동 487-40 1층103호",
  "latitude": "37.054523",
  "longitude": "127.05593"
},
{
  "number": "50",
  "storeName": "내츄럴하우스복권판매점",
  "phoneNumber": "031-652-9767",
  "address": "경기 평택시 통복동 98-4 1층 상가",
  "latitude": "36.996117",
  "longitude": "127.083626"
},
{
  "number": "51",
  "storeName": "GS25송탄터미널점",
  "phoneNumber": "",
  "address": "경기 평택시 송북동 762-34",
  "latitude": "37.0804",
  "longitude": "127.05802"
},
{
  "number": "52",
  "storeName": "로또카페",
  "phoneNumber": "031-682-8013",
  "address": "경기 평택시 서정동 818-34 1층102호",
  "latitude": "37.067078",
  "longitude": "127.060455"
},
{
  "number": "53",
  "storeName": "로또마트",
  "phoneNumber": "",
  "address": "경기 평택시 안중읍 현화리 869-14 1층 1001호(전일빌딩)",
  "latitude": "36.997227",
  "longitude": "126.95473"
},
{
  "number": "54",
  "storeName": "행운복권방",
  "phoneNumber": "",
  "address": "경기 평택시 진위면 신리 61",
  "latitude": "37.096695",
  "longitude": "127.063576"
},
{
  "number": "55",
  "storeName": "행운슈퍼",
  "phoneNumber": "031-668-8532",
  "address": "경기 평택시 고덕면 궁리 84-4 1층",
  "latitude": "37.016098",
  "longitude": "127.03123"
},
{
  "number": "56",
  "storeName": "청북복권판매점",
  "phoneNumber": "031-681-1591",
  "address": "경기 평택시 청북면 옥길리 297-3번지 1층 미니스톱 편의점내",
  "latitude": "37.040493",
  "longitude": "126.93301"
},
{
  "number": "57",
  "storeName": "마린슈퍼로또",
  "phoneNumber": "",
  "address": "경기 평택시 팽성읍 객사리 112-9 1층",
  "latitude": "36.964157",
  "longitude": "127.06374"
},
{
  "number": "58",
  "storeName": "찬스복권",
  "phoneNumber": "",
  "address": "경기 평택시 비전동 47-12 진로마트 외부상가",
  "latitude": "37.009388",
  "longitude": "127.10798"
},
{
  "number": "59",
  "storeName": "카페로또",
  "phoneNumber": "",
  "address": "경기 평택시 신장동 300-41번지",
  "latitude": "37.079655",
  "longitude": "127.05153"
},
{
  "number": "60",
  "storeName": "나눔로또",
  "phoneNumber": "",
  "address": "경기 평택시 진위면 갈곶리 255-1",
  "latitude": "37.12436",
  "longitude": "127.07195"
},
{
  "number": "61",
  "storeName": "점촌생활용품점",
  "phoneNumber": "",
  "address": "경기 평택시 서정동 900-2번지 1층 상가",
  "latitude": "37.06192",
  "longitude": "127.055824"
},
{
  "number": "62",
  "storeName": "덩이복방",
  "phoneNumber": "",
  "address": "경기 평택시 이충동 151-1",
  "latitude": "37.056515",
  "longitude": "127.0731"
},
{
  "number": "63",
  "storeName": "프림",
  "phoneNumber": "",
  "address": "경기 평택시 안중읍 용성리 80-1",
  "latitude": "37.01746",
  "longitude": "126.94534"
},
{
  "number": "64",
  "storeName": "스타복권",
  "phoneNumber": "",
  "address": "경기 평택시 청북읍 고렴리 633-5",
  "latitude": "37.063084",
  "longitude": "126.91911"
},
{
  "number": "65",
  "storeName": "오세갑 로또복권",
  "phoneNumber": "031-663-4580",
  "address": "경기 평택시 신장동 263-43 포유편의점 내",
  "latitude": "37.074745",
  "longitude": "127.05358"
},
{
  "number": "66",
  "storeName": "로또씨유안중터미널점",
  "phoneNumber": "031-681-6996",
  "address": "경기 평택시 안중읍 현화리 837-13 104호 CU편의점 내",
  "latitude": "36.978714",
  "longitude": "126.92382"
},
{
  "number": "67",
  "storeName": "꿀단지로또",
  "phoneNumber": "",
  "address": "경기 평택시 포승읍 도곡리 1117-11 평택스마트빌포레 101-B호",
  "latitude": "36.990047",
  "longitude": "126.841354"
},
{
  "number": "68",
  "storeName": "원정한식부페",
  "phoneNumber": "031-656-2230",
  "address": "경기 평택시 팽성읍 원정리 140 원정식당내",
  "latitude": "36.97415",
  "longitude": "127.03926"
},
{
  "number": "69",
  "storeName": "비전로또",
  "phoneNumber": "031-652-2335",
  "address": "경기 평택시 비전동 873-4 101-1호",
  "latitude": "36.99678",
  "longitude": "127.11473"
},
{
  "number": "70",
  "storeName": "행운복권방",
  "phoneNumber": "",
  "address": "경기 평택시 서정동 897-6",
  "latitude": "37.060947",
  "longitude": "127.053856"
},
{
  "number": "71",
  "storeName": "나눔로또",
  "phoneNumber": "031-665-1898",
  "address": "경기 평택시 칠원동 98-1 데이앤데이편의점",
  "latitude": "37.029648",
  "longitude": "127.10141"
},
{
  "number": "72",
  "storeName": "평택21세기편의점",
  "phoneNumber": "031-618-6960",
  "address": "경기 평택시 합정동 966-6 1층 21세기편의점",
  "latitude": "36.990246",
  "longitude": "127.11367"
},
{
  "number": "73",
  "storeName": "신바람",
  "phoneNumber": "",
  "address": "경기 평택시 비전2동 639 상가동107호",
  "latitude": "36.99893",
  "longitude": "127.12374"
},
{
  "number": "74",
  "storeName": "황금마트",
  "phoneNumber": "",
  "address": "경기 평택시 용이동 439-7",
  "latitude": "36.995853",
  "longitude": "127.13477"
},
{
  "number": "75",
  "storeName": "한방복권방",
  "phoneNumber": "",
  "address": "경기 평택시 699-11",
  "latitude": "37.017704",
  "longitude": "127.09439"
},
{
  "number": "76",
  "storeName": "씨유오성IC점",
  "phoneNumber": "",
  "address": "경기 평택시 오성면 안화리 502-4 (502-5,502-7(3필지))",
  "latitude": "37.013283",
  "longitude": "127.001205"
}
]