[
{
  "number": "1",
  "storeName": "양산노다지복권방",
  "phoneNumber": "055-386-3774",
  "address": "경남 양산시 북부동 701-1",
  "latitude": "35.348244",
  "longitude": "129.03786"
},
{
  "number": "2",
  "storeName": "서창복권나라",
  "phoneNumber": "055-386-0645",
  "address": "경남 양산시 삼호동 528-1번지",
  "latitude": "35.416203",
  "longitude": "129.17226"
},
{
  "number": "3",
  "storeName": "제일복권",
  "phoneNumber": "055-387-8775",
  "address": "경남 양산시 중부동 693-2 GS편의점 터미널점",
  "latitude": "35.33519",
  "longitude": "129.02783"
},
{
  "number": "4",
  "storeName": "나이스정보",
  "phoneNumber": "",
  "address": "경남 양산시 삼호동 491-3 복권판매점",
  "latitude": "35.415688",
  "longitude": "129.17528"
},
{
  "number": "5",
  "storeName": "서창행운복권방",
  "phoneNumber": "055-367-0321",
  "address": "경남 양산시 삼호동 701-1",
  "latitude": "35.414886",
  "longitude": "129.17073"
},
{
  "number": "6",
  "storeName": "로또명당",
  "phoneNumber": "",
  "address": "경남 양산시 평산동 94-3",
  "latitude": "35.382347",
  "longitude": "129.15144"
},
{
  "number": "7",
  "storeName": "플러스로터리",
  "phoneNumber": "055-366-6393",
  "address": "경남 양산시 물금읍 범어리 2680-2 103호",
  "latitude": "35.33104",
  "longitude": "129.01176"
},
{
  "number": "8",
  "storeName": "벼락부자복권방",
  "phoneNumber": "055-363-8088",
  "address": "경남 양산시 북부동 148-19 북부시장1층 B동1호",
  "latitude": "35.35045",
  "longitude": "129.0412"
},
{
  "number": "9",
  "storeName": "스포츠복권방",
  "phoneNumber": "055-363-8300",
  "address": "경남 양산시 물금읍 범어리 386-1번지",
  "latitude": "35.330868",
  "longitude": "129.0067"
},
{
  "number": "10",
  "storeName": "행운복권방/해피하우스",
  "phoneNumber": "055-366-1755",
  "address": "경남 양산시 덕계동 755-4",
  "latitude": "35.370914",
  "longitude": "129.14848"
},
{
  "number": "11",
  "storeName": "LG25시북부점로또복권",
  "phoneNumber": "055-385-5000",
  "address": "경남 양산시 중앙동 423-5번지 가1-7,2-13",
  "latitude": "35.342808",
  "longitude": "129.03722"
},
{
  "number": "12",
  "storeName": "로또판매업",
  "phoneNumber": "055-366-7119",
  "address": "경남 양산시 북정동 885-9",
  "latitude": "35.35898",
  "longitude": "129.04372"
},
{
  "number": "13",
  "storeName": "동원복권",
  "phoneNumber": "055-388-1059",
  "address": "경남 양산시 북정동 531-4번지",
  "latitude": "35.361347",
  "longitude": "129.04782"
},
{
  "number": "14",
  "storeName": "스마트복권",
  "phoneNumber": "",
  "address": "경남 양산시 양주동 685-6번지 바나나빌딩105호",
  "latitude": "35.338264",
  "longitude": "129.02693"
},
{
  "number": "15",
  "storeName": "GS25(양산덕계점)",
  "phoneNumber": "055-388-3816",
  "address": "경남 양산시 덕계동 925번지",
  "latitude": "35.375225",
  "longitude": "129.15192"
},
{
  "number": "16",
  "storeName": "GS25(양산혜인점)",
  "phoneNumber": "055-367-1289",
  "address": "경남 양산시 평산동 31-5번지",
  "latitude": "35.384914",
  "longitude": "129.15508"
},
{
  "number": "17",
  "storeName": "GS25(양산신평점)",
  "phoneNumber": "055-372-4466",
  "address": "경남 양산시 하북면 순지리 691-32",
  "latitude": "35.491055",
  "longitude": "129.0866"
},
{
  "number": "18",
  "storeName": "행운드림복권",
  "phoneNumber": "",
  "address": "경남 양산시 동면 석산리 1472-23",
  "latitude": "35.314606",
  "longitude": "129.02505"
},
{
  "number": "19",
  "storeName": "나나 복권판매소",
  "phoneNumber": "055-375-8460",
  "address": "경남 양산시 상북면 석계리 223-2",
  "latitude": "35.41219",
  "longitude": "129.05919"
},
{
  "number": "20",
  "storeName": "대복로또",
  "phoneNumber": "",
  "address": "경남 양산시 삼호동 986-6 위드미편의점",
  "latitude": "35.411118",
  "longitude": "129.17014"
},
{
  "number": "21",
  "storeName": "비전로또",
  "phoneNumber": "055-388-4666",
  "address": "경남 양산시 동면 석산리 1472-19번지 CU편의점",
  "latitude": "35.34594",
  "longitude": "129.03613"
},
{
  "number": "22",
  "storeName": "세정에스타 로또점",
  "phoneNumber": "055-367-8989",
  "address": "경남 양산시 물금읍 범어리 2711-10 1층 세븐일레븐편의점",
  "latitude": "35.32753",
  "longitude": "129.01576"
},
{
  "number": "23",
  "storeName": "미니스톱 양산청운점",
  "phoneNumber": "",
  "address": "경남 양산시 물금읍 물금리 894-5",
  "latitude": "35.309273",
  "longitude": "128.99345"
},
{
  "number": "24",
  "storeName": "드림로또",
  "phoneNumber": "055-912-2761",
  "address": "경남 양산시 북부동 491-4 CU양산황제점내",
  "latitude": "35.343964",
  "longitude": "129.03549"
},
{
  "number": "25",
  "storeName": "영건",
  "phoneNumber": "055-383-6111",
  "address": "경남 양산시 삼성동 107-1 GS25양산산막점내",
  "latitude": "35.369244",
  "longitude": "129.05191"
},
{
  "number": "26",
  "storeName": "양산황금복권방",
  "phoneNumber": "055-386-5253",
  "address": "경남 양산시 물금읍 물금리 406-73",
  "latitude": "35.311462",
  "longitude": "128.98734"
},
{
  "number": "27",
  "storeName": "웅상로또",
  "phoneNumber": "055-387-7606",
  "address": "경남 양산시 소주동 51-1번지 GS편의점 옆",
  "latitude": "35.41638",
  "longitude": "129.16664"
},
{
  "number": "28",
  "storeName": "돈보따리",
  "phoneNumber": "055-387-6106",
  "address": "경남 양산시 명동 700-1번지 복권판매점",
  "latitude": "35.409966",
  "longitude": "129.16667"
},
{
  "number": "29",
  "storeName": "범어로또판매점",
  "phoneNumber": "055-381-2115",
  "address": "경남 양산시 물금읍 범어리 847-5",
  "latitude": "35.33153",
  "longitude": "129.00159"
},
{
  "number": "30",
  "storeName": "삼호판매점",
  "phoneNumber": "",
  "address": "경남 양산시 서창동 782-8",
  "latitude": "35.41521",
  "longitude": "129.17163"
},
{
  "number": "31",
  "storeName": "하나마트",
  "phoneNumber": "055-367-4576",
  "address": "경남 양산시 물금읍 가촌리 531-9",
  "latitude": "35.31984",
  "longitude": "128.99463"
},
{
  "number": "32",
  "storeName": "동진점",
  "phoneNumber": "",
  "address": "경남 양산시 물금읍 가촌리 1298-1 114호",
  "latitude": "35.310352",
  "longitude": "129.00652"
},
{
  "number": "33",
  "storeName": "부경로또판매점",
  "phoneNumber": "",
  "address": "경남 양산시 물금읍 물금리 385-3",
  "latitude": "35.309265",
  "longitude": "128.98593"
},
{
  "number": "34",
  "storeName": "행복 복권판매점",
  "phoneNumber": "",
  "address": "경남 양산시 상북면 석계리 78-17",
  "latitude": "35.41721",
  "longitude": "129.06253"
},
{
  "number": "35",
  "storeName": "부강 돈벼락",
  "phoneNumber": "055-387-7571",
  "address": "경남 양산시 물금읍 물금리 800-5 상가108호",
  "latitude": "35.309124",
  "longitude": "128.98857"
}
]