[
{
  "number": "1",
  "storeName": "씨스페이스(군자역점)",
  "phoneNumber": "02-467-6002",
  "address": "서울 광진구 중곡동 640-3",
  "latitude": "37.55126",
  "longitude": "127.110405"
},
{
  "number": "2",
  "storeName": "CU(구의그린점)",
  "phoneNumber": "02-455-5355",
  "address": "서울 광진구 구의동 234-16번지",
  "latitude": "37.54482",
  "longitude": "127.085434"
},
{
  "number": "3",
  "storeName": "GS25(광나루점)",
  "phoneNumber": "02-444-7589",
  "address": "서울 광진구 광장동 323-2번지",
  "latitude": "37.54757",
  "longitude": "127.1079"
},
{
  "number": "4",
  "storeName": "은혜기획사로또",
  "phoneNumber": "02-6052-8125",
  "address": "서울 광진구 중곡동 83-8번지",
  "latitude": "37.55787",
  "longitude": "127.089294"
},
{
  "number": "5",
  "storeName": "나눔행운로또",
  "phoneNumber": "02-3437-9909",
  "address": "서울 광진구 중곡동 290-4번지",
  "latitude": "37.545036",
  "longitude": "127.08973"
},
{
  "number": "6",
  "storeName": "청송상회",
  "phoneNumber": "02-447-5795",
  "address": "서울 광진구 구의동 222-64번지",
  "latitude": "37.54147",
  "longitude": "127.08892"
},
{
  "number": "7",
  "storeName": "동서울로또",
  "phoneNumber": "",
  "address": "서울 광진구 구의동 546-1 동서울터미널 정문앞 로또가판점",
  "latitude": "37.53337",
  "longitude": "127.09337"
},
{
  "number": "8",
  "storeName": "Today",
  "phoneNumber": "",
  "address": "서울 광진구 구의동 546-4번지 테크노마트9층판매동24호",
  "latitude": "37.53494",
  "longitude": "127.09571"
},
{
  "number": "9",
  "storeName": "로또천국",
  "phoneNumber": "02-463-4735",
  "address": "서울 광진구 군자동 345번지",
  "latitude": "37.550884",
  "longitude": "127.07093"
},
{
  "number": "10",
  "storeName": "세븐몽키스커피",
  "phoneNumber": "02-497-7070",
  "address": "서울 광진구 군자동 469-22번지 1층2호",
  "latitude": "37.557365",
  "longitude": "127.076385"
},
{
  "number": "11",
  "storeName": "로또",
  "phoneNumber": "02-467-1045",
  "address": "서울 광진구 자양동 6-39번지",
  "latitude": "37.5401",
  "longitude": "127.067696"
},
{
  "number": "12",
  "storeName": "성동약국",
  "phoneNumber": "02-452-1809",
  "address": "서울 광진구 자양동 584-13번지",
  "latitude": "37.530655",
  "longitude": "127.07468"
},
{
  "number": "13",
  "storeName": "행운복권방",
  "phoneNumber": "02-465-0645",
  "address": "서울 광진구 광장동 484",
  "latitude": "37.538647",
  "longitude": "127.06969"
},
{
  "number": "14",
  "storeName": "오로라복권방",
  "phoneNumber": "02-3437-6868",
  "address": "서울 광진구 자양동 616-33번지 국민은행자양동지점 50m",
  "latitude": "37.53226",
  "longitude": "127.0791"
},
{
  "number": "15",
  "storeName": "화양복권",
  "phoneNumber": "02-461-3757",
  "address": "서울 광진구 화양동 23-7번지",
  "latitude": "37.547527",
  "longitude": "127.067276"
},
{
  "number": "16",
  "storeName": "보성상회",
  "phoneNumber": "02-457-9067",
  "address": "서울 광진구 자양동 774-14번지",
  "latitude": "37.53728",
  "longitude": "127.08116"
},
{
  "number": "17",
  "storeName": "세븐일레븐 강변테크노마트점",
  "phoneNumber": "02-3424-1091",
  "address": "서울 광진구 구의동 546-4번지 테크노마트지하판매동1층D004",
  "latitude": "37.53494",
  "longitude": "127.09571"
},
{
  "number": "18",
  "storeName": "현대식품",
  "phoneNumber": "02-447-5227",
  "address": "서울 광진구 구의동 243-22번지",
  "latitude": "37.537903",
  "longitude": "127.08847"
},
{
  "number": "19",
  "storeName": "로그인",
  "phoneNumber": "02-2296-5492",
  "address": "서울 광진구 중곡동 634-4번지",
  "latitude": "37.559826",
  "longitude": "127.07498"
},
{
  "number": "20",
  "storeName": "오렌지스토아",
  "phoneNumber": "02-497-6355",
  "address": "서울 광진구 중곡동 245-1번지 우진빌딩1층",
  "latitude": "37.56295",
  "longitude": "127.079506"
},
{
  "number": "21",
  "storeName": "MS마트",
  "phoneNumber": "02-458-8649",
  "address": "서울 광진구 구의동 229-7",
  "latitude": "37.54447",
  "longitude": "127.09018"
},
{
  "number": "22",
  "storeName": "로또복권",
  "phoneNumber": "02-498-9380",
  "address": "서울 광진구 중곡동 244-1번지",
  "latitude": "37.562794",
  "longitude": "127.08024"
},
{
  "number": "23",
  "storeName": "가로매점",
  "phoneNumber": "02-469-2542",
  "address": "서울 광진구 군자동 361-28번지",
  "latitude": "37.54812",
  "longitude": "127.07171"
},
{
  "number": "24",
  "storeName": "가판",
  "phoneNumber": "02-458-9881",
  "address": "서울 광진구 중곡동 124-11번지",
  "latitude": "37.55854",
  "longitude": "127.08758"
},
{
  "number": "25",
  "storeName": "백악관앞가판",
  "phoneNumber": "02-2201-3961",
  "address": "서울 광진구 중곡동 115-4번지",
  "latitude": "37.55318",
  "longitude": "127.08945"
},
{
  "number": "26",
  "storeName": "군자로또점",
  "phoneNumber": "02-469-6928",
  "address": "서울 광진구 군자동 477-18번지",
  "latitude": "37.556118",
  "longitude": "127.07862"
},
{
  "number": "27",
  "storeName": "아차산역가로판매점",
  "phoneNumber": "02-456-6324",
  "address": "서울 광진구 구의동 53-4번지",
  "latitude": "37.551647",
  "longitude": "127.09026"
},
{
  "number": "28",
  "storeName": "자양사거리가로매점",
  "phoneNumber": "02-458-6317",
  "address": "서울 광진구 자양동 219-2번지",
  "latitude": "37.536175",
  "longitude": "127.08321"
},
{
  "number": "29",
  "storeName": "엘도라도복권점문점",
  "phoneNumber": "02-455-0128",
  "address": "서울 광진구 중곡동 124-65번지",
  "latitude": "37.55774",
  "longitude": "127.08761"
},
{
  "number": "30",
  "storeName": "복권나라",
  "phoneNumber": "02-461-6326",
  "address": "서울 광진구 화양동 47-43번지",
  "latitude": "37.542828",
  "longitude": "127.06865"
},
{
  "number": "31",
  "storeName": "문구박사",
  "phoneNumber": "02-464-8366",
  "address": "서울 광진구 화양동 15-59번지",
  "latitude": "37.54444",
  "longitude": "127.069565"
},
{
  "number": "32",
  "storeName": "뉴골드나라",
  "phoneNumber": "02-2201-8517",
  "address": "서울 광진구 구의동 66-92번지",
  "latitude": "37.54509",
  "longitude": "127.0875"
},
{
  "number": "33",
  "storeName": "우리식품",
  "phoneNumber": "02-453-7760",
  "address": "서울 광진구 광장동 244-24번지",
  "latitude": "37.54594",
  "longitude": "127.10473"
},
{
  "number": "34",
  "storeName": "복권365",
  "phoneNumber": "02-497-2232",
  "address": "서울 광진구 자양제4동 553-12",
  "latitude": "37.53678",
  "longitude": "127.06396"
},
{
  "number": "35",
  "storeName": "복권명당",
  "phoneNumber": "02-498-6643",
  "address": "서울 광진구 자양동 11-4",
  "latitude": "37.538963",
  "longitude": "127.06605"
},
{
  "number": "36",
  "storeName": "복권나라",
  "phoneNumber": "02-446-3666",
  "address": "서울 광진구 군자동 66-3 1층",
  "latitude": "37.554405",
  "longitude": "127.075615"
},
{
  "number": "37",
  "storeName": "복권방",
  "phoneNumber": "02-447-8814",
  "address": "서울 광진구 구의동 246-70번지",
  "latitude": "37.537743",
  "longitude": "127.08545"
},
{
  "number": "38",
  "storeName": "천하명당복권방",
  "phoneNumber": "02-464-4440",
  "address": "서울 광진구 중곡동 167-3번지",
  "latitude": "37.565918",
  "longitude": "127.08407"
},
{
  "number": "39",
  "storeName": "대원복권방",
  "phoneNumber": "02-492-4391",
  "address": "서울 광진구 중곡동 561-2번지",
  "latitude": "37.57127",
  "longitude": "127.08286"
},
{
  "number": "40",
  "storeName": "행운의집",
  "phoneNumber": "02-467-0782",
  "address": "서울 광진구 화양동 111-114",
  "latitude": "37.54762",
  "longitude": "127.07091"
},
{
  "number": "41",
  "storeName": "복권방",
  "phoneNumber": "070-8113-5178",
  "address": "서울 광진구 광장동 453-1번지 삼성상가1층",
  "latitude": "37.542458",
  "longitude": "127.101906"
},
{
  "number": "42",
  "storeName": "아파트슈퍼",
  "phoneNumber": "02-456-4279",
  "address": "서울 광진구 자양동 658-14번지 자양아파트상가2-101",
  "latitude": "37.532623",
  "longitude": "127.08457"
},
{
  "number": "43",
  "storeName": "히딩크복권방",
  "phoneNumber": "02-467-6989",
  "address": "서울 광진구 자양동 623-28번지",
  "latitude": "37.56866",
  "longitude": "127.08231"
},
{
  "number": "44",
  "storeName": "동아",
  "phoneNumber": "",
  "address": "서울 광진구 화양동 3-21",
  "latitude": "37.560722",
  "longitude": "127.087234"
},
{
  "number": "45",
  "storeName": "복권마을",
  "phoneNumber": "02-499-6585",
  "address": "서울 광진구 자양동 45-1번지",
  "latitude": "37.536255",
  "longitude": "127.06519"
},
{
  "number": "46",
  "storeName": "토큰판매소",
  "phoneNumber": "02-447-5676",
  "address": "서울 광진구 구의동 546-7번지",
  "latitude": "37.535236",
  "longitude": "127.09286"
},
{
  "number": "47",
  "storeName": "글사랑(책대여점)",
  "phoneNumber": "02-3437-2305",
  "address": "서울 광진구 능동 222-5번지",
  "latitude": "37.555664",
  "longitude": "127.08131"
},
{
  "number": "48",
  "storeName": "광나루복권방",
  "phoneNumber": "02-446-1975",
  "address": "서울 광진구 광장동 244-6번지",
  "latitude": "37.546104",
  "longitude": "127.1049"
},
{
  "number": "49",
  "storeName": "이마트24 군자CGV점",
  "phoneNumber": "",
  "address": "서울 광진구 군자동 1-1 이마트24 군자CGV점",
  "latitude": "37.555523",
  "longitude": "127.07817"
},
{
  "number": "50",
  "storeName": "복권명당(로또판매점)",
  "phoneNumber": "02-3437-2654",
  "address": "서울 광진구 자양동 608-11번지",
  "latitude": "37.53277",
  "longitude": "127.07651"
},
{
  "number": "51",
  "storeName": "메가",
  "phoneNumber": "02-957-5594",
  "address": "서울 광진구 중곡동 239-56",
  "latitude": "37.563873",
  "longitude": "127.078224"
},
{
  "number": "52",
  "storeName": "진복권방",
  "phoneNumber": "",
  "address": "서울 광진구 자양동 249-27번지",
  "latitude": "37.538383",
  "longitude": "127.06322"
},
{
  "number": "53",
  "storeName": "GS25(건대제일점)",
  "phoneNumber": "02-465-6042",
  "address": "서울 광진구 화양동 49-1번지",
  "latitude": "37.54182",
  "longitude": "127.06655"
},
{
  "number": "54",
  "storeName": "고고gogo로또",
  "phoneNumber": "",
  "address": "서울 광진구 자양제1동 612-55",
  "latitude": "37.535656",
  "longitude": "127.081764"
}
]