[
{
  "number": "1",
  "storeName": "GS25(재송점)",
  "phoneNumber": "051-782-0091",
  "address": "부산 해운대구 재송동 1100-10번지",
  "latitude": "35.184532",
  "longitude": "129.1222"
},
{
  "number": "2",
  "storeName": "GS25(해운우동점)",
  "phoneNumber": "051-746-9457",
  "address": "부산 해운대구 우동 598-9",
  "latitude": "35.163715",
  "longitude": "129.16164"
},
{
  "number": "3",
  "storeName": "CU(좌동중앙점)",
  "phoneNumber": "051-702-5573",
  "address": "부산 해운대구 좌동 1461-4번지 대하프라자1층 CU좌동중앙점",
  "latitude": "35.171654",
  "longitude": "129.17487"
},
{
  "number": "4",
  "storeName": "씨스페이스(재송제일점)",
  "phoneNumber": "051-784-0420",
  "address": "부산 해운대구 재송동 1079-21번지",
  "latitude": "35.18754",
  "longitude": "129.12318"
},
{
  "number": "5",
  "storeName": "CU(센텀파크점)",
  "phoneNumber": "051-703-8007",
  "address": "부산 해운대구 재송동 1197",
  "latitude": "35.179626",
  "longitude": "129.12299"
},
{
  "number": "6",
  "storeName": "롯또",
  "phoneNumber": "",
  "address": "부산 해운대구 반송동 62-450번지 1층",
  "latitude": "35.230865",
  "longitude": "129.15723"
},
{
  "number": "7",
  "storeName": "로또복권방",
  "phoneNumber": "051-545-0717",
  "address": "부산 해운대구 반송동 281-5번지 CU편의점내",
  "latitude": "35.23021",
  "longitude": "129.14919"
},
{
  "number": "8",
  "storeName": "반여상회",
  "phoneNumber": "051-524-9310",
  "address": "부산 해운대구 반여동 866-17번지 1층",
  "latitude": "35.20942",
  "longitude": "129.1246"
},
{
  "number": "9",
  "storeName": "송천복권방",
  "phoneNumber": "051-731-6232",
  "address": "부산 해운대구 좌동 1479-3 엔타임편의점내",
  "latitude": "35.203457",
  "longitude": "129.12338"
},
{
  "number": "10",
  "storeName": "왕대박로또방",
  "phoneNumber": "051-703-4334",
  "address": "부산 해운대구 우동 643-5 위드미편의점내",
  "latitude": "35.17252",
  "longitude": "129.17471"
},
{
  "number": "11",
  "storeName": "24시마트",
  "phoneNumber": "051-532-3051",
  "address": "부산 해운대구 반여동 751-9번지 CU편의점내",
  "latitude": "35.16041",
  "longitude": "129.15802"
},
{
  "number": "12",
  "storeName": "돈벼락맞는곳",
  "phoneNumber": "051-746-8700",
  "address": "부산 해운대구 좌동 1475-1번지 두산위브센티움상가102호보물섬내",
  "latitude": "35.16837",
  "longitude": "129.17625"
},
{
  "number": "13",
  "storeName": "복권나라수비점",
  "phoneNumber": "051-747-0645",
  "address": "부산 해운대구 우동 542-5번지 돈벼락맞는곳내",
  "latitude": "35.168186",
  "longitude": "129.17625"
},
{
  "number": "14",
  "storeName": "오렌지데이편의점",
  "phoneNumber": "051-701-7908",
  "address": "부산 해운대구 좌동 1432-4번지 르네상스오피스102호",
  "latitude": "35.173965",
  "longitude": "129.18149"
},
{
  "number": "15",
  "storeName": "로또판매점",
  "phoneNumber": "051-781-8810",
  "address": "부산 해운대구 재송동 1097-5번지 세븐일레븐내",
  "latitude": "35.183464",
  "longitude": "129.1226"
},
{
  "number": "16",
  "storeName": "센텀행운로또점",
  "phoneNumber": "051-743-1611",
  "address": "부산 해운대구 우동 1516번지 센텀타워메디컬제1층제105호CU편의점내",
  "latitude": "35.167206",
  "longitude": "129.13206"
},
{
  "number": "17",
  "storeName": "노다지복권방",
  "phoneNumber": "051-543-8842",
  "address": "부산 해운대구 반송동 250-893번지",
  "latitude": "35.22281",
  "longitude": "129.15059"
},
{
  "number": "18",
  "storeName": "노다지복권방",
  "phoneNumber": "051-543-2852",
  "address": "부산 해운대구 반송동 186-5번지",
  "latitude": "35.229153",
  "longitude": "129.16011"
},
{
  "number": "19",
  "storeName": "해운대온천복권방",
  "phoneNumber": "051-747-1514",
  "address": "부산 해운대구 중동 1373-32번지",
  "latitude": "35.162594",
  "longitude": "129.16551"
},
{
  "number": "20",
  "storeName": "복권명당",
  "phoneNumber": "051-545-1873",
  "address": "부산 해운대구 반송동 257-247번지",
  "latitude": "35.225613",
  "longitude": "129.14735"
},
{
  "number": "21",
  "storeName": "태양슈퍼마켓",
  "phoneNumber": "051-543-3442",
  "address": "부산 해운대구 반송동 888번지 삼한115호",
  "latitude": "35.228073",
  "longitude": "129.16078"
},
{
  "number": "22",
  "storeName": "로또복권방",
  "phoneNumber": "051-782-5357",
  "address": "부산 해운대구 반여동 1609-11번지",
  "latitude": "35.199543",
  "longitude": "129.13123"
},
{
  "number": "23",
  "storeName": "SEVEN스토아",
  "phoneNumber": "051-527-1777",
  "address": "부산 해운대구 반여동 1441-125",
  "latitude": "35.20134",
  "longitude": "129.11914"
},
{
  "number": "24",
  "storeName": "플러스할인마트",
  "phoneNumber": "051-744-2650",
  "address": "부산 해운대구 우동 602-6",
  "latitude": "35.16408",
  "longitude": "129.16014"
},
{
  "number": "25",
  "storeName": "장산복권방",
  "phoneNumber": "051-781-0121",
  "address": "부산 해운대구 재송동 1052-1 야후공인중개사 사무소내",
  "latitude": "35.19034",
  "longitude": "129.12094"
},
{
  "number": "26",
  "storeName": "영재서적해강점",
  "phoneNumber": "051-731-5996",
  "address": "부산 해운대구 우동 1008-5번지 올림픽타운상가101",
  "latitude": "35.16551",
  "longitude": "129.1405"
},
{
  "number": "27",
  "storeName": "대박복권방",
  "phoneNumber": "051-781-9169",
  "address": "부산 해운대구 반여동 1609-23번지",
  "latitude": "35.199013",
  "longitude": "129.13113"
},
{
  "number": "28",
  "storeName": "대박복권방",
  "phoneNumber": "051-781-5566",
  "address": "부산 해운대구 반여동 1291-816번지 7통6반",
  "latitude": "35.196026",
  "longitude": "129.13063"
},
{
  "number": "29",
  "storeName": "복권천국",
  "phoneNumber": "051-731-5756",
  "address": "부산 해운대구 우동 550-6번지",
  "latitude": "35.16336",
  "longitude": "129.15933"
},
{
  "number": "30",
  "storeName": "대진슈퍼",
  "phoneNumber": "051-704-7785",
  "address": "부산 해운대구 송정동 158-5번지",
  "latitude": "35.181606",
  "longitude": "129.19983"
},
{
  "number": "31",
  "storeName": "동일통신",
  "phoneNumber": "051-528-7207",
  "address": "부산 해운대구 반여동 1361-2번지",
  "latitude": "35.195415",
  "longitude": "129.11858"
},
{
  "number": "32",
  "storeName": "경동G-PLUS할인마트",
  "phoneNumber": "051-701-0320",
  "address": "부산 해운대구 좌동 1317번지 경동G-PLUS아파트상가103",
  "latitude": "35.16845",
  "longitude": "129.17941"
},
{
  "number": "33",
  "storeName": "무지개상점",
  "phoneNumber": "",
  "address": "부산 해운대구 좌동 879",
  "latitude": "35.195114",
  "longitude": "129.11957"
},
{
  "number": "34",
  "storeName": "희망행복권방",
  "phoneNumber": "",
  "address": "부산 해운대구 재송동 1145-32",
  "latitude": "35.204872",
  "longitude": "129.11761"
},
{
  "number": "35",
  "storeName": "황금로또",
  "phoneNumber": "",
  "address": "부산 해운대구 반여동 1215-30",
  "latitude": "35.203247",
  "longitude": "129.11989"
}
]