[
{
  "number": "1",
  "storeName": "환희복권방",
  "phoneNumber": "054-284-6045",
  "address": "경북 포항시 남구 해도동 484-8 1층 복권방",
  "latitude": "36.022903",
  "longitude": "129.37187"
},
{
  "number": "2",
  "storeName": "행운복권방(동아마트연일점)",
  "phoneNumber": "054-278-7172",
  "address": "경북 포항시 남구 연일읍 생지리 408번지 동아마트",
  "latitude": "35.99975",
  "longitude": "129.34503"
},
{
  "number": "3",
  "storeName": "오천웰빙마트",
  "phoneNumber": "054-291-9006",
  "address": "경북 포항시 남구 오천읍 용덕리 282-5번지",
  "latitude": "35.970993",
  "longitude": "129.41446"
},
{
  "number": "4",
  "storeName": "구옥로또",
  "phoneNumber": "054-286-3333",
  "address": "경북 포항시 남구 대도동 57-45",
  "latitude": "35.99158",
  "longitude": "129.42552"
},
{
  "number": "5",
  "storeName": "로또복권",
  "phoneNumber": "054-283-4324",
  "address": "경북 포항시 남구 대도동 164-11번지",
  "latitude": "36.012753",
  "longitude": "129.3635"
},
{
  "number": "6",
  "storeName": "행운복권방",
  "phoneNumber": "054-292-4310",
  "address": "경북 포항시 남구 청림동 3-263 청림교회부근",
  "latitude": "35.995407",
  "longitude": "129.41296"
},
{
  "number": "7",
  "storeName": "NJOY로또텔레콤",
  "phoneNumber": "054-275-6643",
  "address": "경북 포항시 남구 상도동 635-4번지",
  "latitude": "36.01221",
  "longitude": "129.3566"
},
{
  "number": "8",
  "storeName": "남부로또점",
  "phoneNumber": "054-278-5853",
  "address": "경북 포항시 남구 대도동 169-29번지",
  "latitude": "36.00998",
  "longitude": "129.36143"
},
{
  "number": "9",
  "storeName": "씨유상도점",
  "phoneNumber": "054-275-2674",
  "address": "경북 포항시 남구 상도동 662-7번지",
  "latitude": "36.0123",
  "longitude": "129.3507"
},
{
  "number": "10",
  "storeName": "천하명당복권방",
  "phoneNumber": "054-275-3770",
  "address": "경북 포항시 남구 대잠동 938-2",
  "latitude": "36.013474",
  "longitude": "129.34773"
},
{
  "number": "11",
  "storeName": "복권명당",
  "phoneNumber": "054-285-9567",
  "address": "경북 포항시 남구 연일읍 중단리 324번지",
  "latitude": "35.996426",
  "longitude": "129.34544"
},
{
  "number": "12",
  "storeName": "세븐 해도 코리아",
  "phoneNumber": "054-272-4383",
  "address": "경북 포항시 남구 해도동 78-30번지",
  "latitude": "36.017914",
  "longitude": "129.36763"
},
{
  "number": "13",
  "storeName": "에스에스복권",
  "phoneNumber": "054-273-0101",
  "address": "경북 포항시 남구 해도동 470-2번지",
  "latitude": "36.026802",
  "longitude": "129.37265"
},
{
  "number": "14",
  "storeName": "신라슈퍼",
  "phoneNumber": "054-284-3421",
  "address": "경북 포항시 남구 동해면 약전리 401-4번지",
  "latitude": "35.987915",
  "longitude": "129.44528"
},
{
  "number": "15",
  "storeName": "웃는사람들해도점",
  "phoneNumber": "054-281-2999",
  "address": "경북 포항시 남구 해도동 436-17 1층 CU 편의점내",
  "latitude": "36.024982",
  "longitude": "129.37312"
},
{
  "number": "16",
  "storeName": "대박복권",
  "phoneNumber": "054-293-0064",
  "address": "경북 포항시 남구 오천읍 문충리 338-4번지",
  "latitude": "35.974438",
  "longitude": "129.41422"
},
{
  "number": "17",
  "storeName": "팬더복권",
  "phoneNumber": "054-292-7443",
  "address": "경북 포항시 남구 오천읍 문덕리 364-5",
  "latitude": "35.97601",
  "longitude": "129.41423"
},
{
  "number": "18",
  "storeName": "하늘연못로또",
  "phoneNumber": "054-275-8840",
  "address": "경북 포항시 남구 효자동 595-5 1층 CU편의점내",
  "latitude": "36.018612",
  "longitude": "129.36995"
},
{
  "number": "19",
  "storeName": "훼미리마트이동그린빌",
  "phoneNumber": "054-277-5165",
  "address": "경북 포항시 남구 이동 664-5번지 이동그린빌111동106호 107호",
  "latitude": "36.02829",
  "longitude": "129.3407"
},
{
  "number": "20",
  "storeName": "장흥로또방",
  "phoneNumber": "054-286-6278",
  "address": "경북 포항시 남구 장흥동 569-18번지",
  "latitude": "35.986095",
  "longitude": "129.36382"
},
{
  "number": "21",
  "storeName": "복권명당",
  "phoneNumber": "054-291-5566",
  "address": "경북 포항시 남구 오천읍 원리 1075번지",
  "latitude": "35.973503",
  "longitude": "129.40208"
},
{
  "number": "22",
  "storeName": "GS-25문덕웰빙점",
  "phoneNumber": "054-292-4960",
  "address": "경북 포항시 남구 오천읍 문덕리 272-6 1층 GS25내",
  "latitude": "35.960938",
  "longitude": "129.40276"
},
{
  "number": "23",
  "storeName": "로또명당상대점",
  "phoneNumber": "054-274-6756",
  "address": "경북 포항시 남구 대도동 96-38번지",
  "latitude": "36.019283",
  "longitude": "129.36212"
},
{
  "number": "24",
  "storeName": "대박신화",
  "phoneNumber": "054-262-7633",
  "address": "경북 포항시 남구 대도동 1-1번지 상가 1층내 101호",
  "latitude": "36.027542",
  "longitude": "129.36443"
},
{
  "number": "25",
  "storeName": "대박수호통신",
  "phoneNumber": "054-292-7165",
  "address": "경북 포항시 남구 오천읍 문덕리 231-1 1층 폰공장 내",
  "latitude": "35.96229",
  "longitude": "129.40327"
},
{
  "number": "26",
  "storeName": "효자로또복권",
  "phoneNumber": "054-275-0728",
  "address": "경북 포항시 남구 효자동 190번지",
  "latitude": "36.009445",
  "longitude": "129.33803"
},
{
  "number": "27",
  "storeName": "신일로또",
  "phoneNumber": "054-242-4845",
  "address": "경북 포항시 남구 송도동 439-22번지",
  "latitude": "36.033207",
  "longitude": "129.37581"
},
{
  "number": "28",
  "storeName": "GS25(포항시청점)",
  "phoneNumber": "054-278-7624",
  "address": "경북 포항시 남구 대잠동 995",
  "latitude": "36.02045",
  "longitude": "129.34122"
},
{
  "number": "29",
  "storeName": "씨유(CU)포항원리원농점",
  "phoneNumber": "054-293-3397",
  "address": "경북 포항시 남구 오천읍 원리 893-12 1층 CU편의점내",
  "latitude": "35.969723",
  "longitude": "129.40236"
},
{
  "number": "30",
  "storeName": "운수대통",
  "phoneNumber": "",
  "address": "경북 포항시 남구 연일읍 유강리 588",
  "latitude": "36.004475",
  "longitude": "129.3166"
}
]