[
{
  "number": "1",
  "storeName": "GS25(가락센타점)",
  "phoneNumber": "02-443-0963",
  "address": "서울 송파구 가락동 170번지 1층",
  "latitude": "37.49725",
  "longitude": "127.13478"
},
{
  "number": "2",
  "storeName": "GS25(방이삼형점)",
  "phoneNumber": "02-423-8825",
  "address": "서울 송파구 방이동 149-13번지",
  "latitude": "37.51423",
  "longitude": "127.11526"
},
{
  "number": "3",
  "storeName": "씨스페이스(잠실점)",
  "phoneNumber": "02-413-3986",
  "address": "서울 송파구 잠실동 297-3번지",
  "latitude": "37.505337",
  "longitude": "127.08078"
},
{
  "number": "4",
  "storeName": "GS25(석촌센타점)",
  "phoneNumber": "02-417-6878",
  "address": "서울 송파구 석촌동 272-25번지",
  "latitude": "37.50097",
  "longitude": "127.10662"
},
{
  "number": "5",
  "storeName": "CU(문정역점)",
  "phoneNumber": "02-406-1955",
  "address": "서울 송파구 문정1동 39-1",
  "latitude": "37.48642",
  "longitude": "127.12461"
},
{
  "number": "6",
  "storeName": "GS25(잠실점)",
  "phoneNumber": "02-424-5336",
  "address": "서울 송파구 방이동 38-3번지",
  "latitude": "37.515255",
  "longitude": "127.11033"
},
{
  "number": "7",
  "storeName": "GS25(신천으뜸점)",
  "phoneNumber": "02-421-8911",
  "address": "서울 송파구 잠실동 186-7번지",
  "latitude": "37.510635",
  "longitude": "127.08413"
},
{
  "number": "8",
  "storeName": "GS25(잠실제일점)",
  "phoneNumber": "02-420-7931",
  "address": "서울 송파구 잠실동 204-10번지",
  "latitude": "37.509617",
  "longitude": "127.08307"
},
{
  "number": "9",
  "storeName": "GS25(방이중앙점)",
  "phoneNumber": "02-3431-6330",
  "address": "서울 송파구 방이동 64번지",
  "latitude": "37.51419",
  "longitude": "127.10794"
},
{
  "number": "10",
  "storeName": "GS25(문정중앙점)",
  "phoneNumber": "02-449-4575",
  "address": "서울 송파구 문정동 61-7",
  "latitude": "37.485466",
  "longitude": "127.12458"
},
{
  "number": "11",
  "storeName": "GS25(방이진실점)",
  "phoneNumber": "02-3431-6463",
  "address": "서울 송파구 방이동 34-9번지 1층2호",
  "latitude": "37.514805",
  "longitude": "127.109"
},
{
  "number": "12",
  "storeName": "보물섬복권판매점",
  "phoneNumber": "000-000-0000",
  "address": "서울 송파구 문정2동 651-4",
  "latitude": "37.509422",
  "longitude": "127.12342"
},
{
  "number": "13",
  "storeName": "어머화장품",
  "phoneNumber": "02-420-1506",
  "address": "서울 송파구 석촌동 261-17번지",
  "latitude": "37.502026",
  "longitude": "127.104065"
},
{
  "number": "14",
  "storeName": "신천대로점",
  "phoneNumber": "02-425-3534",
  "address": "서울 송파구 잠실동 175-12번지 CU편의점내",
  "latitude": "37.51141",
  "longitude": "127.08047"
},
{
  "number": "15",
  "storeName": "설반",
  "phoneNumber": "02-407-9106",
  "address": "서울 송파구 가락동 47-14번지 1층3호",
  "latitude": "37.498436",
  "longitude": "127.1211"
},
{
  "number": "16",
  "storeName": "성우미니마트",
  "phoneNumber": "02-419-9436",
  "address": "서울 송파구 송파동 122-9",
  "latitude": "37.511917",
  "longitude": "127.11949"
},
{
  "number": "17",
  "storeName": "럭키슈퍼",
  "phoneNumber": "02-422-9745",
  "address": "서울 송파구 송파동 87-20번지",
  "latitude": "37.50533",
  "longitude": "127.10983"
},
{
  "number": "18",
  "storeName": "제일유통",
  "phoneNumber": "02-470-8052",
  "address": "서울 송파구 가락동 97번지",
  "latitude": "37.495457",
  "longitude": "127.11865"
},
{
  "number": "19",
  "storeName": "명진슈퍼",
  "phoneNumber": "02-430-9938",
  "address": "서울 송파구 문정동 97-4번지",
  "latitude": "37.483505",
  "longitude": "127.129616"
},
{
  "number": "20",
  "storeName": "해피데이마트",
  "phoneNumber": "02-409-9792",
  "address": "서울 송파구 문정동 30-17번지 1층",
  "latitude": "37.489014",
  "longitude": "127.124664"
},
{
  "number": "21",
  "storeName": "행운마트",
  "phoneNumber": "02-400-4317",
  "address": "서울 송파구 오금동 85-8번지 1층",
  "latitude": "37.505535",
  "longitude": "127.13486"
},
{
  "number": "22",
  "storeName": "보성슈퍼",
  "phoneNumber": "02-403-0769",
  "address": "서울 송파구 마천동 307-14번지 1층",
  "latitude": "37.494503",
  "longitude": "127.15189"
},
{
  "number": "23",
  "storeName": "우일",
  "phoneNumber": "02-430-8418",
  "address": "서울 송파구 마천동 25-2번지",
  "latitude": "37.499916",
  "longitude": "127.14397"
},
{
  "number": "24",
  "storeName": "혜성슈퍼",
  "phoneNumber": "02-406-5020",
  "address": "서울 송파구 가락동 132-7번지",
  "latitude": "37.493412",
  "longitude": "127.12602"
},
{
  "number": "25",
  "storeName": "한일슈퍼",
  "phoneNumber": "02-430-1863",
  "address": "서울 송파구 마천동 329-30번지",
  "latitude": "37.491924",
  "longitude": "127.15677"
},
{
  "number": "26",
  "storeName": "동원식품",
  "phoneNumber": "02-400-5821",
  "address": "서울 송파구 가락동 154-18번지",
  "latitude": "37.497158",
  "longitude": "127.12875"
},
{
  "number": "27",
  "storeName": "그린마트",
  "phoneNumber": "02-422-6664",
  "address": "서울 송파구 방이동 67-12번지",
  "latitude": "37.51222",
  "longitude": "127.10904"
},
{
  "number": "28",
  "storeName": "윈윈",
  "phoneNumber": "02-424-3313",
  "address": "서울 송파구 오금동 114-21 씨유 오금마천로점",
  "latitude": "37.50174",
  "longitude": "127.14145"
},
{
  "number": "29",
  "storeName": "윤진복권방",
  "phoneNumber": "02-443-2440",
  "address": "서울 송파구 가락동 70 영남빌딩105호",
  "latitude": "37.49756",
  "longitude": "127.119446"
},
{
  "number": "30",
  "storeName": "석촌한솔점",
  "phoneNumber": "02-422-0025",
  "address": "서울 송파구 석촌동 173-6 CU",
  "latitude": "37.50476",
  "longitude": "127.10524"
},
{
  "number": "31",
  "storeName": "복돼지방",
  "phoneNumber": "000-0000-0000",
  "address": "서울 송파구 석촌동 212 E-MART24",
  "latitude": "37.510166",
  "longitude": "127.11797"
},
{
  "number": "32",
  "storeName": "CU로또 잠실점",
  "phoneNumber": "",
  "address": "서울 송파구 신천동 7-28 101-2호 CU편의점",
  "latitude": "37.515125",
  "longitude": "127.10248"
},
{
  "number": "33",
  "storeName": "대명로또",
  "phoneNumber": "02-408-5499",
  "address": "서울 송파구 마천동 123-12번지 1층",
  "latitude": "37.4979",
  "longitude": "127.148125"
},
{
  "number": "34",
  "storeName": "클로버 복권판매점",
  "phoneNumber": "02-422-6782",
  "address": "서울 송파구 방이동 175-7번지 102호",
  "latitude": "37.513775",
  "longitude": "127.11707"
},
{
  "number": "35",
  "storeName": "태성철물",
  "phoneNumber": "02-413-7824",
  "address": "서울 송파구 방이동 98-16",
  "latitude": "37.512985",
  "longitude": "127.1107"
},
{
  "number": "36",
  "storeName": "명로또",
  "phoneNumber": "02-408-1551",
  "address": "서울 송파구 문정동 75-10번지",
  "latitude": "37.479954",
  "longitude": "127.12666"
},
{
  "number": "37",
  "storeName": "토큰판매소",
  "phoneNumber": "02-472-5738",
  "address": "서울 송파구 풍납동 480번지",
  "latitude": "37.536655",
  "longitude": "127.122345"
},
{
  "number": "38",
  "storeName": "토큰판매복권담배",
  "phoneNumber": "02-409-9936",
  "address": "서울 송파구 가락동 164-20",
  "latitude": "37.49631",
  "longitude": "127.131226"
},
{
  "number": "39",
  "storeName": "치즈마트",
  "phoneNumber": "02-431-7153",
  "address": "서울 송파구 가락동 600 가락몰 2관 1층 2-1호",
  "latitude": "37.492992",
  "longitude": "127.11233"
},
{
  "number": "40",
  "storeName": "잠실나루역2번출구",
  "phoneNumber": "02-3432-9789",
  "address": "서울 송파구 신천동 17-2번지 잠실나루역 2번출구",
  "latitude": "37.522182",
  "longitude": "127.10475"
},
{
  "number": "41",
  "storeName": "미래상사",
  "phoneNumber": "02-404-4313",
  "address": "서울 송파구 거여동 32-2번지 104호",
  "latitude": "37.492718",
  "longitude": "127.1481"
},
{
  "number": "42",
  "storeName": "유성복권",
  "phoneNumber": "02-403-0646",
  "address": "서울 송파구 가락동 18-15번지 1층",
  "latitude": "37.501648",
  "longitude": "127.12467"
},
{
  "number": "43",
  "storeName": "노다지복권방",
  "phoneNumber": "02-403-8868",
  "address": "서울 송파구 가락동 73-4번지 1층",
  "latitude": "37.496326",
  "longitude": "127.12165"
},
{
  "number": "44",
  "storeName": "잠실연쇄점",
  "phoneNumber": "02-418-1565",
  "address": "서울 송파구 잠실동 242-17 이마트 24편의점",
  "latitude": "37.507263",
  "longitude": "127.09013"
},
{
  "number": "45",
  "storeName": "윈마트",
  "phoneNumber": "02-413-3446",
  "address": "서울 송파구 석촌동 12번지",
  "latitude": "37.503822",
  "longitude": "127.09732"
},
{
  "number": "46",
  "storeName": "그린마트",
  "phoneNumber": "02-415-6010",
  "address": "서울 송파구 잠실동 245번지 1층",
  "latitude": "37.506874",
  "longitude": "127.08748"
},
{
  "number": "47",
  "storeName": "폰스토아",
  "phoneNumber": "02-412-7860",
  "address": "서울 송파구 방이동 112-8번지",
  "latitude": "37.511284",
  "longitude": "127.11446"
},
{
  "number": "48",
  "storeName": "통일복권방",
  "phoneNumber": "02-415-5245",
  "address": "서울 송파구 잠실동 195",
  "latitude": "37.510223",
  "longitude": "127.07944"
},
{
  "number": "49",
  "storeName": "한경종합광고",
  "phoneNumber": "02-421-2114",
  "address": "서울 송파구 삼전동 28-8번지",
  "latitude": "37.503902",
  "longitude": "127.08855"
},
{
  "number": "50",
  "storeName": "복권나라",
  "phoneNumber": "02-414-0877",
  "address": "서울 송파구 삼전동 175번지 1층복권나라",
  "latitude": "37.50032",
  "longitude": "127.09501"
},
{
  "number": "51",
  "storeName": "가판대20호",
  "phoneNumber": "02-409-7288",
  "address": "서울 송파구 석촌동 296-17번지 석촌농협앞가판대20호",
  "latitude": "37.500374",
  "longitude": "127.111084"
},
{
  "number": "52",
  "storeName": "원스탑",
  "phoneNumber": "02-418-8605",
  "address": "서울 송파구 잠실동 183-1",
  "latitude": "37.510902",
  "longitude": "127.08321"
},
{
  "number": "53",
  "storeName": "복권명당(CU송파한화2호점)",
  "phoneNumber": "02-448-9151",
  "address": "서울 송파구 문정동 622 송파한화오벨리스크1층123호(CU편의점)",
  "latitude": "37.480465",
  "longitude": "127.11969"
},
{
  "number": "54",
  "storeName": "천하명당",
  "phoneNumber": "02-419-3241",
  "address": "서울 송파구 석촌동 294-5번지 1층",
  "latitude": "37.501972",
  "longitude": "127.10789"
},
{
  "number": "55",
  "storeName": "부자나라석촌점",
  "phoneNumber": "",
  "address": "서울 송파구 잠실동 211-39",
  "latitude": "37.5001",
  "longitude": "127.104904"
},
{
  "number": "56",
  "storeName": "명지복권방",
  "phoneNumber": "02-431-2057",
  "address": "서울 송파구 거여동 133-82번지 101호",
  "latitude": "37.497814",
  "longitude": "127.14623"
},
{
  "number": "57",
  "storeName": "천하명당복권방",
  "phoneNumber": "02-415-8311",
  "address": "서울 송파구 송파동 18-18번지 1층",
  "latitude": "37.50679",
  "longitude": "127.10821"
},
{
  "number": "58",
  "storeName": "타임25로또판매점",
  "phoneNumber": "02-431-2533",
  "address": "서울 송파구 가락동 190-1번지 1층",
  "latitude": "37.494602",
  "longitude": "127.1336"
},
{
  "number": "59",
  "storeName": "훼미리마트방이오피스점",
  "phoneNumber": "02-2202-7278",
  "address": "서울 송파구 방이동 187-8번지 1층CU편의점내",
  "latitude": "37.51067",
  "longitude": "127.125435"
},
{
  "number": "60",
  "storeName": "나눔로또 석촌점",
  "phoneNumber": "02-3431-0166",
  "address": "서울 송파구 삼전동 109-5번지 1층",
  "latitude": "37.50596",
  "longitude": "127.09392"
},
{
  "number": "61",
  "storeName": "송파트루빌",
  "phoneNumber": "02-408-0106",
  "address": "서울 송파구 오금동 45-4번지 동인트루빌오피스텔101호",
  "latitude": "37.503716",
  "longitude": "127.12687"
},
{
  "number": "62",
  "storeName": "일신매점",
  "phoneNumber": "02-422-8559",
  "address": "서울 송파구 송파동 97-39 일신여상앞가판",
  "latitude": "37.500687",
  "longitude": "127.11169"
},
{
  "number": "63",
  "storeName": "교통카드판매대",
  "phoneNumber": "000-0000-0000",
  "address": "서울 송파구 가락동 80 공영주차장앞가판",
  "latitude": "37.49451",
  "longitude": "127.119865"
},
{
  "number": "64",
  "storeName": "용꿈돼지꿈",
  "phoneNumber": "02-403-6702",
  "address": "서울 송파구 오금동 68번지",
  "latitude": "37.503708",
  "longitude": "127.13588"
},
{
  "number": "65",
  "storeName": "크로바쎄븐",
  "phoneNumber": "02-3431-1089",
  "address": "서울 송파구 문정동 644-2 1층 128호",
  "latitude": "37.48535",
  "longitude": "127.119225"
},
{
  "number": "66",
  "storeName": "CU 송파고분로점",
  "phoneNumber": "02-422-0181",
  "address": "서울 송파구 송파동 143-6",
  "latitude": "37.506798",
  "longitude": "127.115616"
},
{
  "number": "67",
  "storeName": "인앤아웃",
  "phoneNumber": "",
  "address": "서울 송파구 마천동 129-1 더페이스샵 뒤편",
  "latitude": "37.49727",
  "longitude": "127.149284"
},
{
  "number": "68",
  "storeName": "산성슈퍼",
  "phoneNumber": "02-401-7772",
  "address": "서울 송파구 거여동 577번지",
  "latitude": "37.490303",
  "longitude": "127.15724"
},
{
  "number": "69",
  "storeName": "가로판매점",
  "phoneNumber": "02-2203-7488",
  "address": "서울 송파구 잠실동 184-8번지 새마을시장신천역3번출구앞가판",
  "latitude": "37.51121",
  "longitude": "127.08538"
},
{
  "number": "70",
  "storeName": "럭키복권샵",
  "phoneNumber": "02-443-6838",
  "address": "서울 송파구 마천동 77-9번지",
  "latitude": "37.499603",
  "longitude": "127.15169"
},
{
  "number": "71",
  "storeName": "복권파티",
  "phoneNumber": "02-448-3605",
  "address": "서울 송파구 거여동 31-10번지",
  "latitude": "37.492767",
  "longitude": "127.14615"
},
{
  "number": "72",
  "storeName": "부흥청과",
  "phoneNumber": "02-400-0145",
  "address": "서울 송파구 오금동 120-7번지 오금동사거리 제이빌딩상가 1층",
  "latitude": "37.503662",
  "longitude": "127.138664"
},
{
  "number": "73",
  "storeName": "잠실매점",
  "phoneNumber": "02-419-0763",
  "address": "서울 송파구 신천동 7-18번지 잠실역 8번출구 앞 가판",
  "latitude": "37.514336",
  "longitude": "127.10057"
},
{
  "number": "74",
  "storeName": "사랑복권",
  "phoneNumber": "02-6929-2234",
  "address": "서울 송파구 문정동 643-1 E동 지하 1층 178호 사랑복권(미니스톱)",
  "latitude": "37.48631",
  "longitude": "127.12112"
},
{
  "number": "75",
  "storeName": "올림픽점",
  "phoneNumber": "02-401-2495",
  "address": "서울 송파구 방이동 89-11 CU 편의점",
  "latitude": "37.515724",
  "longitude": "127.131065"
},
{
  "number": "76",
  "storeName": "씨유 송파푸르지오점",
  "phoneNumber": "02-449-0788",
  "address": "서울 송파구 문정동 620 153호 CU편의점",
  "latitude": "37.480835",
  "longitude": "127.12128"
},
{
  "number": "77",
  "storeName": "와이비상사",
  "phoneNumber": "",
  "address": "서울 송파구 풍납동 222-12번지",
  "latitude": "37.533485",
  "longitude": "127.11657"
},
{
  "number": "78",
  "storeName": "한아름로또",
  "phoneNumber": "02-401-1540",
  "address": "서울 송파구 마천동 203-1번지",
  "latitude": "37.497345",
  "longitude": "127.15397"
},
{
  "number": "79",
  "storeName": "GS25(방이도곡점)",
  "phoneNumber": "02-3431-5578",
  "address": "서울 송파구 방이동 107-3번지",
  "latitude": "37.512157",
  "longitude": "127.112785"
},
{
  "number": "80",
  "storeName": "넘버스 커피",
  "phoneNumber": "02-6326-8856",
  "address": "서울 송파구 삼전동 119-26 카페 넘버스",
  "latitude": "37.503273",
  "longitude": "127.095245"
},
{
  "number": "81",
  "storeName": "연대나눔로또",
  "phoneNumber": "",
  "address": "서울 송파구 송파동 95-39 상가 1층 인쇄및문구점",
  "latitude": "37.502396",
  "longitude": "127.11097"
},
{
  "number": "82",
  "storeName": "복권방",
  "phoneNumber": "",
  "address": "서울 송파구 문정동 652-5 문정아이파크 1층 111호",
  "latitude": "37.484764",
  "longitude": "127.125465"
}
]