[
{
  "number": "1",
  "storeName": "여기있었네복권방",
  "phoneNumber": "063-546-6452",
  "address": "전북 김제시 요촌동 474-3번지",
  "latitude": "35.79936",
  "longitude": "126.8846"
},
{
  "number": "2",
  "storeName": "용덕슈퍼",
  "phoneNumber": "063-547-5775",
  "address": "전북 김제시 요촌동 160-8번지",
  "latitude": "35.799374",
  "longitude": "126.88763"
},
{
  "number": "3",
  "storeName": "성운슈퍼",
  "phoneNumber": "063-547-2084",
  "address": "전북 김제시 신풍동 37-3번지",
  "latitude": "35.7933",
  "longitude": "126.90205"
},
{
  "number": "4",
  "storeName": "비사벌쇼핑",
  "phoneNumber": "063-547-9025",
  "address": "전북 김제시 신풍동 595",
  "latitude": "35.802242",
  "longitude": "126.90018"
},
{
  "number": "5",
  "storeName": "부영2차문구",
  "phoneNumber": "063-548-5454",
  "address": "전북 김제시 검산동 1032번지",
  "latitude": "35.805847",
  "longitude": "126.8979"
},
{
  "number": "6",
  "storeName": "팡팡로또복권",
  "phoneNumber": "070-8221-4650",
  "address": "전북 김제시 요촌동 293-8번지",
  "latitude": "35.804527",
  "longitude": "126.88571"
},
{
  "number": "7",
  "storeName": "국민로또방",
  "phoneNumber": "063-546-3369",
  "address": "전북 김제시 요촌동 255-6번지",
  "latitude": "35.80116",
  "longitude": "126.88721"
},
{
  "number": "8",
  "storeName": "행운복권방",
  "phoneNumber": "063-544-6116",
  "address": "전북 김제시 요촌동 230-5",
  "latitude": "35.802082",
  "longitude": "126.88496"
},
{
  "number": "9",
  "storeName": "대박복권방",
  "phoneNumber": "070-8194-9981",
  "address": "전북 김제시 요촌동 117-10번지",
  "latitude": "35.79899",
  "longitude": "126.890594"
},
{
  "number": "10",
  "storeName": "CU(요촌점)",
  "phoneNumber": "063-542-1059",
  "address": "전북 김제시 요촌동 614-5",
  "latitude": "35.804115",
  "longitude": "126.895134"
},
{
  "number": "11",
  "storeName": "로또방",
  "phoneNumber": "",
  "address": "전북 김제시 신풍동 146-16번지",
  "latitude": "35.799213",
  "longitude": "126.89919"
}
]