[
{
  "number": "1",
  "storeName": "돈벼락복권방",
  "phoneNumber": "",
  "address": "충남 논산시 내동 896번지 1층 상가",
  "latitude": "36.1949",
  "longitude": "127.08998"
},
{
  "number": "2",
  "storeName": "시외버스터미널로또복권방",
  "phoneNumber": "041-733-0419",
  "address": "충남 논산시 취암동 1045-1번지",
  "latitude": "36.203053",
  "longitude": "127.08822"
},
{
  "number": "3",
  "storeName": "여기있었네복권방",
  "phoneNumber": "041-736-1565",
  "address": "충남 논산시 취암동 177-4번지",
  "latitude": "36.201145",
  "longitude": "127.087715"
},
{
  "number": "4",
  "storeName": "논산복권방",
  "phoneNumber": "041-734-7864",
  "address": "충남 논산시 취암동 612-3번지",
  "latitude": "36.204376",
  "longitude": "127.08953"
},
{
  "number": "5",
  "storeName": "강경복권방",
  "phoneNumber": "041-745-7089",
  "address": "충남 논산시 강경읍 대흥리 19-3번지",
  "latitude": "36.155987",
  "longitude": "127.01494"
},
{
  "number": "6",
  "storeName": "돈방석복권방",
  "phoneNumber": "041-736-6456",
  "address": "충남 논산시 내동 297-13",
  "latitude": "36.192883",
  "longitude": "127.091125"
},
{
  "number": "7",
  "storeName": "제일복권",
  "phoneNumber": "041-980-5599",
  "address": "충남 논산시 내동 969",
  "latitude": "36.1887",
  "longitude": "127.10057"
},
{
  "number": "8",
  "storeName": "금성복권방",
  "phoneNumber": "041-734-6678",
  "address": "충남 논산시 화지동 32-1번지 1층 역전할인마트내",
  "latitude": "36.218212",
  "longitude": "127.273705"
},
{
  "number": "9",
  "storeName": "대박로또",
  "phoneNumber": "",
  "address": "충남 논산시 반월동 121-26번지 1층상가",
  "latitude": "36.203743",
  "longitude": "127.08538"
},
{
  "number": "10",
  "storeName": "왕대박복권",
  "phoneNumber": "041-735-8262",
  "address": "충남 논산시 연산면 임리 125-2번지 편의점",
  "latitude": "36.21236",
  "longitude": "127.17875"
},
{
  "number": "11",
  "storeName": "대박복권",
  "phoneNumber": "",
  "address": "충남 논산시 취암동 595-4",
  "latitude": "36.201756",
  "longitude": "127.08581"
},
{
  "number": "12",
  "storeName": "스타복권방",
  "phoneNumber": "",
  "address": "충남 논산시 연무읍 마산리 531-22",
  "latitude": "36.127525",
  "longitude": "127.0994"
},
{
  "number": "13",
  "storeName": "천하제일복권명당연무점",
  "phoneNumber": "041-742-8645",
  "address": "충남 논산시 연무읍 안심리 1126-36번지",
  "latitude": "36.135487",
  "longitude": "127.10006"
},
{
  "number": "14",
  "storeName": "일등복권판매점",
  "phoneNumber": "",
  "address": "충남 논산시 내동 480-8",
  "latitude": "36.18268",
  "longitude": "127.09949"
},
{
  "number": "15",
  "storeName": "나눔로또",
  "phoneNumber": "",
  "address": "충남 논산시 내동 728",
  "latitude": "36.18633",
  "longitude": "127.10252"
},
{
  "number": "16",
  "storeName": "양지복권명당",
  "phoneNumber": "",
  "address": "충남 논산시 화지동 32-79",
  "latitude": "36.206615",
  "longitude": "127.089745"
},
{
  "number": "17",
  "storeName": "일등로또논산점",
  "phoneNumber": "041-734-1117",
  "address": "충남 논산시 반월동 69-6",
  "latitude": "36.204983",
  "longitude": "127.08568"
}
]