[
{
  "number": "1",
  "storeName": "로또복권방",
  "phoneNumber": "041-881-1811",
  "address": "충남 공주시 옥룡동 331-6번지",
  "latitude": "36.455383",
  "longitude": "127.13358"
},
{
  "number": "2",
  "storeName": "복권명당",
  "phoneNumber": "041-857-8252",
  "address": "충남 공주시 신관동 585-12번지",
  "latitude": "36.47183",
  "longitude": "127.1331"
},
{
  "number": "3",
  "storeName": "공주복권방",
  "phoneNumber": "041-854-3744",
  "address": "충남 공주시 산성동 136-4",
  "latitude": "36.45891",
  "longitude": "127.12523"
},
{
  "number": "4",
  "storeName": "로또BANK",
  "phoneNumber": "041-858-7894",
  "address": "충남 공주시 신관동 653-14번지",
  "latitude": "36.473442",
  "longitude": "127.13743"
},
{
  "number": "5",
  "storeName": "로또복권",
  "phoneNumber": "041-858-7901",
  "address": "충남 공주시 옥룡동 308-1번지",
  "latitude": "36.4562",
  "longitude": "127.13315"
},
{
  "number": "6",
  "storeName": "희망로또",
  "phoneNumber": "041-853-9382",
  "address": "충남 공주시 신관동 611-1번지 1층 상가",
  "latitude": "36.46779",
  "longitude": "127.135025"
},
{
  "number": "7",
  "storeName": "대박로또",
  "phoneNumber": "041-841-4777",
  "address": "충남 공주시 유구읍 석남리 288-12번지 1층",
  "latitude": "36.550476",
  "longitude": "126.95252"
},
{
  "number": "8",
  "storeName": "공주로또",
  "phoneNumber": "",
  "address": "충남 공주시 중동 369-15",
  "latitude": "36.28904",
  "longitude": "127.24167"
},
{
  "number": "9",
  "storeName": "아찌라",
  "phoneNumber": "041-858-1507",
  "address": "충남 공주시 산성동 170-17번지",
  "latitude": "36.45953",
  "longitude": "127.12437"
},
{
  "number": "10",
  "storeName": "로또복권방중동점",
  "phoneNumber": "041-852-2392",
  "address": "충남 공주시 중동 147-95번지 신발가게",
  "latitude": "36.45643",
  "longitude": "127.124146"
},
{
  "number": "11",
  "storeName": "씨스페이스 공주신관점",
  "phoneNumber": "041-858-2768",
  "address": "충남 공주시 신관동 593-1번지",
  "latitude": "36.470127",
  "longitude": "127.12955"
},
{
  "number": "12",
  "storeName": "씨유편의점 내 로또방",
  "phoneNumber": "041-881-3039",
  "address": "충남 공주시 신관동 22-19",
  "latitude": "36.47381",
  "longitude": "127.1464"
},
{
  "number": "13",
  "storeName": "복권방",
  "phoneNumber": "",
  "address": "충남 공주시 정안면 광정리 265-2",
  "latitude": "36.610626",
  "longitude": "127.12158"
},
{
  "number": "14",
  "storeName": "웅진로또방",
  "phoneNumber": "",
  "address": "충남 공주시 웅진동 223-2",
  "latitude": "36.456482",
  "longitude": "127.1087"
}
]