[
{
  "number": "1",
  "storeName": "svp로또판매점",
  "phoneNumber": "",
  "address": "경북 칠곡군 석적읍 중리 207-1 1층 svp로또편의점",
  "latitude": "36.074917",
  "longitude": "128.39308"
},
{
  "number": "2",
  "storeName": "일등복권",
  "phoneNumber": "054-977-2704",
  "address": "경북 칠곡군 동명면 금암리 231-48번지",
  "latitude": "35.98255",
  "longitude": "128.55363"
},
{
  "number": "3",
  "storeName": "로또훼미리마트왜관점",
  "phoneNumber": "054-977-0683",
  "address": "경북 칠곡군 왜관읍 왜관리 191-3번지 CU편의점 내",
  "latitude": "35.99614",
  "longitude": "128.39926"
},
{
  "number": "4",
  "storeName": "로또명당(왜관IC)",
  "phoneNumber": "054-971-3844",
  "address": "경북 칠곡군 왜관읍 왜관리 779-13 1층 커피\u0026로또명당",
  "latitude": "35.98368",
  "longitude": "128.42291"
},
{
  "number": "5",
  "storeName": "IMT통신(아이나비)",
  "phoneNumber": "054-975-1544",
  "address": "경북 칠곡군 왜관읍 왜관리 826-2 아이나비 매장내 복권판매점",
  "latitude": "35.97999",
  "longitude": "128.39836"
},
{
  "number": "6",
  "storeName": "GS25(왜관우방점)",
  "phoneNumber": "054-973-2338",
  "address": "경북 칠곡군 왜관읍 왜관리 774 GS25왜관우방점",
  "latitude": "35.985455",
  "longitude": "128.39977"
},
{
  "number": "7",
  "storeName": "깨비유통",
  "phoneNumber": "054-976-1539",
  "address": "경북 칠곡군 석적읍 중리 493-12번지",
  "latitude": "36.07963",
  "longitude": "128.40883"
},
{
  "number": "8",
  "storeName": "로또CU왜관공단점",
  "phoneNumber": "054-977-5875",
  "address": "경북 칠곡군 북삼읍 인평리 1094-10 CU(북삼대로점)",
  "latitude": "35.965714",
  "longitude": "128.40973"
},
{
  "number": "9",
  "storeName": "GS25 석적나래원",
  "phoneNumber": "054-975-8871",
  "address": "경북 칠곡군 석적읍 중리 204-9 GS25 석적나래원점",
  "latitude": "36.07659",
  "longitude": "128.4158"
},
{
  "number": "10",
  "storeName": "럭키세븐",
  "phoneNumber": "054-972-8138",
  "address": "경북 칠곡군 약목면 관호리 871-4",
  "latitude": "36.00378",
  "longitude": "128.38821"
},
{
  "number": "11",
  "storeName": "NG24",
  "phoneNumber": "054-977-2555",
  "address": "경북 칠곡군 석적읍 중리 86-8번지",
  "latitude": "36.079803",
  "longitude": "128.41183"
},
{
  "number": "12",
  "storeName": "로또대박점",
  "phoneNumber": "054-972-4598",
  "address": "경북 칠곡군 왜관읍 금산리 986-17번지",
  "latitude": "35.967556",
  "longitude": "128.41786"
},
{
  "number": "13",
  "storeName": "중앙로또(로손편의점내)",
  "phoneNumber": "054-975-1666",
  "address": "경북 칠곡군 북삼읍 인평리 1057-5번지 로손편의점 내",
  "latitude": "36.071465",
  "longitude": "128.34282"
},
{
  "number": "14",
  "storeName": "GS25(칠곡북삼점)",
  "phoneNumber": "054-972-7002",
  "address": "경북 칠곡군 북삼읍 인평리 1035-9번지",
  "latitude": "36.068157",
  "longitude": "128.35133"
},
{
  "number": "15",
  "storeName": "씨스페이스(석적 남율리점)",
  "phoneNumber": "00-000-0000",
  "address": "경북 칠곡군 석적읍 남율리 1075",
  "latitude": "36.067776",
  "longitude": "128.40092"
},
{
  "number": "16",
  "storeName": "칠곡명당",
  "phoneNumber": "054-972-7507",
  "address": "경북 칠곡군 북삼읍 인평리 1076-6 1층 (명문빌딩) 편의점_세븐일레븐",
  "latitude": "36.071033",
  "longitude": "128.34697"
}
]