[
{
  "number": "1",
  "storeName": "단대대박복권방",
  "phoneNumber": "031-732-4714",
  "address": "경기 성남시 중원구 금광동 11번지",
  "latitude": "37.444717",
  "longitude": "127.158585"
},
{
  "number": "2",
  "storeName": "해뜰날로또복권방",
  "phoneNumber": "031-755-0708",
  "address": "경기 성남시 중원구 하대원동 132-5",
  "latitude": "37.43008",
  "longitude": "127.150246"
},
{
  "number": "3",
  "storeName": "가연이네슈퍼",
  "phoneNumber": "031-758-3148",
  "address": "경기 성남시 중원구 성남동 3968",
  "latitude": "37.429096",
  "longitude": "127.13304"
},
{
  "number": "4",
  "storeName": "플러스",
  "phoneNumber": "031-721-6808",
  "address": "경기 성남시 중원구 성남동 3164번지",
  "latitude": "37.433685",
  "longitude": "127.132744"
},
{
  "number": "5",
  "storeName": "오복슈퍼",
  "phoneNumber": "031-745-4989",
  "address": "경기 성남시 중원구 금광동 2880번지",
  "latitude": "37.450222",
  "longitude": "127.16588"
},
{
  "number": "6",
  "storeName": "복권판매",
  "phoneNumber": "031-735-3006",
  "address": "경기 성남시 중원구 성남동 2612",
  "latitude": "37.436836",
  "longitude": "127.142715"
},
{
  "number": "7",
  "storeName": "로또복권 씨유 신구대점",
  "phoneNumber": "031-742-0665",
  "address": "경기 성남시 중원구 금광동 2401번지",
  "latitude": "37.44651",
  "longitude": "127.16764"
},
{
  "number": "8",
  "storeName": "버스가판대",
  "phoneNumber": "031-758-1576",
  "address": "경기 성남시 중원구 성남동 3495번지",
  "latitude": "37.431812",
  "longitude": "127.12956"
},
{
  "number": "9",
  "storeName": "가두판매 단대오거리점",
  "phoneNumber": "031-747-4951",
  "address": "경기 성남시 중원구 중앙동 2460-1번지",
  "latitude": "37.444763",
  "longitude": "127.154175"
},
{
  "number": "10",
  "storeName": "해피데이",
  "phoneNumber": "031-735-9038",
  "address": "경기 성남시 중원구 중앙동 2009-1번지",
  "latitude": "37.442867",
  "longitude": "127.15574"
},
{
  "number": "11",
  "storeName": "삼일사",
  "phoneNumber": "031-746-1304",
  "address": "경기 성남시 중원구 상대원동 2980-19번지",
  "latitude": "37.436413",
  "longitude": "127.15845"
},
{
  "number": "12",
  "storeName": "만인의방",
  "phoneNumber": "031-743-8854",
  "address": "경기 성남시 중원구 중앙동 909",
  "latitude": "37.440456",
  "longitude": "127.14955"
},
{
  "number": "13",
  "storeName": "복권닷컴",
  "phoneNumber": "031-733-3477",
  "address": "경기 성남시 중원구 상대원동 2049-1번지",
  "latitude": "37.434772",
  "longitude": "127.15853"
},
{
  "number": "14",
  "storeName": "꿈에본그자리",
  "phoneNumber": "031-742-6888",
  "address": "경기 성남시 중원구 금광동 4752번지",
  "latitude": "37.45243",
  "longitude": "127.160645"
},
{
  "number": "15",
  "storeName": "대박복권방",
  "phoneNumber": "031-735-0477",
  "address": "경기 성남시 중원구 상대원동 2992-30번지",
  "latitude": "37.440544",
  "longitude": "127.16213"
},
{
  "number": "16",
  "storeName": "복권명가",
  "phoneNumber": "031-743-6036",
  "address": "경기 성남시 중원구 상대원동 2318번지",
  "latitude": "37.441006",
  "longitude": "127.16359"
},
{
  "number": "17",
  "storeName": "황금알복권방",
  "phoneNumber": "031-748-7625",
  "address": "경기 성남시 중원구 상대원동 1535번지",
  "latitude": "37.4352",
  "longitude": "127.16403"
},
{
  "number": "18",
  "storeName": "복권마을",
  "phoneNumber": "031-735-5911",
  "address": "경기 성남시 중원구 상대원동 2995-17",
  "latitude": "37.44023",
  "longitude": "127.15994"
},
{
  "number": "19",
  "storeName": "돼지방",
  "phoneNumber": "031-731-7521",
  "address": "경기 성남시 중원구 상대원동 1964번지",
  "latitude": "37.43362",
  "longitude": "127.160645"
},
{
  "number": "20",
  "storeName": "여수복권방",
  "phoneNumber": "031-755-9932",
  "address": "경기 성남시 중원구 여수동 214",
  "latitude": "37.41804",
  "longitude": "127.12663"
},
{
  "number": "21",
  "storeName": "행운복권방",
  "phoneNumber": "031-747-0252",
  "address": "경기 성남시 중원구 은행동 1640번지",
  "latitude": "37.455044",
  "longitude": "127.16229"
},
{
  "number": "22",
  "storeName": "태양복권",
  "phoneNumber": "031-735-7716",
  "address": "경기 성남시 중원구 상대원동 860번지",
  "latitude": "37.43929",
  "longitude": "127.16559"
},
{
  "number": "23",
  "storeName": "로또뱅크",
  "phoneNumber": "031-757-3666",
  "address": "경기 성남시 중원구 도촌동 708번지 101호",
  "latitude": "37.411247",
  "longitude": "127.16507"
},
{
  "number": "24",
  "storeName": "현대로또",
  "phoneNumber": "031-747-5993",
  "address": "경기 성남시 중원구 상대원동 2965",
  "latitude": "37.43956",
  "longitude": "127.16192"
},
{
  "number": "25",
  "storeName": "복권명당",
  "phoneNumber": "",
  "address": "경기 성남시 중원구 금광동 3730번지",
  "latitude": "37.44492",
  "longitude": "127.16031"
},
{
  "number": "26",
  "storeName": "대운복권",
  "phoneNumber": "031-754-6426",
  "address": "경기 성남시 중원구 성남동 4159번지",
  "latitude": "37.432228",
  "longitude": "127.12867"
},
{
  "number": "27",
  "storeName": "대박찬스",
  "phoneNumber": "031-734-6125",
  "address": "경기 성남시 중원구 금광동 4460번지",
  "latitude": "37.446842",
  "longitude": "127.158195"
},
{
  "number": "28",
  "storeName": "부자나라(CU성남중원구청점)",
  "phoneNumber": "031-754-8064",
  "address": "경기 성남시 중원구 성남동 3789번지 1층",
  "latitude": "37.42993",
  "longitude": "127.13673"
},
{
  "number": "29",
  "storeName": "로또복권방",
  "phoneNumber": "031-757-7783",
  "address": "경기 성남시 중원구 성남동 3126 금호어울림상가11호세븐일레븐",
  "latitude": "37.430637",
  "longitude": "127.13847"
},
{
  "number": "30",
  "storeName": "행운복권",
  "phoneNumber": "031-742-4294",
  "address": "경기 성남시 중원구 중앙동 1288",
  "latitude": "37.43901",
  "longitude": "127.14512"
},
{
  "number": "31",
  "storeName": "행운복권방",
  "phoneNumber": "031-744-4709",
  "address": "경기 성남시 중원구 상대원동 583",
  "latitude": "37.442448",
  "longitude": "127.16798"
},
{
  "number": "32",
  "storeName": "대원문구슈퍼",
  "phoneNumber": "031-758-1654",
  "address": "경기 성남시 중원구 하대원동 146-2번지",
  "latitude": "37.428062",
  "longitude": "127.14527"
},
{
  "number": "33",
  "storeName": "21세기복권나라",
  "phoneNumber": "031-745-1286",
  "address": "경기 성남시 중원구 상대원동 5430-7번지",
  "latitude": "37.433544",
  "longitude": "127.15884"
},
{
  "number": "34",
  "storeName": "나눔로또645",
  "phoneNumber": "",
  "address": "경기 성남시 중원구 성남동 1315 중앙지하상가 E동 나열 15호",
  "latitude": "37.437584",
  "longitude": "127.140854"
},
{
  "number": "35",
  "storeName": "굿투데이",
  "phoneNumber": "070-7856-0120",
  "address": "경기 성남시 중원구 금광동 4637",
  "latitude": "37.45073",
  "longitude": "127.16003"
},
{
  "number": "36",
  "storeName": "로또카페",
  "phoneNumber": "031-607-4526",
  "address": "경기 성남시 중원구 상대원동 1445",
  "latitude": "37.433037",
  "longitude": "127.16498"
},
{
  "number": "37",
  "storeName": "복권",
  "phoneNumber": "031-711-7887",
  "address": "경기 성남시 중원구 성남동 2228",
  "latitude": "37.435513",
  "longitude": "127.13931"
}
]
