[
{
  "number": "1",
  "storeName": "씨스페이스(개나리점)",
  "phoneNumber": "032-468-6171",
  "address": "인천 남동구 구월동 279-6 개나리빌딩 101호",
  "latitude": "37.449257",
  "longitude": "126.71035"
},
{
  "number": "2",
  "storeName": "GS25(하이비젼점)",
  "phoneNumber": "032-428-3506",
  "address": "인천 남동구 구월동 1141-7번지 하이비젼빌딩101호",
  "latitude": "37.452045",
  "longitude": "126.70679"
},
{
  "number": "3",
  "storeName": "복권판매점",
  "phoneNumber": "032-424-0907",
  "address": "인천 남동구 간석동 269-4 1층 1호",
  "latitude": "37.46636",
  "longitude": "126.70421"
},
{
  "number": "4",
  "storeName": "복권마트",
  "phoneNumber": "032-472-8439",
  "address": "인천 남동구 구월동 7-65번지",
  "latitude": "37.46045",
  "longitude": "126.71479"
},
{
  "number": "5",
  "storeName": "드림월드복권",
  "phoneNumber": "032-461-4993",
  "address": "인천 남동구 만수동 869-8번지",
  "latitude": "37.4594",
  "longitude": "126.73149"
},
{
  "number": "6",
  "storeName": "행운복권편의점",
  "phoneNumber": "032-469-2269",
  "address": "인천 남동구 구월동 1302-2번지",
  "latitude": "37.451904",
  "longitude": "126.722626"
},
{
  "number": "7",
  "storeName": "운수대통",
  "phoneNumber": "032-875-4439",
  "address": "인천 남동구 간석동 616-54번지",
  "latitude": "37.466072",
  "longitude": "126.689"
},
{
  "number": "8",
  "storeName": "동구로또",
  "phoneNumber": "032-814-5566",
  "address": "인천 남동구 논현동 450번지 1층14호",
  "latitude": "37.409874",
  "longitude": "126.694176"
},
{
  "number": "9",
  "storeName": "프리마트",
  "phoneNumber": "032-435-5177",
  "address": "인천 남동구 간석동 395-2번지",
  "latitude": "37.463467",
  "longitude": "126.695564"
},
{
  "number": "10",
  "storeName": "복권 명가 마트",
  "phoneNumber": "032-463-0645",
  "address": "인천 남동구 만수동 1075-5번지",
  "latitude": "37.446857",
  "longitude": "126.73369"
},
{
  "number": "11",
  "storeName": "경기상회",
  "phoneNumber": "032-461-1074",
  "address": "인천 남동구 만수동 1041-3 104호",
  "latitude": "37.44315",
  "longitude": "126.736786"
},
{
  "number": "12",
  "storeName": "하나복권",
  "phoneNumber": "032-464-5026",
  "address": "인천 남동구 만수동 906-2번지 세븐일레븐편의점내",
  "latitude": "37.45589",
  "longitude": "126.72196"
},
{
  "number": "13",
  "storeName": "프로통신",
  "phoneNumber": "032-465-4114",
  "address": "인천 남동구 만수동 948-3번지",
  "latitude": "37.454727",
  "longitude": "126.73128"
},
{
  "number": "14",
  "storeName": "행운 마트",
  "phoneNumber": "032-463-6003",
  "address": "인천 남동구 만수동 71-10번지",
  "latitude": "37.46157",
  "longitude": "126.73512"
},
{
  "number": "15",
  "storeName": "모닝프라자",
  "phoneNumber": "032-462-6464",
  "address": "인천 남동구 남촌동 317-21번지",
  "latitude": "37.431084",
  "longitude": "126.71698"
},
{
  "number": "16",
  "storeName": "홈돌이로또복권",
  "phoneNumber": "032-870-8080",
  "address": "인천 남동구 간석동 616-3번지 삼성홈플러스간석점2층내",
  "latitude": "37.469524",
  "longitude": "126.68907"
},
{
  "number": "17",
  "storeName": "훼밀리마트(남동공단점)",
  "phoneNumber": "032-819-1226",
  "address": "인천 남동구 논현동 448-1번지 cu편의점내",
  "latitude": "37.40934",
  "longitude": "126.6958"
},
{
  "number": "18",
  "storeName": "로또명당",
  "phoneNumber": "032-464-2440",
  "address": "인천 남동구 구월동 1250",
  "latitude": "37.46034",
  "longitude": "126.72031"
},
{
  "number": "19",
  "storeName": "무지개에서꿈을이루자",
  "phoneNumber": "032-425-1050",
  "address": "인천 남동구 구월동 1155번지",
  "latitude": "37.44778",
  "longitude": "126.70705"
},
{
  "number": "20",
  "storeName": "복권방",
  "phoneNumber": "032-469-6204",
  "address": "인천 남동구 만수동 956-2번지 cu편의점",
  "latitude": "37.454582",
  "longitude": "126.73313"
},
{
  "number": "21",
  "storeName": "대동슈퍼",
  "phoneNumber": "032-461-5006",
  "address": "인천 남동구 만수동 5-200번지",
  "latitude": "37.462727",
  "longitude": "126.73615"
},
{
  "number": "22",
  "storeName": "우리복권",
  "phoneNumber": "032-422-5008",
  "address": "인천 남동구 논현동 632-2 102호 CU편의점 내",
  "latitude": "37.40164",
  "longitude": "126.72307"
},
{
  "number": "23",
  "storeName": "서창로또",
  "phoneNumber": "032-466-7433",
  "address": "인천 남동구 서창동 538번지 태평2차아파트상가101호",
  "latitude": "37.435707",
  "longitude": "126.75156"
},
{
  "number": "24",
  "storeName": "한일로또",
  "phoneNumber": "032-425-6855",
  "address": "인천 남동구 간석동 73-4번지 1층점포101호",
  "latitude": "37.469097",
  "longitude": "126.70826"
},
{
  "number": "25",
  "storeName": "한국종합빌딩(복권)",
  "phoneNumber": "032-424-6093",
  "address": "인천 남동구 간석동 558-1번지 1층",
  "latitude": "37.46124",
  "longitude": "126.69817"
},
{
  "number": "26",
  "storeName": "버스매표소",
  "phoneNumber": "032-421-5410",
  "address": "인천 남동구 구월동 1465-2번지",
  "latitude": "37.443977",
  "longitude": "126.70068"
},
{
  "number": "27",
  "storeName": "로또-마트",
  "phoneNumber": "032-433-2666",
  "address": "인천 남동구 구월동 1407-10번지",
  "latitude": "37.444633",
  "longitude": "126.697296"
},
{
  "number": "28",
  "storeName": "남동매표소",
  "phoneNumber": "032-461-8455",
  "address": "인천 남동구 만수동 1049번지",
  "latitude": "37.43878",
  "longitude": "126.73753"
},
{
  "number": "29",
  "storeName": "찬스센터",
  "phoneNumber": "",
  "address": "인천 남동구 논현2동 563-2 상가동 1층 101호",
  "latitude": "37.413464",
  "longitude": "126.71178"
},
{
  "number": "30",
  "storeName": "복권천국",
  "phoneNumber": "032-424-6997",
  "address": "인천 남동구 간석동 342-6번지",
  "latitude": "37.46018",
  "longitude": "126.70505"
},
{
  "number": "31",
  "storeName": "복권왕권",
  "phoneNumber": "032-435-9194",
  "address": "인천 남동구 간석동 114-6번지",
  "latitude": "37.465843",
  "longitude": "126.711"
},
{
  "number": "32",
  "storeName": "갤럭시슈퍼",
  "phoneNumber": "032-433-5111",
  "address": "인천 남동구 간석동 277-1번지",
  "latitude": "37.464565",
  "longitude": "126.70779"
},
{
  "number": "33",
  "storeName": "로또생삼겹",
  "phoneNumber": "032-441-9991",
  "address": "인천 남동구 논현동 746-4",
  "latitude": "37.398422",
  "longitude": "126.72626"
},
{
  "number": "34",
  "storeName": "대박왕국",
  "phoneNumber": "032-463-3631",
  "address": "인천 남동구 구월동 1309-9 1층",
  "latitude": "37.44966",
  "longitude": "126.72451"
},
{
  "number": "35",
  "storeName": "인천네트워크",
  "phoneNumber": "032-446-6411",
  "address": "인천 남동구 도림동 658-15 12블록5롯트102호",
  "latitude": "37.41976",
  "longitude": "126.72992"
},
{
  "number": "36",
  "storeName": "서창동 로또방",
  "phoneNumber": "032-466-7850",
  "address": "인천 남동구 서창동 707-1 1층 106호",
  "latitude": "37.424152",
  "longitude": "126.74948"
},
{
  "number": "37",
  "storeName": "CU(간석벽산점)",
  "phoneNumber": "032-422-5173",
  "address": "인천 남동구 간석동 225-19",
  "latitude": "37.464046",
  "longitude": "126.720375"
},
{
  "number": "38",
  "storeName": "GS25(인천구월점)",
  "phoneNumber": "032-424-9029",
  "address": "인천 남동구 구월동 1467-1번지 104호",
  "latitude": "37.444206",
  "longitude": "126.70166"
},
{
  "number": "39",
  "storeName": "GS25(구월효명점)",
  "phoneNumber": "032-422-3045",
  "address": "인천 남동구 구월동 1463번지 효명프라자 102호",
  "latitude": "37.445152",
  "longitude": "126.701515"
},
{
  "number": "40",
  "storeName": "GS25(만수길목점)",
  "phoneNumber": "032-467-4232",
  "address": "인천 남동구 만수동 882-10번지",
  "latitude": "37.457203",
  "longitude": "126.72907"
},
{
  "number": "41",
  "storeName": "GS25(인천광장점)",
  "phoneNumber": "032-441-1925",
  "address": "인천 남동구 구월동 1136-14",
  "latitude": "37.454205",
  "longitude": "126.70414"
},
{
  "number": "42",
  "storeName": "CU(구월프랜드점)",
  "phoneNumber": "032-471-5418",
  "address": "인천 남동구 구월동 1191-10번지",
  "latitude": "37.4472",
  "longitude": "126.707596"
},
{
  "number": "43",
  "storeName": "소래복권카페",
  "phoneNumber": "",
  "address": "인천 남동구 논현동 66-24 105동 117호",
  "latitude": "37.40149",
  "longitude": "126.738"
},
{
  "number": "44",
  "storeName": "풍인식품",
  "phoneNumber": "032-426-6702",
  "address": "인천 남동구 간석2동 214-27 2호",
  "latitude": "37.46615",
  "longitude": "126.708786"
},
{
  "number": "45",
  "storeName": "구월슈퍼",
  "phoneNumber": "032-428-6558",
  "address": "인천 남동구 구월동 1110-2번지",
  "latitude": "37.4519",
  "longitude": "126.699135"
},
{
  "number": "46",
  "storeName": "대박마트",
  "phoneNumber": "032-466-0746",
  "address": "인천 남동구 논현동 647-2번지 세중프라자1층101-2호",
  "latitude": "37.402565",
  "longitude": "126.70956"
},
{
  "number": "47",
  "storeName": "LG슈퍼",
  "phoneNumber": "032-468-3223",
  "address": "인천 남동구 만수동 1023-9번지",
  "latitude": "37.44397",
  "longitude": "126.73838"
},
{
  "number": "48",
  "storeName": "지에스25 만수나래점",
  "phoneNumber": "032-471-1877",
  "address": "인천 남동구 만수6동 1086-1 이삭아파트상가 105호",
  "latitude": "37.446312",
  "longitude": "126.736824"
},
{
  "number": "49",
  "storeName": "올림픽체육관앞매표소",
  "phoneNumber": "032-461-6650",
  "address": "인천 남동구 구월동 1244-12번지 올림픽체육관앞매표소",
  "latitude": "37.456264",
  "longitude": "126.71766"
},
{
  "number": "50",
  "storeName": "무궁화슈퍼",
  "phoneNumber": "032-468-3090",
  "address": "인천 남동구 구월동 1181 1층 1호",
  "latitude": "0.0",
  "longitude": "0.0"
},
{
  "number": "51",
  "storeName": "인생로또365",
  "phoneNumber": "",
  "address": "인천 남동구 구월3동 1354-2",
  "latitude": "37.4493",
  "longitude": "126.696144"
},
{
  "number": "52",
  "storeName": "코코복권",
  "phoneNumber": "",
  "address": "인천 남동구 논현동 747-1 라피에스타 내 117호",
  "latitude": "37.39746",
  "longitude": "126.727875"
},
{
  "number": "53",
  "storeName": "공원복권방",
  "phoneNumber": "",
  "address": "인천 남동구 609-6 인천대공원역 앞 가판",
  "latitude": "37.44886",
  "longitude": "126.75271"
},
{
  "number": "54",
  "storeName": "남동복권",
  "phoneNumber": "",
  "address": "인천 남동구 고잔동 269-5",
  "latitude": "37.394047",
  "longitude": "126.70956"
},
{
  "number": "55",
  "storeName": "초이스편의점",
  "phoneNumber": "",
  "address": "인천 남동구 만수동 980-6",
  "latitude": "37.44439",
  "longitude": "126.739"
},
{
  "number": "56",
  "storeName": "위너로또",
  "phoneNumber": "",
  "address": "인천 남동구 구월동 1215 동원프라자 101호",
  "latitude": "37.452515",
  "longitude": "126.71313"
},
{
  "number": "57",
  "storeName": "복권판매점",
  "phoneNumber": "",
  "address": "인천 남동구 장수동 769-11 1동1층1호",
  "latitude": "37.45183",
  "longitude": "126.75274"
}
]