[
{
  "number": "1",
  "storeName": "행운로또복권방",
  "phoneNumber": "031-947-0901",
  "address": "경기 파주시 광탄면 신산리 215-20번지",
  "latitude": "37.781006",
  "longitude": "126.84901"
},
{
  "number": "2",
  "storeName": "로또나라",
  "phoneNumber": "",
  "address": "경기 파주시 문발동 495-138번지",
  "latitude": "37.75987",
  "longitude": "126.780174"
},
{
  "number": "3",
  "storeName": "로또복권방",
  "phoneNumber": "031-945-2695",
  "address": "경기 파주시 금촌동 386-4 1층",
  "latitude": "37.766037",
  "longitude": "126.76824"
},
{
  "number": "4",
  "storeName": "로또복권방",
  "phoneNumber": "031-947-5534",
  "address": "경기 파주시 금촌1동 932-1 1층",
  "latitude": "37.757618",
  "longitude": "126.772316"
},
{
  "number": "5",
  "storeName": "대박복권방",
  "phoneNumber": "031-953-8926",
  "address": "경기 파주시 문산읍 문산리 13-7번지",
  "latitude": "37.85536",
  "longitude": "126.78557"
},
{
  "number": "6",
  "storeName": "승리복권방",
  "phoneNumber": "031-959-0243",
  "address": "경기 파주시 적성면 마지리 63-47번지",
  "latitude": "37.954937",
  "longitude": "126.91907"
},
{
  "number": "7",
  "storeName": "노다지복권방",
  "phoneNumber": "031-958-7136",
  "address": "경기 파주시 법원읍 법원리 683-6번지",
  "latitude": "37.851406",
  "longitude": "126.87515"
},
{
  "number": "8",
  "storeName": "노다지복권방",
  "phoneNumber": "031-954-1888",
  "address": "경기 파주시 문산읍 문산리 6-28",
  "latitude": "37.858402",
  "longitude": "126.7851"
},
{
  "number": "9",
  "storeName": "복권백화점",
  "phoneNumber": "031-943-7477",
  "address": "경기 파주시 금촌동 329-135번지",
  "latitude": "37.763607",
  "longitude": "126.76993"
},
{
  "number": "10",
  "storeName": "역전광장상회",
  "phoneNumber": "031-941-8779",
  "address": "경기 파주시 금촌동 329-19번지",
  "latitude": "37.76454",
  "longitude": "126.77238"
},
{
  "number": "11",
  "storeName": "대박행진 복권랜드",
  "phoneNumber": "031-948-6737",
  "address": "경기 파주시 금촌동 989-1번지 금촌프라자107호",
  "latitude": "37.75161",
  "longitude": "126.766914"
},
{
  "number": "12",
  "storeName": "GS25문산아침햇살",
  "phoneNumber": "031-952-2208",
  "address": "경기 파주시 문산읍 문산리 17-55 1층",
  "latitude": "37.858517",
  "longitude": "126.78611"
},
{
  "number": "13",
  "storeName": "파주복권랜드",
  "phoneNumber": "031-957-4333",
  "address": "경기 파주시 운정2동 945 장은프라자",
  "latitude": "37.74001",
  "longitude": "126.75047"
},
{
  "number": "14",
  "storeName": "교하복권판매점",
  "phoneNumber": "031-8070-8055",
  "address": "경기 파주시 동패동 1695-1번지 아이비타워108호",
  "latitude": "37.72612",
  "longitude": "126.71825"
},
{
  "number": "15",
  "storeName": "나도로또",
  "phoneNumber": "031-942-1173",
  "address": "경기 파주시 동패동 1759-6번지 씨티타워104호",
  "latitude": "37.711082",
  "longitude": "126.74584"
},
{
  "number": "16",
  "storeName": "아로마복권방",
  "phoneNumber": "",
  "address": "경기 파주시 문산읍 문산리 44-15 1호",
  "latitude": "37.857178",
  "longitude": "126.7821"
},
{
  "number": "17",
  "storeName": "운수좋은날",
  "phoneNumber": "031-947-7999",
  "address": "경기 파주시 송촌동 198-7",
  "latitude": "37.72409",
  "longitude": "126.711205"
},
{
  "number": "18",
  "storeName": "행운복권편의점",
  "phoneNumber": "031-954-3304",
  "address": "경기 파주시 문산읍 선유리 951-6",
  "latitude": "37.860588",
  "longitude": "126.78785"
},
{
  "number": "19",
  "storeName": "CU(광탄개나리점)",
  "phoneNumber": "031-947-4239",
  "address": "경기 파주시 광탄면 신산리 358-10 화설프라자",
  "latitude": "37.782715",
  "longitude": "126.84634"
},
{
  "number": "20",
  "storeName": "천하명당",
  "phoneNumber": "",
  "address": "경기 파주시 문산읍 당동리 890-1 좋은빌딩2 107호",
  "latitude": "37.868576",
  "longitude": "126.775566"
},
{
  "number": "21",
  "storeName": "복권판매점",
  "phoneNumber": "031-948-1856",
  "address": "경기 파주시 야당동 296-49",
  "latitude": "37.725075",
  "longitude": "126.76799"
},
{
  "number": "22",
  "storeName": "파주LG복권방",
  "phoneNumber": "",
  "address": "경기 파주시 맥금동 724-2 2호 일부",
  "latitude": "37.809887",
  "longitude": "126.7582"
},
{
  "number": "23",
  "storeName": "서울복권",
  "phoneNumber": "031-945-6053",
  "address": "경기 파주시 탄현면 법흥리 478",
  "latitude": "37.77931",
  "longitude": "126.70677"
},
{
  "number": "24",
  "storeName": "일등로또판매점",
  "phoneNumber": "",
  "address": "경기 파주시 교하동 354-18",
  "latitude": "37.705585",
  "longitude": "126.73154"
},
{
  "number": "25",
  "storeName": "대박로또",
  "phoneNumber": "",
  "address": "경기 파주시 와동동 1365",
  "latitude": "37.7232",
  "longitude": "126.75238"
},
{
  "number": "26",
  "storeName": "현대25시편의점",
  "phoneNumber": "031-946-3010",
  "address": "경기 파주시 조리읍 봉일천리 168-4번지",
  "latitude": "37.743465",
  "longitude": "126.807816"
},
{
  "number": "27",
  "storeName": "로또복권방",
  "phoneNumber": "031-949-5587",
  "address": "경기 파주시 금촌동 767-11번지",
  "latitude": "37.759556",
  "longitude": "126.77741"
},
{
  "number": "28",
  "storeName": "모닝로또",
  "phoneNumber": "",
  "address": "경기 파주시 검산동 276-13",
  "latitude": "37.77301",
  "longitude": "126.743835"
},
{
  "number": "29",
  "storeName": "SK@24시편의점",
  "phoneNumber": "031-946-3703",
  "address": "경기 파주시 야동동 589-10번지",
  "latitude": "37.77301",
  "longitude": "126.75125"
},
{
  "number": "30",
  "storeName": "법원복권방",
  "phoneNumber": "",
  "address": "경기 파주시 법원읍 대능리 81-31 3면중 우측칸1",
  "latitude": "37.849014",
  "longitude": "126.875404"
},
{
  "number": "31",
  "storeName": "세븐일레븐",
  "phoneNumber": "",
  "address": "경기 파주시 월롱면 영태리 527-3 1층",
  "latitude": "37.77404",
  "longitude": "126.7889"
},
{
  "number": "32",
  "storeName": "운정대박마트 복권",
  "phoneNumber": "070-8163-0022",
  "address": "경기 파주시 와동동 1308번지 가람마을1단지 벽산한라아파트상가102호",
  "latitude": "37.732204",
  "longitude": "126.755905"
},
{
  "number": "33",
  "storeName": "복권방",
  "phoneNumber": "031-945-8761",
  "address": "경기 파주시 월롱면 덕은리 1300 A동 123호",
  "latitude": "37.81048",
  "longitude": "126.77702"
},
{
  "number": "34",
  "storeName": "행복드림로또",
  "phoneNumber": "",
  "address": "경기 파주시 조리읍 등원리 282-6 107호",
  "latitude": "37.75153",
  "longitude": "126.8033"
},
{
  "number": "35",
  "storeName": "굿모닝로또",
  "phoneNumber": "",
  "address": "경기 파주시 조리읍 봉일천리 13-15 상가동 106호",
  "latitude": "37.7358",
  "longitude": "126.82525"
},
{
  "number": "36",
  "storeName": "골든벨 복권방",
  "phoneNumber": "031-944-3722",
  "address": "경기 파주시 금촌동 796-1 105호 아림프라자",
  "latitude": "37.755646",
  "longitude": "126.781265"
},
{
  "number": "37",
  "storeName": "복권판매점",
  "phoneNumber": "",
  "address": "경기 파주시 운정3동 1056 1층 121호",
  "latitude": "37.71149",
  "longitude": "126.75969"
},
{
  "number": "38",
  "storeName": "커피에반하다.운정목동점",
  "phoneNumber": "",
  "address": "경기 파주시 목동동 1096-3 1층 커피에반하다 운정목동점",
  "latitude": "37.72014",
  "longitude": "126.73713"
},
{
  "number": "39",
  "storeName": "붐",
  "phoneNumber": "031-943-2432",
  "address": "경기 파주시 동패동 1906-4 101호",
  "latitude": "37.71097",
  "longitude": "126.73802"
},
{
  "number": "40",
  "storeName": "복권방",
  "phoneNumber": "",
  "address": "경기 파주시 아동동 283-10",
  "latitude": "37.77197",
  "longitude": "126.77725"
},
{
  "number": "41",
  "storeName": "축복큰대운집",
  "phoneNumber": "",
  "address": "경기 파주시 금촌동 312-4 1층",
  "latitude": "37.76158",
  "longitude": "126.7732"
},
{
  "number": "42",
  "storeName": "동문그린복권방",
  "phoneNumber": "",
  "address": "경기 파주시 조리읍 대원리 221-8 동문상가 CU",
  "latitude": "37.72842",
  "longitude": "126.81476"
},
{
  "number": "43",
  "storeName": "굿모닝복권",
  "phoneNumber": "",
  "address": "경기 파주시 당하동 306",
  "latitude": "37.78115",
  "longitude": "126.72293"
},
{
  "number": "44",
  "storeName": "태양복권방",
  "phoneNumber": "",
  "address": "경기 파주시 문산읍 선유리 430-37번지",
  "latitude": "37.866203",
  "longitude": "126.80652"
},
{
  "number": "45",
  "storeName": "GS25 운정호수공원캐슬",
  "phoneNumber": "031-945-6898",
  "address": "경기 파주시 와동동 1399",
  "latitude": "37.719837",
  "longitude": "126.75103"
},
{
  "number": "46",
  "storeName": "로또판매점",
  "phoneNumber": "031-945-6859",
  "address": "경기 파주시 야당동 178-77",
  "latitude": "37.71023",
  "longitude": "126.7628"
},
{
  "number": "47",
  "storeName": "신나는복권방",
  "phoneNumber": "",
  "address": "경기 파주시 문산읍 문산리 10-15",
  "latitude": "37.85695",
  "longitude": "126.78511"
},
{
  "number": "48",
  "storeName": "호반상회",
  "phoneNumber": "",
  "address": "경기 파주시 운정3동 1048-1 113호",
  "latitude": "37.707794",
  "longitude": "126.759766"
},
{
  "number": "49",
  "storeName": "로또대박",
  "phoneNumber": "",
  "address": "경기 파주시 파주읍 연풍리 294-9",
  "latitude": "37.82908",
  "longitude": "126.83889"
},
{
  "number": "50",
  "storeName": "한방복권",
  "phoneNumber": "",
  "address": "경기 파주시 야당동 1074-2 연세프라자104호",
  "latitude": "37.715626",
  "longitude": "126.76004"
}
]