[
{
  "number": "1",
  "storeName": "노다지복권방",
  "phoneNumber": "031-744-4010",
  "address": "경기 성남시 수정구 창곡동 564 근린생활시설 제3동 1층 제5비 119호",
  "latitude": "37.450233",
  "longitude": "127.14703"
},
{
  "number": "2",
  "storeName": "화영하이퍼",
  "phoneNumber": "031-747-5995",
  "address": "경기 성남시 수정구 단대동 176-4번지",
  "latitude": "37.446934",
  "longitude": "127.1567"
},
{
  "number": "3",
  "storeName": "엄마손슈퍼(행운복권방)",
  "phoneNumber": "031-752-3733",
  "address": "경기 성남시 수정구 태평동 3307-7번지",
  "latitude": "37.447086",
  "longitude": "127.13815"
},
{
  "number": "4",
  "storeName": "다우로또",
  "phoneNumber": "031-757-9070",
  "address": "경기 성남시 수정구 태평동 3196 1층",
  "latitude": "37.445007",
  "longitude": "127.134636"
},
{
  "number": "5",
  "storeName": "가판대",
  "phoneNumber": "031-735-5098",
  "address": "경기 성남시 수정구 양지동 211",
  "latitude": "37.461205",
  "longitude": "127.16679"
},
{
  "number": "6",
  "storeName": "3번출구가판점",
  "phoneNumber": "031-722-4638",
  "address": "경기 성남시 수정구 수진동 2965번지",
  "latitude": "37.439903",
  "longitude": "127.12955"
},
{
  "number": "7",
  "storeName": "애리지",
  "phoneNumber": "031-731-9141",
  "address": "경기 성남시 수정구 양지동 232번지",
  "latitude": "37.458313",
  "longitude": "127.16407"
},
{
  "number": "8",
  "storeName": "농협가판",
  "phoneNumber": "031-758-9535",
  "address": "경기 성남시 수정구 수진동 18",
  "latitude": "37.4414",
  "longitude": "127.13457"
},
{
  "number": "9",
  "storeName": "가판점",
  "phoneNumber": "031-735-4422",
  "address": "경기 성남시 수정구 신흥동 4186번지",
  "latitude": "37.44072",
  "longitude": "127.14587"
},
{
  "number": "10",
  "storeName": "국민가판점",
  "phoneNumber": "031-731-8977",
  "address": "경기 성남시 수정구 신흥동 2480번지",
  "latitude": "37.442303",
  "longitude": "127.150406"
},
{
  "number": "11",
  "storeName": "태평가판점",
  "phoneNumber": "031-754-9764",
  "address": "경기 성남시 수정구 태평동 6454번지",
  "latitude": "37.440613",
  "longitude": "127.12987"
},
{
  "number": "12",
  "storeName": "태평고개 가판대",
  "phoneNumber": "031-752-7335",
  "address": "경기 성남시 수정구 태평동 5211",
  "latitude": "37.44431",
  "longitude": "127.12728"
},
{
  "number": "13",
  "storeName": "가판점",
  "phoneNumber": "031-751-7429",
  "address": "경기 성남시 수정구 신흥동 5505",
  "latitude": "37.443314",
  "longitude": "127.14073"
},
{
  "number": "14",
  "storeName": "구시청가판점",
  "phoneNumber": "031-754-3336",
  "address": "경기 성남시 수정구 태평동 7288-16번지",
  "latitude": "37.443687",
  "longitude": "127.140175"
},
{
  "number": "15",
  "storeName": "으뜸과버금신흥점",
  "phoneNumber": "031-753-5882",
  "address": "경기 성남시 수정구 신흥동 6526번지",
  "latitude": "37.439198",
  "longitude": "127.13813"
},
{
  "number": "16",
  "storeName": "행운예감",
  "phoneNumber": "031-758-0411",
  "address": "경기 성남시 수정구 태평동 3407",
  "latitude": "37.44893",
  "longitude": "127.14004"
},
{
  "number": "17",
  "storeName": "덕원산업",
  "phoneNumber": "031-722-1195",
  "address": "경기 성남시 수정구 창곡동 523-5 101호 오광편의점",
  "latitude": "37.469696",
  "longitude": "127.14942"
},
{
  "number": "18",
  "storeName": "돼지복권",
  "phoneNumber": "031-754-1268",
  "address": "경기 성남시 수정구 복정동 686-3번지",
  "latitude": "37.458733",
  "longitude": "127.12688"
},
{
  "number": "19",
  "storeName": "럭키로또판매점",
  "phoneNumber": "031-751-5150",
  "address": "경기 성남시 수정구 수진동 2996 1층 3호",
  "latitude": "37.439644",
  "longitude": "127.12821"
},
{
  "number": "20",
  "storeName": "복권닷컴",
  "phoneNumber": "031-721-9767",
  "address": "경기 성남시 수정구 태평동 3521번지",
  "latitude": "37.442566",
  "longitude": "127.13576"
},
{
  "number": "21",
  "storeName": "복권닷컴",
  "phoneNumber": "031-625-6055",
  "address": "경기 성남시 수정구 수진동 89",
  "latitude": "37.439526",
  "longitude": "127.132645"
},
{
  "number": "22",
  "storeName": "위례 로또",
  "phoneNumber": "000-000-0000",
  "address": "경기 성남시 수정구 창곡동 507 상가1층 119-1호",
  "latitude": "37.44884",
  "longitude": "127.12713"
},
{
  "number": "23",
  "storeName": "예일로또",
  "phoneNumber": "031-709-2116",
  "address": "경기 성남시 수정구 금토동 274번지 104호",
  "latitude": "37.409256",
  "longitude": "127.09916"
},
{
  "number": "24",
  "storeName": "노다지복권방(태평)",
  "phoneNumber": "031-757-9206",
  "address": "경기 성남시 수정구 태평동 3920-1번지",
  "latitude": "37.44586",
  "longitude": "127.13318"
},
{
  "number": "25",
  "storeName": "성진",
  "phoneNumber": "031-751-0655",
  "address": "경기 성남시 수정구 태평동 7186번지",
  "latitude": "37.441162",
  "longitude": "127.12574"
},
{
  "number": "26",
  "storeName": "복권방",
  "phoneNumber": "031-751-5451",
  "address": "경기 성남시 수정구 수진동 1256",
  "latitude": "37.437912",
  "longitude": "127.13387"
},
{
  "number": "27",
  "storeName": "드림월드",
  "phoneNumber": "031-745-6737",
  "address": "경기 성남시 수정구 산성동 1456",
  "latitude": "37.454403",
  "longitude": "127.15"
},
{
  "number": "28",
  "storeName": "복권닷컴",
  "phoneNumber": "031-755-5434",
  "address": "경기 성남시 수정구 수진동 485번지",
  "latitude": "37.44089",
  "longitude": "127.13492"
},
{
  "number": "29",
  "storeName": "골드복권",
  "phoneNumber": "031-757-0110",
  "address": "경기 성남시 수정구 태평동 3693-26 1층",
  "latitude": "37.44228",
  "longitude": "127.1327"
},
{
  "number": "30",
  "storeName": "하나로슈퍼복권방",
  "phoneNumber": "031-732-4289",
  "address": "경기 성남시 수정구 산성동 841 대경빌라102호",
  "latitude": "37.456276",
  "longitude": "127.15092"
},
{
  "number": "31",
  "storeName": "복권방",
  "phoneNumber": "031-753-8534",
  "address": "경기 성남시 수정구 태평동 6410-1",
  "latitude": "37.442383",
  "longitude": "127.130905"
},
{
  "number": "32",
  "storeName": "카페피여리",
  "phoneNumber": "031-756-5534",
  "address": "경기 성남시 수정구 수진동 348",
  "latitude": "37.440674",
  "longitude": "127.134224"
},
{
  "number": "33",
  "storeName": "복돈이복권",
  "phoneNumber": "000-0000-0000",
  "address": "경기 성남시 수정구 위례동 544-6",
  "latitude": "37.467625",
  "longitude": "127.140015"
},
{
  "number": "34",
  "storeName": "월드복권",
  "phoneNumber": "000-000-0000",
  "address": "경기 성남시 수정구 태평동 867 1층 CU",
  "latitude": "37.449062",
  "longitude": "127.13496"
}
]