[
{
  "number": "1",
  "storeName": "복권백화점",
  "phoneNumber": "063-535-4744",
  "address": "전북 정읍시 수성동 579-8번지",
  "latitude": "35.567505",
  "longitude": "126.8522"
},
{
  "number": "2",
  "storeName": "행운열차",
  "phoneNumber": "063-537-9977",
  "address": "전북 정읍시 상동 655-15 문구플러스 옆",
  "latitude": "35.571365",
  "longitude": "126.847824"
},
{
  "number": "3",
  "storeName": "대흥당",
  "phoneNumber": "063-532-8858",
  "address": "전북 정읍시 시기동 431-2",
  "latitude": "35.55891",
  "longitude": "126.85566"
},
{
  "number": "4",
  "storeName": "로또복권방",
  "phoneNumber": "063-532-8235",
  "address": "전북 정읍시 수성동 917-1 수성 주공3차 단지내 CU편의점",
  "latitude": "35.581352",
  "longitude": "126.85498"
},
{
  "number": "5",
  "storeName": "복권나라정읍점",
  "phoneNumber": "063-536-2667",
  "address": "전북 정읍시 시기동 181-3번지",
  "latitude": "35.564594",
  "longitude": "126.85729"
},
{
  "number": "6",
  "storeName": "벼락부자",
  "phoneNumber": "",
  "address": "전북 정읍시 연지동 343-15번지",
  "latitude": "35.575016",
  "longitude": "126.843735"
},
{
  "number": "7",
  "storeName": "엉터리마트",
  "phoneNumber": "063-532-7773",
  "address": "전북 정읍시 상동 225-4번지",
  "latitude": "35.55836",
  "longitude": "126.87009"
},
{
  "number": "8",
  "storeName": "대박찬스",
  "phoneNumber": "063-532-6862",
  "address": "전북 정읍시 상동 743-34번지",
  "latitude": "35.561863",
  "longitude": "126.858635"
},
{
  "number": "9",
  "storeName": "슈퍼스타",
  "phoneNumber": "063-535-3355",
  "address": "전북 정읍시 초산동 418-5 샘골 핸드폰 매장",
  "latitude": "35.560116",
  "longitude": "126.85173"
},
{
  "number": "10",
  "storeName": "터미널복권방",
  "phoneNumber": "063-532-5382",
  "address": "전북 정읍시 연지동 311-5번지",
  "latitude": "35.572304",
  "longitude": "126.84498"
},
{
  "number": "11",
  "storeName": "베스트올수성점",
  "phoneNumber": "063-537-8864",
  "address": "전북 정읍시 수성동 932-1",
  "latitude": "35.58167",
  "longitude": "126.854416"
},
{
  "number": "12",
  "storeName": "로또명당복권방",
  "phoneNumber": "063-533-7910",
  "address": "전북 정읍시 수성동 1026-6",
  "latitude": "35.583076",
  "longitude": "126.86012"
},
{
  "number": "13",
  "storeName": "엘디마트",
  "phoneNumber": "",
  "address": "전북 정읍시 상동 248 엘디마트 내",
  "latitude": "35.55794",
  "longitude": "126.87352"
},
{
  "number": "14",
  "storeName": "CU(정읍인네점)",
  "phoneNumber": "063-532-6065",
  "address": "전북 정읍시 시기동 544-21번지",
  "latitude": "35.567085",
  "longitude": "126.85109"
},
{
  "number": "15",
  "storeName": "미스고가맥",
  "phoneNumber": "",
  "address": "전북 정읍시 수성동 1034-16 미스고가맥 1층",
  "latitude": "35.58232",
  "longitude": "126.85627"
}
]