[
{
  "number": "1",
  "storeName": "편의점사랑로또",
  "phoneNumber": "061-722-8772",
  "address": "전남 순천시 왕지동 868-6번지 1층 편의점사랑내",
  "latitude": "34.968132",
  "longitude": "127.522896"
},
{
  "number": "2",
  "storeName": "모닝글로리연향점",
  "phoneNumber": "061-722-6270",
  "address": "전남 순천시 연향동 1343-1번지 모닝글로리 연향점",
  "latitude": "34.95118",
  "longitude": "127.51879"
},
{
  "number": "3",
  "storeName": "J스테이션복권방",
  "phoneNumber": "061-744-8879",
  "address": "전남 순천시 장천동 52-2번지 제이스테이션 시청점",
  "latitude": "34.95124",
  "longitude": "127.48634"
},
{
  "number": "4",
  "storeName": "그린마트(엔탑정보)",
  "phoneNumber": "061-725-6191",
  "address": "전남 순천시 연향동 1660-1번지 연향3지구 주공아파트 상가10호",
  "latitude": "34.935432",
  "longitude": "127.5135"
},
{
  "number": "5",
  "storeName": "새론마트내로또복권",
  "phoneNumber": "061-755-6469",
  "address": "전남 순천시 매곡동 22-12번지 새론마트",
  "latitude": "34.96161",
  "longitude": "127.487015"
},
{
  "number": "6",
  "storeName": "금전산복권방",
  "phoneNumber": "061-725-9636",
  "address": "전남 순천시 연향동 1374-12번지 금전산복권방",
  "latitude": "34.945015",
  "longitude": "127.516365"
},
{
  "number": "7",
  "storeName": "명성복권방",
  "phoneNumber": "061-722-9966",
  "address": "전남 순천시 연향동 1462-2번지 명성복권방",
  "latitude": "34.948254",
  "longitude": "127.525185"
},
{
  "number": "8",
  "storeName": "알리바이금당점",
  "phoneNumber": "061-721-1281",
  "address": "전남 순천시 연향동 1505-5",
  "latitude": "34.945633",
  "longitude": "127.526306"
},
{
  "number": "9",
  "storeName": "순천복권랜드",
  "phoneNumber": "061-721-8938",
  "address": "전남 순천시 연향동 1587-7번지 율산마트내",
  "latitude": "34.939857",
  "longitude": "127.52714"
},
{
  "number": "10",
  "storeName": "조례로또복권방",
  "phoneNumber": "061-721-0916",
  "address": "전남 순천시 조례동 1092-2번지 조례로또복권방",
  "latitude": "34.958374",
  "longitude": "127.51815"
},
{
  "number": "11",
  "storeName": "코사마트부영6차점",
  "phoneNumber": "061-722-4019",
  "address": "전남 순천시 해룡면 상삼리 661 부영6차 아파트상가 104호, 해룡면상삼출장소",
  "latitude": "34.94639",
  "longitude": "127.52982"
},
{
  "number": "12",
  "storeName": "복권나라",
  "phoneNumber": "061-721-7927",
  "address": "전남 순천시 해룡면 신대리 2003번지 중흥S크래스530동109호",
  "latitude": "34.935272",
  "longitude": "127.56338"
},
{
  "number": "13",
  "storeName": "복권나라동성점",
  "phoneNumber": "061-723-8355",
  "address": "전남 순천시 연향동 1347번지 동성아파트 상가113호",
  "latitude": "34.95013",
  "longitude": "127.51879"
},
{
  "number": "14",
  "storeName": "플러스하나",
  "phoneNumber": "061-745-8784",
  "address": "전남 순천시 덕월동 1371-2번지 플러스하나",
  "latitude": "34.93308",
  "longitude": "127.48949"
},
{
  "number": "15",
  "storeName": "내가마트",
  "phoneNumber": "061-755-5018",
  "address": "전남 순천시 용당동 562-11번지 내가마트",
  "latitude": "34.97272",
  "longitude": "127.49346"
},
{
  "number": "16",
  "storeName": "일마트",
  "phoneNumber": "061-755-0118",
  "address": "전남 순천시 남내동 120-5번지 일마트",
  "latitude": "34.953182",
  "longitude": "127.48503"
},
{
  "number": "17",
  "storeName": "우일슈퍼",
  "phoneNumber": "061-746-3525",
  "address": "전남 순천시 장천동 85-35번지 창대마트내",
  "latitude": "34.946842",
  "longitude": "127.489845"
},
{
  "number": "18",
  "storeName": "굿모닝",
  "phoneNumber": "061-752-4325",
  "address": "전남 순천시 매곡동 420-5번지 굿모닝",
  "latitude": "34.965218",
  "longitude": "127.48502"
},
{
  "number": "19",
  "storeName": "천하명당복권방",
  "phoneNumber": "061-721-9939",
  "address": "전남 순천시 해룡면 상삼리 622-1번지 천하명당",
  "latitude": "34.951153",
  "longitude": "127.52989"
},
{
  "number": "20",
  "storeName": "천하명당복권방",
  "phoneNumber": "061-743-5580",
  "address": "전남 순천시 인제동 69-5번지 대도아파트 상가1호",
  "latitude": "34.94563",
  "longitude": "127.487755"
},
{
  "number": "21",
  "storeName": "천하명당복권방",
  "phoneNumber": "061-752-1500",
  "address": "전남 순천시 서면 선평리 171번지 굿라이프순천점내",
  "latitude": "34.95046",
  "longitude": "127.5301"
},
{
  "number": "22",
  "storeName": "이마트24 순천산단점",
  "phoneNumber": "061-751-6498",
  "address": "전남 순천시 서면 선평리 300-2",
  "latitude": "34.98791",
  "longitude": "127.508385"
},
{
  "number": "23",
  "storeName": "포시즌마트",
  "phoneNumber": "061-744-7833",
  "address": "전남 순천시 장천동 85-21번지 포시즌마트",
  "latitude": "34.94754",
  "longitude": "127.49049"
},
{
  "number": "24",
  "storeName": "알짜마트왕지점",
  "phoneNumber": "061-725-2990",
  "address": "전남 순천시 조례동 1804번지 중흥파크상가 309-101호",
  "latitude": "34.956196",
  "longitude": "127.53226"
},
{
  "number": "25",
  "storeName": "용미사진관(로또)",
  "phoneNumber": "061-744-5748",
  "address": "전남 순천시 조곡동 156-11번지 용미사진관",
  "latitude": "34.94595",
  "longitude": "127.50092"
},
{
  "number": "26",
  "storeName": "강남슈퍼내복권판매",
  "phoneNumber": "061-743-4517",
  "address": "전남 순천시 조례동 1315-1번지 동양빌딩1층 행운슈퍼",
  "latitude": "34.951775",
  "longitude": "127.515144"
},
{
  "number": "27",
  "storeName": "인제로또",
  "phoneNumber": "061-723-3224",
  "address": "전남 순천시 해룡면 신대리 2002-2 CU편의점내",
  "latitude": "34.94372",
  "longitude": "127.4938"
},
{
  "number": "28",
  "storeName": "현아비디오로또",
  "phoneNumber": "061-741-8224",
  "address": "전남 순천시 풍덕동 877-15번지 현아비디오내",
  "latitude": "34.93998",
  "longitude": "127.503815"
},
{
  "number": "29",
  "storeName": "복권나라",
  "phoneNumber": "061-755-2023",
  "address": "전남 순천시 매곡동 121-25번지 복권나라",
  "latitude": "34.958576",
  "longitude": "127.48409"
},
{
  "number": "30",
  "storeName": "복권나라",
  "phoneNumber": "061-744-7063",
  "address": "전남 순천시 저전동 197-1번지 복권나라",
  "latitude": "34.951244",
  "longitude": "127.483604"
},
{
  "number": "31",
  "storeName": "GS25 서순천IC점 로또판매점",
  "phoneNumber": "061-754-6986",
  "address": "전남 순천시 서면 동산리 93-1 GS25 서순천IC점내",
  "latitude": "34.996105",
  "longitude": "127.48908"
},
{
  "number": "32",
  "storeName": "금당복권방",
  "phoneNumber": "061-723-5118",
  "address": "전남 순천시 해룡면 상삼리 643-19 해룡면상삼출장소",
  "latitude": "34.9494",
  "longitude": "127.5287"
},
{
  "number": "33",
  "storeName": "금당로또복권",
  "phoneNumber": "061-727-0985",
  "address": "전남 순천시 덕연동 1494-4 햇쌀담은 블라인드\u0026커튼",
  "latitude": "34.945835",
  "longitude": "127.52353"
}
]