[
{
  "number": "1",
  "storeName": "푸른로또",
  "phoneNumber": "070-8222-9872",
  "address": "충남 당진시 읍내동 1224 여울빌딩103호",
  "latitude": "36.891136",
  "longitude": "126.63661"
},
{
  "number": "2",
  "storeName": "로또복권방",
  "phoneNumber": "041-355-4815",
  "address": "충남 당진시 읍내동 620-5번지",
  "latitude": "36.893593",
  "longitude": "126.62824"
},
{
  "number": "3",
  "storeName": "당진복권방",
  "phoneNumber": "041-356-6645",
  "address": "충남 당진시 읍내동 645",
  "latitude": "36.89203",
  "longitude": "126.63016"
},
{
  "number": "4",
  "storeName": "대복로또",
  "phoneNumber": "041-353-8960",
  "address": "충남 당진시 신평면 거산리 165-4 신평버스터미널전 엘리트안경점 옆 1층상가",
  "latitude": "36.878605",
  "longitude": "126.75241"
},
{
  "number": "5",
  "storeName": "로또복권방",
  "phoneNumber": "041-358-7555",
  "address": "충남 당진시 송악읍 복운리 1645-7",
  "latitude": "36.944405",
  "longitude": "126.78296"
},
{
  "number": "6",
  "storeName": "이마트24당진합덕점",
  "phoneNumber": "",
  "address": "충남 당진시 합덕읍 운산리 263-116번지",
  "latitude": "36.809093",
  "longitude": "126.77592"
},
{
  "number": "7",
  "storeName": "대박로또명당",
  "phoneNumber": "041-357-7779",
  "address": "충남 당진시 송악읍 가학리 616-10",
  "latitude": "36.906914",
  "longitude": "126.69328"
},
{
  "number": "8",
  "storeName": "로또당진합덕원룸점",
  "phoneNumber": "",
  "address": "충남 당진시 합덕읍 운산리 907-6 1층 위드미 편의점",
  "latitude": "36.807484",
  "longitude": "126.76837"
},
{
  "number": "9",
  "storeName": "GS25당진합덕산업점",
  "phoneNumber": "",
  "address": "충남 당진시 합덕읍 석우리 1163 GS25편의점 내",
  "latitude": "36.80861",
  "longitude": "126.74758"
},
{
  "number": "10",
  "storeName": "대박로또",
  "phoneNumber": "",
  "address": "충남 당진시 원당동 776-7",
  "latitude": "36.90979",
  "longitude": "126.64551"
},
{
  "number": "11",
  "storeName": "당진로또명당점",
  "phoneNumber": "041-356-2697",
  "address": "충남 당진시 수청동 979 시외버스터미널내상가124호",
  "latitude": "36.902977",
  "longitude": "126.64563"
},
{
  "number": "12",
  "storeName": "로또",
  "phoneNumber": "041-362-5513",
  "address": "충남 당진시 합덕읍 운산리 276-67",
  "latitude": "36.809628",
  "longitude": "126.77093"
},
{
  "number": "13",
  "storeName": "송악로또복권판매점",
  "phoneNumber": "",
  "address": "충남 당진시 송악읍 반촌리 767",
  "latitude": "36.899208",
  "longitude": "126.69826"
},
{
  "number": "14",
  "storeName": "대상복권",
  "phoneNumber": "041-358-5182",
  "address": "충남 당진시 송산면 상거리 99-16 S마트 편의점 내",
  "latitude": "36.924206",
  "longitude": "126.68724"
},
{
  "number": "15",
  "storeName": "로또복권방",
  "phoneNumber": "",
  "address": "충남 당진시 송악읍 반촌리 792",
  "latitude": "36.901222",
  "longitude": "126.702965"
},
{
  "number": "16",
  "storeName": "당진보건소점",
  "phoneNumber": "041-357-4716",
  "address": "충남 당진시 채운동 215-9",
  "latitude": "36.883766",
  "longitude": "126.64497"
},
{
  "number": "17",
  "storeName": "당진로또토토판매점",
  "phoneNumber": "041-352-0329",
  "address": "충남 당진시 읍내동 227-12",
  "latitude": "36.895462",
  "longitude": "126.63091"
},
{
  "number": "18",
  "storeName": "마니",
  "phoneNumber": "",
  "address": "충남 당진시 읍내동 1059 101호",
  "latitude": "36.891113",
  "longitude": "126.63961"
},
{
  "number": "19",
  "storeName": "로또매점",
  "phoneNumber": "",
  "address": "충남 당진시 송산면 유곡리 355-36",
  "latitude": "36.953888",
  "longitude": "126.68934"
},
{
  "number": "20",
  "storeName": "로또복권방",
  "phoneNumber": "",
  "address": "충남 당진시 송산면 동곡리 306-1 서해휴게소 상가 3호",
  "latitude": "36.978897",
  "longitude": "126.71107"
},
{
  "number": "21",
  "storeName": "황금로또복권판매",
  "phoneNumber": "",
  "address": "충남 당진시 원당동 827-2 B동 108호 한빛부동산",
  "latitude": "36.906647",
  "longitude": "126.64725"
},
{
  "number": "22",
  "storeName": "복권판매 미니슈퍼",
  "phoneNumber": "",
  "address": "충남 당진시 금천리 342-28",
  "latitude": "36.883186",
  "longitude": "126.77338"
},
{
  "number": "23",
  "storeName": "운수대통복권방",
  "phoneNumber": "",
  "address": "충남 당진시 송악읍 기지시리 233-1 핸드폰가게 옆",
  "latitude": "39.902924",
  "longitude": "126.687935"
}
]