[
{
  "number": "1",
  "storeName": "천하제일복권명당유성점",
  "phoneNumber": "042-822-3536",
  "address": "대전 유성구 구암동 609-9번지",
  "latitude": "36.35093",
  "longitude": "127.33514"
},
{
  "number": "2",
  "storeName": "이마트24 유성코아점",
  "phoneNumber": "042-823-2870",
  "address": "대전 유성구 장대동 286-14번지 코아마트",
  "latitude": "36.357445",
  "longitude": "127.338104"
},
{
  "number": "3",
  "storeName": "성원당",
  "phoneNumber": "042-862-0664",
  "address": "대전 유성구 신성동 142-3",
  "latitude": "36.389267",
  "longitude": "127.348854"
},
{
  "number": "4",
  "storeName": "씨유 대전원내점",
  "phoneNumber": "042-543-8949",
  "address": "대전 유성구 원내동 228-8번지 CU편의점",
  "latitude": "36.300053",
  "longitude": "127.31984"
},
{
  "number": "5",
  "storeName": "로또복권방",
  "phoneNumber": "",
  "address": "대전 유성구 봉명동 617-4 1층 113호",
  "latitude": "36.416595",
  "longitude": "127.34339"
},
{
  "number": "6",
  "storeName": "애니타임로또",
  "phoneNumber": "042-823-6004",
  "address": "대전 유성구 장대동 281-23번지 커피숍 내",
  "latitude": "36.35953",
  "longitude": "127.33642"
},
{
  "number": "7",
  "storeName": "노다지복권방유성온천",
  "phoneNumber": "042-823-7741",
  "address": "대전 유성구 원내동 197-12",
  "latitude": "36.300503",
  "longitude": "127.315575"
},
{
  "number": "8",
  "storeName": "로또방",
  "phoneNumber": "042-824-2711",
  "address": "대전 유성구 관평동 1034",
  "latitude": "36.390823",
  "longitude": "127.312256"
},
{
  "number": "9",
  "storeName": "송강로또",
  "phoneNumber": "042-935-7190",
  "address": "대전 유성구 봉산동 234-9번지",
  "latitude": "36.434715",
  "longitude": "127.38822"
},
{
  "number": "10",
  "storeName": "태양마트",
  "phoneNumber": "042-477-6236",
  "address": "대전 유성구 지족동 905-1번지 그랜드타운105호",
  "latitude": "36.373634",
  "longitude": "127.31843"
},
{
  "number": "11",
  "storeName": "대한민국마트",
  "phoneNumber": "042-862-1888",
  "address": "대전 유성구 전민동 458-9번지 다세대주택 1층",
  "latitude": "36.39666",
  "longitude": "127.402504"
},
{
  "number": "12",
  "storeName": "지에스(GS)25대전코젤점",
  "phoneNumber": "042-824-7079",
  "address": "대전 유성구 원내동 802 코젤병원 1층 GS25편의점",
  "latitude": "36.301067",
  "longitude": "127.32675"
},
{
  "number": "13",
  "storeName": "논스톱복권",
  "phoneNumber": "042-936-5408",
  "address": "대전 유성구 송강동 208-6번지 CU편의점",
  "latitude": "36.42909",
  "longitude": "127.383514"
},
{
  "number": "14",
  "storeName": "DQ24 죽동점",
  "phoneNumber": "042-822-8627",
  "address": "대전 유성구 죽동 695-3번지",
  "latitude": "36.36143",
  "longitude": "127.341866"
},
{
  "number": "15",
  "storeName": "대광광고사",
  "phoneNumber": "042-936-7878",
  "address": "대전 유성구 송강동 195-17번지",
  "latitude": "36.43382",
  "longitude": "127.38506"
},
{
  "number": "16",
  "storeName": "성원상사",
  "phoneNumber": "042-863-0598",
  "address": "대전 유성구 전민동 466-3번지 엑스포상가1층117호",
  "latitude": "36.39996",
  "longitude": "127.405685"
},
{
  "number": "17",
  "storeName": "씨스페이스전민",
  "phoneNumber": "042-867-7142",
  "address": "대전 유성구 전민동 304-10",
  "latitude": "36.399605",
  "longitude": "127.402504"
},
{
  "number": "18",
  "storeName": "씨스페이스(유성봉명)",
  "phoneNumber": "042-824-0535",
  "address": "대전 유성구 봉명동 546-4번지",
  "latitude": "36.354572",
  "longitude": "127.34645"
},
{
  "number": "19",
  "storeName": "GS25(유성대온장점)",
  "phoneNumber": "042-823-2505",
  "address": "대전 유성구 봉명동 535-8번지",
  "latitude": "36.35601",
  "longitude": "127.34155"
},
{
  "number": "20",
  "storeName": "GS25(대전원내점)",
  "phoneNumber": "042-545-7227",
  "address": "대전 유성구 원내동 343-11",
  "latitude": "36.297997",
  "longitude": "127.31999"
},
{
  "number": "21",
  "storeName": "GS25(신성중앙점)",
  "phoneNumber": "042-864-1197",
  "address": "대전 유성구 신성동 213-9번지",
  "latitude": "36.386887",
  "longitude": "127.349686"
},
{
  "number": "22",
  "storeName": "GS25(대전대정점)",
  "phoneNumber": "042-545-0413",
  "address": "대전 유성구 대정동 312-2번지",
  "latitude": "36.31432",
  "longitude": "127.32108"
},
{
  "number": "23",
  "storeName": "GS25(대전대림점)",
  "phoneNumber": "042-824-1924",
  "address": "대전 유성구 궁동 405-11번지",
  "latitude": "36.362152",
  "longitude": "127.35297"
},
{
  "number": "24",
  "storeName": "GS25(대전도룡점)",
  "phoneNumber": "042-867-6526",
  "address": "대전 유성구 도룡동 385-16",
  "latitude": "36.385883",
  "longitude": "127.37902"
},
{
  "number": "25",
  "storeName": "GS25(대전테크노점)",
  "phoneNumber": "042-671-8893",
  "address": "대전 유성구 관평동 833번지",
  "latitude": "36.424942",
  "longitude": "127.38894"
},
{
  "number": "26",
  "storeName": "GS25(전민푸른점)",
  "phoneNumber": "042-867-1575",
  "address": "대전 유성구 전민동 460-1번지 푸른아파트단지내 상가 101-102호",
  "latitude": "36.399006",
  "longitude": "127.398796"
},
{
  "number": "27",
  "storeName": "로또명당도안점",
  "phoneNumber": "",
  "address": "대전 유성구 봉명동 1033-4번지",
  "latitude": "36.3464",
  "longitude": "127.3416"
},
{
  "number": "28",
  "storeName": "힐링로또",
  "phoneNumber": "",
  "address": "대전 유성구 진잠동 723-2",
  "latitude": "36.337578",
  "longitude": "127.2943"
},
{
  "number": "29",
  "storeName": "로또편의점",
  "phoneNumber": "",
  "address": "대전 유성구 원내동 74-4번지 교촌빌딩",
  "latitude": "36.30328",
  "longitude": "127.31763"
},
{
  "number": "30",
  "storeName": "씨유 대전반석역점",
  "phoneNumber": "042-825-5121",
  "address": "대전 유성구 반석동 637",
  "latitude": "36.3921",
  "longitude": "127.31348"
},
{
  "number": "31",
  "storeName": "복권전문점",
  "phoneNumber": "042-825-8191",
  "address": "대전 유성구 봉명동 568-4번지",
  "latitude": "36.354042",
  "longitude": "127.33618"
},
{
  "number": "32",
  "storeName": "도안스마트로또",
  "phoneNumber": "042-826-3443",
  "address": "대전 유성구 온천1동 575-13",
  "latitude": "36.333794",
  "longitude": "127.33799"
},
{
  "number": "33",
  "storeName": "로또한밭점",
  "phoneNumber": "",
  "address": "대전 유성구 진잠동 803-10",
  "latitude": "36.35152",
  "longitude": "127.292755"
},
{
  "number": "34",
  "storeName": "대박나라",
  "phoneNumber": "",
  "address": "대전 유성구 장대동 191-23",
  "latitude": "36.35735",
  "longitude": "127.33417"
},
{
  "number": "35",
  "storeName": "GS25(대덕밸리점)",
  "phoneNumber": "042-934-7351",
  "address": "대전 유성구 용산동 575번지 테크노피아",
  "latitude": "36.422745",
  "longitude": "127.40086"
},
{
  "number": "36",
  "storeName": "행운로또복권방",
  "phoneNumber": "",
  "address": "대전 유성구 온천1동 448-5 108-1호",
  "latitude": "36.353756",
  "longitude": "127.33825"
}
]