[
{
  "number": "1",
  "storeName": "노다지복권방",
  "phoneNumber": "052-237-1583",
  "address": "울산 울주군 온양읍 운화리 2-10번지",
  "latitude": "35.41519",
  "longitude": "129.28128"
},
{
  "number": "2",
  "storeName": "대박복권방",
  "phoneNumber": "052-248-3350",
  "address": "울산 울주군 범서읍 구영리 385-3번지 위드미내",
  "latitude": "35.568714",
  "longitude": "129.24295"
},
{
  "number": "3",
  "storeName": "로또복권",
  "phoneNumber": "052-238-7199",
  "address": "울산 울주군 서생면 진하리 298-18번지 굿모닝마트내",
  "latitude": "35.382885",
  "longitude": "129.34511"
},
{
  "number": "4",
  "storeName": "행운열차복권방",
  "phoneNumber": "",
  "address": "울산 울주군 언양읍 동부리 124-11",
  "latitude": "35.558487",
  "longitude": "129.1153"
},
{
  "number": "5",
  "storeName": "사랑정보통신",
  "phoneNumber": "052-239-8689",
  "address": "울산 울주군 온산읍 덕신리 1294-1",
  "latitude": "35.434696",
  "longitude": "129.31036"
},
{
  "number": "6",
  "storeName": "덕하복권명당",
  "phoneNumber": "052-265-6450",
  "address": "울산 울주군 청량면 상남리 582-5",
  "latitude": "35.49126",
  "longitude": "129.30446"
},
{
  "number": "7",
  "storeName": "우리들덕신점",
  "phoneNumber": "052-238-2202",
  "address": "울산 울주군 온산읍 덕신리 1296-11번지",
  "latitude": "35.434177",
  "longitude": "129.31139"
},
{
  "number": "8",
  "storeName": "온양복권판매점",
  "phoneNumber": "052-238-3671",
  "address": "울산 울주군 온양읍 남창리 162-4번지",
  "latitude": "35.41766",
  "longitude": "129.28172"
},
{
  "number": "9",
  "storeName": "로또구영편의점",
  "phoneNumber": "070-8807-4323",
  "address": "울산 울주군 범서읍 구영리 853-2번지 구영프라자1층111호",
  "latitude": "35.573635",
  "longitude": "129.24136"
},
{
  "number": "10",
  "storeName": "만복로또복권방",
  "phoneNumber": "052-237-3805",
  "address": "울산 울주군 온산읍 덕신리 1360-6",
  "latitude": "35.43986",
  "longitude": "129.308"
},
{
  "number": "11",
  "storeName": "무지개휴게소",
  "phoneNumber": "052-239-1808",
  "address": "울산 울주군 온산읍 화산리 1007-1번지",
  "latitude": "35.43949",
  "longitude": "129.33249"
},
{
  "number": "12",
  "storeName": "나눔상사",
  "phoneNumber": "050-5627-7777",
  "address": "울산 울주군 삼남면 교동리 1569-13번지",
  "latitude": "35.55895",
  "longitude": "129.12065"
},
{
  "number": "13",
  "storeName": "1등복권방",
  "phoneNumber": "052-264-8895",
  "address": "울산 울주군 언양읍 반송리 253번지",
  "latitude": "35.56417",
  "longitude": "129.1246"
},
{
  "number": "14",
  "storeName": "행운복권방",
  "phoneNumber": "052-239-2866",
  "address": "울산 울주군 온양읍 대안리 400-1번지 상아아파트상가107",
  "latitude": "35.40995",
  "longitude": "129.28249"
},
{
  "number": "15",
  "storeName": "천상복권방",
  "phoneNumber": "",
  "address": "울산 울주군 범서읍 천상리 317-2 1층 101호",
  "latitude": "35.56173",
  "longitude": "129.22989"
},
{
  "number": "16",
  "storeName": "태평로또판매점",
  "phoneNumber": "",
  "address": "울산 울주군 온양읍 대안리 195-1",
  "latitude": "35.408405",
  "longitude": "129.28743"
},
{
  "number": "17",
  "storeName": "동성슈퍼",
  "phoneNumber": "",
  "address": "울산 울주군 언양읍 동부리 351-6 101호",
  "latitude": "35.56906",
  "longitude": "129.11266"
},
{
  "number": "18",
  "storeName": "샘복권방",
  "phoneNumber": "052-211-0180",
  "address": "울산 울주군 범서읍 천상리 산32-12번지",
  "latitude": "35.56302",
  "longitude": "129.22873"
},
{
  "number": "19",
  "storeName": "로또마트",
  "phoneNumber": "",
  "address": "울산 울주군 범서읍 구영리 132-3",
  "latitude": "35.565872",
  "longitude": "129.24959"
},
{
  "number": "20",
  "storeName": "아이스크림 할인매장",
  "phoneNumber": "",
  "address": "울산 울주군 온산읍 덕신리 440-15",
  "latitude": "35.427765",
  "longitude": "129.31085"
},
{
  "number": "21",
  "storeName": "모아마트",
  "phoneNumber": "052-254-6696",
  "address": "울산 울주군 상북면 궁근정리 490-1 모아마트",
  "latitude": "35.61354",
  "longitude": "129.07202"
},
{
  "number": "22",
  "storeName": "복권방",
  "phoneNumber": "",
  "address": "울산 울주군 온양읍 망양리 481-103 동양마트 망양점내",
  "latitude": "35.45483",
  "longitude": "129.28955"
},
{
  "number": "23",
  "storeName": "진승복권방",
  "phoneNumber": "",
  "address": "울산 울주군 온산읍 덕신리 292-8",
  "latitude": "35.43106",
  "longitude": "129.3093"
}
]